% program   : RTKLIB MATLAB
% sol start : 2023/07/11 06:04:30.0 GPST
% sol end   : 2023/07/11 06:25:00.0 GPST
%
% (lat/lon/height=WGS84/ellipsoidal,Q=1:fix,2:float,3:sbas,4:dgps,5:single,6:ppp,ns=# of satellites)
%  GPST                  latitude(deg) longitude(deg)  height(m)   Q  ns   sdn(m)   sde(m)   sdu(m)  sdne(m)  sdeu(m)  sdun(m) age(s)  ratio
2023/07/11 06:04:30.000   35.165361090  136.881408660    41.3910   1   1   0.0000   0.0000   0.0000   0.0000   0.0000   0.0000   0.00    0.0
2023/07/11 06:04:31.000   35.165361090  136.881408660    41.3910   1   1   0.0000   0.0000   0.0000   0.0000   0.0000   0.0000   0.00    0.0
2023/07/11 06:04:32.000   35.165361090  136.881408660    41.3910   1   1   0.0000   0.0000   0.0000   0.0000   0.0000   0.0000   0.00    0.0
2023/07/11 06:04:33.000   35.165361090  136.881408660    41.3910   1   1   0.0000   0.0000   0.0000   0.0000   0.0000   0.0000   0.00    0.0
2023/07/11 06:04:34.000   35.165361090  136.881408660    41.3910   1   1   0.0000   0.0000   0.0000   0.0000   0.0000   0.0000   0.00    0.0
2023/07/11 06:04:35.000   35.165361080  136.881408650    41.3910   1   1   0.0000   0.0000   0.0000   0.0000   0.0000   0.0000   0.00    0.0
2023/07/11 06:04:36.000   35.165361090  136.881408660    41.3910   1   1   0.0000   0.0000   0.0000   0.0000   0.0000   0.0000   0.00    0.0
2023/07/11 06:04:37.000   35.165361090  136.881408660    41.3910   1   1   0.0000   0.0000   0.0000   0.0000   0.0000   0.0000   0.00    0.0
2023/07/11 06:04:38.000   35.165361090  136.881408660    41.3910   1   1   0.0000   0.0000   0.0000   0.0000   0.0000   0.0000   0.00    0.0
2023/07/11 06:04:39.000   35.165361090  136.881408660    41.3910   1   1   0.0000   0.0000   0.0000   0.0000   0.0000   0.0000   0.00    0.0
2023/07/11 06:04:40.000   35.165361090  136.881408660    41.3910   1   1   0.0000   0.0000   0.0000   0.0000   0.0000   0.0000   0.00    0.0
2023/07/11 06:04:41.000   35.165361090  136.881408660    41.3910   1   1   0.0000   0.0000   0.0000   0.0000   0.0000   0.0000   0.00    0.0
2023/07/11 06:04:42.000   35.165361090  136.881408660    41.3910   1   1   0.0000   0.0000   0.0000   0.0000   0.0000   0.0000   0.00    0.0
2023/07/11 06:04:43.000   35.165361090  136.881408660    41.3910   1   1   0.0000   0.0000   0.0000   0.0000   0.0000   0.0000   0.00    0.0
2023/07/11 06:04:44.000   35.165361090  136.881408660    41.3910   1   1   0.0000   0.0000   0.0000   0.0000   0.0000   0.0000   0.00    0.0
2023/07/11 06:04:45.000   35.165361090  136.881408660    41.3910   1   1   0.0000   0.0000   0.0000   0.0000   0.0000   0.0000   0.00    0.0
2023/07/11 06:04:46.000   35.165361090  136.881408660    41.3910   1   1   0.0000   0.0000   0.0000   0.0000   0.0000   0.0000   0.00    0.0
2023/07/11 06:04:47.000   35.165361090  136.881408660    41.3910   1   1   0.0000   0.0000   0.0000   0.0000   0.0000   0.0000   0.00    0.0
2023/07/11 06:04:48.000   35.165361090  136.881408660    41.3910   1   1   0.0000   0.0000   0.0000   0.0000   0.0000   0.0000   0.00    0.0
2023/07/11 06:04:49.000   35.165361090  136.881408660    41.3910   1   1   0.0000   0.0000   0.0000   0.0000   0.0000   0.0000   0.00    0.0
2023/07/11 06:04:50.000   35.165361090  136.881408660    41.3910   1   1   0.0000   0.0000   0.0000   0.0000   0.0000   0.0000   0.00    0.0
2023/07/11 06:04:51.000   35.165361090  136.881408660    41.3910   1   1   0.0000   0.0000   0.0000   0.0000   0.0000   0.0000   0.00    0.0
2023/07/11 06:04:52.000   35.165361090  136.881408660    41.3910   1   1   0.0000   0.0000   0.0000   0.0000   0.0000   0.0000   0.00    0.0
2023/07/11 06:04:53.000   35.165361090  136.881408660    41.3910   1   1   0.0000   0.0000   0.0000   0.0000   0.0000   0.0000   0.00    0.0
2023/07/11 06:04:54.000   35.165361090  136.881408660    41.3910   1   1   0.0000   0.0000   0.0000   0.0000   0.0000   0.0000   0.00    0.0
2023/07/11 06:04:55.000   35.165361090  136.881408660    41.3910   1   1   0.0000   0.0000   0.0000   0.0000   0.0000   0.0000   0.00    0.0
2023/07/11 06:04:56.000   35.165361090  136.881408660    41.3910   1   1   0.0000   0.0000   0.0000   0.0000   0.0000   0.0000   0.00    0.0
2023/07/11 06:04:57.000   35.165361090  136.881408660    41.3910   1   1   0.0000   0.0000   0.0000   0.0000   0.0000   0.0000   0.00    0.0
2023/07/11 06:04:58.000   35.165361090  136.881408660    41.3910   1   1   0.0000   0.0000   0.0000   0.0000   0.0000   0.0000   0.00    0.0
2023/07/11 06:04:59.000   35.165361090  136.881408660    41.3910   1   1   0.0000   0.0000   0.0000   0.0000   0.0000   0.0000   0.00    0.0
2023/07/11 06:05:00.000   35.165361080  136.881408660    41.3910   1   1   0.0000   0.0000   0.0000   0.0000   0.0000   0.0000   0.00    0.0
2023/07/11 06:05:01.000   35.165361080  136.881408660    41.3910   1   1   0.0000   0.0000   0.0000   0.0000   0.0000   0.0000   0.00    0.0
2023/07/11 06:05:02.000   35.165361090  136.881408660    41.3910   1   1   0.0000   0.0000   0.0000   0.0000   0.0000   0.0000   0.00    0.0
2023/07/11 06:05:03.000   35.165361080  136.881408660    41.3910   1   1   0.0000   0.0000   0.0000   0.0000   0.0000   0.0000   0.00    0.0
2023/07/11 06:05:04.000   35.165361090  136.881408670    41.3900   1   1   0.0000   0.0000   0.0000   0.0000   0.0000   0.0000   0.00    0.0
2023/07/11 06:05:05.000   35.165361140  136.881407270    41.4020   1   1   0.0000   0.0000   0.0000   0.0000   0.0000   0.0000   0.00    0.0
2023/07/11 06:05:06.000   35.165361040  136.881403560    41.4110   1   1   0.0000   0.0000   0.0000   0.0000   0.0000   0.0000   0.00    0.0
2023/07/11 06:05:07.000   35.165360550  136.881398830    41.4220   1   1   0.0000   0.0000   0.0000   0.0000   0.0000   0.0000   0.00    0.0
2023/07/11 06:05:08.000   35.165359240  136.881392480    41.4360   1   1   0.0000   0.0000   0.0000   0.0000   0.0000   0.0000   0.00    0.0
2023/07/11 06:05:09.000   35.165356050  136.881384060    41.4670   1   1   0.0000   0.0000   0.0000   0.0000   0.0000   0.0000   0.00    0.0
2023/07/11 06:05:10.000   35.165350360  136.881375510    41.4830   1   1   0.0000   0.0000   0.0000   0.0000   0.0000   0.0000   0.00    0.0
2023/07/11 06:05:11.000   35.165341600  136.881366660    41.5020   1   1   0.0000   0.0000   0.0000   0.0000   0.0000   0.0000   0.00    0.0
2023/07/11 06:05:12.000   35.165329160  136.881358220    41.5180   1   1   0.0000   0.0000   0.0000   0.0000   0.0000   0.0000   0.00    0.0
2023/07/11 06:05:13.000   35.165313560  136.881348770    41.5120   1   1   0.0000   0.0000   0.0000   0.0000   0.0000   0.0000   0.00    0.0
2023/07/11 06:05:14.000   35.165297030  136.881335880    41.5010   1   1   0.0000   0.0000   0.0000   0.0000   0.0000   0.0000   0.00    0.0
2023/07/11 06:05:15.000   35.165282670  136.881316480    41.4700   1   1   0.0000   0.0000   0.0000   0.0000   0.0000   0.0000   0.00    0.0
2023/07/11 06:05:16.000   35.165273130  136.881291080    41.4610   1   1   0.0000   0.0000   0.0000   0.0000   0.0000   0.0000   0.00    0.0
2023/07/11 06:05:17.000   35.165269240  136.881264820    41.4540   1   1   0.0000   0.0000   0.0000   0.0000   0.0000   0.0000   0.00    0.0
2023/07/11 06:05:18.000   35.165267980  136.881239670    41.4560   1   1   0.0000   0.0000   0.0000   0.0000   0.0000   0.0000   0.00    0.0
2023/07/11 06:05:19.000   35.165268410  136.881214220    41.4660   1   1   0.0000   0.0000   0.0000   0.0000   0.0000   0.0000   0.00    0.0
2023/07/11 06:05:20.000   35.165270950  136.881187430    41.4830   1   1   0.0000   0.0000   0.0000   0.0000   0.0000   0.0000   0.00    0.0
2023/07/11 06:05:21.000   35.165274670  136.881162510    41.4880   1   1   0.0000   0.0000   0.0000   0.0000   0.0000   0.0000   0.00    0.0
2023/07/11 06:05:22.000   35.165277370  136.881139330    41.4920   1   1   0.0000   0.0000   0.0000   0.0000   0.0000   0.0000   0.00    0.0
2023/07/11 06:05:23.000   35.165278490  136.881118310    41.4960   1   1   0.0000   0.0000   0.0000   0.0000   0.0000   0.0000   0.00    0.0
2023/07/11 06:05:24.000   35.165277130  136.881100850    41.4900   1   1   0.0000   0.0000   0.0000   0.0000   0.0000   0.0000   0.00    0.0
2023/07/11 06:05:25.000   35.165273490  136.881086290    41.4740   1   1   0.0000   0.0000   0.0000   0.0000   0.0000   0.0000   0.00    0.0
2023/07/11 06:05:26.000   35.165267250  136.881075140    41.4570   1   1   0.0000   0.0000   0.0000   0.0000   0.0000   0.0000   0.00    0.0
2023/07/11 06:05:27.000   35.165259330  136.881066650    41.4360   1   1   0.0000   0.0000   0.0000   0.0000   0.0000   0.0000   0.00    0.0
2023/07/11 06:05:28.000   35.165250680  136.881060660    41.4160   1   1   0.0000   0.0000   0.0000   0.0000   0.0000   0.0000   0.00    0.0
2023/07/11 06:05:29.000   35.165243270  136.881057260    41.3910   1   1   0.0000   0.0000   0.0000   0.0000   0.0000   0.0000   0.00    0.0
2023/07/11 06:05:30.000   35.165234750  136.881054440    41.3580   1   1   0.0000   0.0000   0.0000   0.0000   0.0000   0.0000   0.00    0.0
2023/07/11 06:05:31.000   35.165226910  136.881052230    41.3410   1   1   0.0000   0.0000   0.0000   0.0000   0.0000   0.0000   0.00    0.0
2023/07/11 06:05:32.000   35.165221190  136.881050730    41.3000   1   1   0.0000   0.0000   0.0000   0.0000   0.0000   0.0000   0.00    0.0
2023/07/11 06:05:33.000   35.165215820  136.881049460    41.2550   1   1   0.0000   0.0000   0.0000   0.0000   0.0000   0.0000   0.00    0.0
2023/07/11 06:05:34.000   35.165212320  136.881048700    41.2270   1   1   0.0000   0.0000   0.0000   0.0000   0.0000   0.0000   0.00    0.0
2023/07/11 06:05:35.000   35.165211980  136.881048620    41.2250   1   1   0.0000   0.0000   0.0000   0.0000   0.0000   0.0000   0.00    0.0
2023/07/11 06:05:36.000   35.165211980  136.881048620    41.2250   1   1   0.0000   0.0000   0.0000   0.0000   0.0000   0.0000   0.00    0.0
2023/07/11 06:05:37.000   35.165211980  136.881048620    41.2250   1   1   0.0000   0.0000   0.0000   0.0000   0.0000   0.0000   0.00    0.0
2023/07/11 06:05:38.000   35.165212010  136.881048640    41.2260   1   1   0.0000   0.0000   0.0000   0.0000   0.0000   0.0000   0.00    0.0
2023/07/11 06:05:39.000   35.165212010  136.881048640    41.2260   1   1   0.0000   0.0000   0.0000   0.0000   0.0000   0.0000   0.00    0.0
2023/07/11 06:05:40.000   35.165212010  136.881048630    41.2260   1   1   0.0000   0.0000   0.0000   0.0000   0.0000   0.0000   0.00    0.0
2023/07/11 06:05:41.000   35.165212010  136.881048620    41.2270   1   1   0.0000   0.0000   0.0000   0.0000   0.0000   0.0000   0.00    0.0
2023/07/11 06:05:42.000   35.165212010  136.881048620    41.2270   1   1   0.0000   0.0000   0.0000   0.0000   0.0000   0.0000   0.00    0.0
2023/07/11 06:05:43.000   35.165212010  136.881048610    41.2270   1   1   0.0000   0.0000   0.0000   0.0000   0.0000   0.0000   0.00    0.0
2023/07/11 06:05:44.000   35.165212010  136.881048620    41.2270   1   1   0.0000   0.0000   0.0000   0.0000   0.0000   0.0000   0.00    0.0
2023/07/11 06:05:45.000   35.165212010  136.881048640    41.2260   1   1   0.0000   0.0000   0.0000   0.0000   0.0000   0.0000   0.00    0.0
2023/07/11 06:05:46.000   35.165212010  136.881048640    41.2260   1   1   0.0000   0.0000   0.0000   0.0000   0.0000   0.0000   0.00    0.0
2023/07/11 06:05:47.000   35.165211950  136.881048590    41.2260   1   1   0.0000   0.0000   0.0000   0.0000   0.0000   0.0000   0.00    0.0
2023/07/11 06:05:48.000   35.165207950  136.881048060    41.1810   1   1   0.0000   0.0000   0.0000   0.0000   0.0000   0.0000   0.00    0.0
2023/07/11 06:05:49.000   35.165200290  136.881047710    41.0970   1   1   0.0000   0.0000   0.0000   0.0000   0.0000   0.0000   0.00    0.0
2023/07/11 06:05:50.000   35.165191360  136.881047170    41.0100   1   1   0.0000   0.0000   0.0000   0.0000   0.0000   0.0000   0.00    0.0
2023/07/11 06:05:51.000   35.165181660  136.881046360    40.9350   1   1   0.0000   0.0000   0.0000   0.0000   0.0000   0.0000   0.00    0.0
2023/07/11 06:05:52.000   35.165169710  136.881044720    40.8430   1   1   0.0000   0.0000   0.0000   0.0000   0.0000   0.0000   0.00    0.0
2023/07/11 06:05:53.000   35.165155460  136.881037060    40.7860   1   1   0.0000   0.0000   0.0000   0.0000   0.0000   0.0000   0.00    0.0
2023/07/11 06:05:54.000   35.165141410  136.881021150    40.7670   1   1   0.0000   0.0000   0.0000   0.0000   0.0000   0.0000   0.00    0.0
2023/07/11 06:05:55.000   35.165131650  136.880998720    40.7770   1   1   0.0000   0.0000   0.0000   0.0000   0.0000   0.0000   0.00    0.0
2023/07/11 06:05:56.000   35.165125330  136.880968730    40.8160   1   1   0.0000   0.0000   0.0000   0.0000   0.0000   0.0000   0.00    0.0
2023/07/11 06:05:57.000   35.165124270  136.880929730    40.8310   1   1   0.0000   0.0000   0.0000   0.0000   0.0000   0.0000   0.00    0.0
2023/07/11 06:05:58.000   35.165129230  136.880883920    40.8710   1   1   0.0000   0.0000   0.0000   0.0000   0.0000   0.0000   0.00    0.0
2023/07/11 06:05:59.000   35.165138180  136.880839730    40.9400   1   1   0.0000   0.0000   0.0000   0.0000   0.0000   0.0000   0.00    0.0
2023/07/11 06:06:00.000   35.165146220  136.880800040    40.9730   1   1   0.0000   0.0000   0.0000   0.0000   0.0000   0.0000   0.00    0.0
2023/07/11 06:06:01.000   35.165150960  136.880765710    41.0190   1   1   0.0000   0.0000   0.0000   0.0000   0.0000   0.0000   0.00    0.0
2023/07/11 06:06:02.000   35.165153430  136.880731640    41.0570   1   1   0.0000   0.0000   0.0000   0.0000   0.0000   0.0000   0.00    0.0
2023/07/11 06:06:03.000   35.165151350  136.880700360    41.0270   1   1   0.0000   0.0000   0.0000   0.0000   0.0000   0.0000   0.00    0.0
2023/07/11 06:06:04.000   35.165145360  136.880676070    41.0150   1   1   0.0000   0.0000   0.0000   0.0000   0.0000   0.0000   0.00    0.0
2023/07/11 06:06:05.000   35.165135000  136.880657270    40.9900   1   1   0.0000   0.0000   0.0000   0.0000   0.0000   0.0000   0.00    0.0
2023/07/11 06:06:06.000   35.165116920  136.880641780    40.9800   1   1   0.0000   0.0000   0.0000   0.0000   0.0000   0.0000   0.00    0.0
2023/07/11 06:06:07.000   35.165086620  136.880629320    40.9390   1   1   0.0000   0.0000   0.0000   0.0000   0.0000   0.0000   0.00    0.0
2023/07/11 06:06:08.000   35.165044400  136.880618480    40.8800   1   1   0.0000   0.0000   0.0000   0.0000   0.0000   0.0000   0.00    0.0
2023/07/11 06:06:09.000   35.164991940  136.880607250    40.8590   1   1   0.0000   0.0000   0.0000   0.0000   0.0000   0.0000   0.00    0.0
2023/07/11 06:06:10.000   35.164931360  136.880594440    40.8450   1   1   0.0000   0.0000   0.0000   0.0000   0.0000   0.0000   0.00    0.0
2023/07/11 06:06:11.000   35.164865870  136.880580010    40.7980   1   1   0.0000   0.0000   0.0000   0.0000   0.0000   0.0000   0.00    0.0
2023/07/11 06:06:12.000   35.164795650  136.880567430    40.7590   1   1   0.0000   0.0000   0.0000   0.0000   0.0000   0.0000   0.00    0.0
2023/07/11 06:06:13.000   35.164720410  136.880555450    40.7310   1   1   0.0000   0.0000   0.0000   0.0000   0.0000   0.0000   0.00    0.0
2023/07/11 06:06:14.000   35.164640320  136.880544600    40.6960   1   1   0.0000   0.0000   0.0000   0.0000   0.0000   0.0000   0.00    0.0
2023/07/11 06:06:15.000   35.164555800  136.880535590    40.6640   1   1   0.0000   0.0000   0.0000   0.0000   0.0000   0.0000   0.00    0.0
2023/07/11 06:06:16.000   35.164467940  136.880527540    40.6290   1   1   0.0000   0.0000   0.0000   0.0000   0.0000   0.0000   0.00    0.0
2023/07/11 06:06:17.000   35.164377550  136.880521300    40.6020   1   1   0.0000   0.0000   0.0000   0.0000   0.0000   0.0000   0.00    0.0
2023/07/11 06:06:18.000   35.164283630  136.880517200    40.5590   1   1   0.0000   0.0000   0.0000   0.0000   0.0000   0.0000   0.00    0.0
2023/07/11 06:06:19.000   35.164187420  136.880515190    40.5250   1   1   0.0000   0.0000   0.0000   0.0000   0.0000   0.0000   0.00    0.0
2023/07/11 06:06:20.000   35.164090240  136.880515170    40.4770   1   1   0.0000   0.0000   0.0000   0.0000   0.0000   0.0000   0.00    0.0
2023/07/11 06:06:21.000   35.163992400  136.880516830    40.5270   1   1   0.0000   0.0000   0.0000   0.0000   0.0000   0.0000   0.00    0.0
2023/07/11 06:06:22.000   35.163893780  136.880519180    40.4140   1   1   0.0000   0.0000   0.0000   0.0000   0.0000   0.0000   0.00    0.0
2023/07/11 06:06:23.000   35.163793770  136.880520120    40.2490   1   1   0.0000   0.0000   0.0000   0.0000   0.0000   0.0000   0.00    0.0
2023/07/11 06:06:24.000   35.163692210  136.880519670    40.0740   1   1   0.0000   0.0000   0.0000   0.0000   0.0000   0.0000   0.00    0.0
2023/07/11 06:06:25.000   35.163588970  136.880520710    39.8550   1   1   0.0000   0.0000   0.0000   0.0000   0.0000   0.0000   0.00    0.0
2023/07/11 06:06:26.000   35.163482960  136.880522050    39.5810   1   1   0.0000   0.0000   0.0000   0.0000   0.0000   0.0000   0.00    0.0
2023/07/11 06:06:27.000   35.163373170  136.880523780    39.1260   1   1   0.0000   0.0000   0.0000   0.0000   0.0000   0.0000   0.00    0.0
2023/07/11 06:06:28.000   35.163261880  136.880525980    38.5160   1   1   0.0000   0.0000   0.0000   0.0000   0.0000   0.0000   0.00    0.0
2023/07/11 06:06:29.000   35.163148440  136.880527350    37.7960   1   1   0.0000   0.0000   0.0000   0.0000   0.0000   0.0000   0.00    0.0
2023/07/11 06:06:30.000   35.163034850  136.880529300    37.0340   1   1   0.0000   0.0000   0.0000   0.0000   0.0000   0.0000   0.00    0.0
2023/07/11 06:06:31.000   35.162923200  136.880535130    36.2830   1   1   0.0000   0.0000   0.0000   0.0000   0.0000   0.0000   0.00    0.0
2023/07/11 06:06:32.000   35.162813980  136.880550690    35.5250   1   1   0.0000   0.0000   0.0000   0.0000   0.0000   0.0000   0.00    0.0
2023/07/11 06:06:33.000   35.162706870  136.880576940    34.7510   1   1   0.0000   0.0000   0.0000   0.0000   0.0000   0.0000   0.00    0.0
2023/07/11 06:06:34.000   35.162600200  136.880614120    34.0690   1   1   0.0000   0.0000   0.0000   0.0000   0.0000   0.0000   0.00    0.0
2023/07/11 06:06:35.000   35.162492980  136.880664250    33.5970   1   1   0.0000   0.0000   0.0000   0.0000   0.0000   0.0000   0.00    0.0
2023/07/11 06:06:36.000   35.162386000  136.880726940    33.3610   1   1   0.0000   0.0000   0.0000   0.0000   0.0000   0.0000   0.00    0.0
2023/07/11 06:06:37.000   35.162279200  136.880797930    33.2950   1   1   0.0000   0.0000   0.0000   0.0000   0.0000   0.0000   0.00    0.0
2023/07/11 06:06:38.000   35.162171840  136.880873960    33.2360   1   1   0.0000   0.0000   0.0000   0.0000   0.0000   0.0000   0.00    0.0
2023/07/11 06:06:39.000   35.162063240  136.880952850    33.1670   1   1   0.0000   0.0000   0.0000   0.0000   0.0000   0.0000   0.00    0.0
2023/07/11 06:06:40.000   35.161954360  136.881032200    33.1280   1   1   0.0000   0.0000   0.0000   0.0000   0.0000   0.0000   0.00    0.0
2023/07/11 06:06:41.000   35.161846110  136.881110740    33.0590   1   1   0.0000   0.0000   0.0000   0.0000   0.0000   0.0000   0.00    0.0
2023/07/11 06:06:42.000   35.161739410  136.881188470    33.0170   1   1   0.0000   0.0000   0.0000   0.0000   0.0000   0.0000   0.00    0.0
2023/07/11 06:06:43.000   35.161638430  136.881262790    32.9690   1   1   0.0000   0.0000   0.0000   0.0000   0.0000   0.0000   0.00    0.0
2023/07/11 06:06:44.000   35.161547380  136.881330740    32.9140   1   1   0.0000   0.0000   0.0000   0.0000   0.0000   0.0000   0.00    0.0
2023/07/11 06:06:45.000   35.161467770  136.881390370    32.8680   1   1   0.0000   0.0000   0.0000   0.0000   0.0000   0.0000   0.00    0.0
2023/07/11 06:06:46.000   35.161400180  136.881440590    32.8270   1   1   0.0000   0.0000   0.0000   0.0000   0.0000   0.0000   0.00    0.0
2023/07/11 06:06:47.000   35.161347930  136.881479170    32.8020   1   1   0.0000   0.0000   0.0000   0.0000   0.0000   0.0000   0.00    0.0
2023/07/11 06:06:48.000   35.161316390  136.881502440    32.7690   1   1   0.0000   0.0000   0.0000   0.0000   0.0000   0.0000   0.00    0.0
2023/07/11 06:06:49.000   35.161305380  136.881510500    32.7570   1   1   0.0000   0.0000   0.0000   0.0000   0.0000   0.0000   0.00    0.0
2023/07/11 06:06:50.000   35.161303670  136.881511730    32.7490   1   1   0.0000   0.0000   0.0000   0.0000   0.0000   0.0000   0.00    0.0
2023/07/11 06:06:51.000   35.161303670  136.881511720    32.7490   1   1   0.0000   0.0000   0.0000   0.0000   0.0000   0.0000   0.00    0.0
2023/07/11 06:06:52.000   35.161303670  136.881511720    32.7490   1   1   0.0000   0.0000   0.0000   0.0000   0.0000   0.0000   0.00    0.0
2023/07/11 06:06:53.000   35.161303670  136.881511720    32.7490   1   1   0.0000   0.0000   0.0000   0.0000   0.0000   0.0000   0.00    0.0
2023/07/11 06:06:54.000   35.161303670  136.881511720    32.7490   1   1   0.0000   0.0000   0.0000   0.0000   0.0000   0.0000   0.00    0.0
2023/07/11 06:06:55.000   35.161303670  136.881511720    32.7490   1   1   0.0000   0.0000   0.0000   0.0000   0.0000   0.0000   0.00    0.0
2023/07/11 06:06:56.000   35.161303670  136.881511720    32.7490   1   1   0.0000   0.0000   0.0000   0.0000   0.0000   0.0000   0.00    0.0
2023/07/11 06:06:57.000   35.161303670  136.881511720    32.7490   1   1   0.0000   0.0000   0.0000   0.0000   0.0000   0.0000   0.00    0.0
2023/07/11 06:06:58.000   35.161303670  136.881511720    32.7490   1   1   0.0000   0.0000   0.0000   0.0000   0.0000   0.0000   0.00    0.0
2023/07/11 06:06:59.000   35.161303670  136.881511720    32.7490   1   1   0.0000   0.0000   0.0000   0.0000   0.0000   0.0000   0.00    0.0
2023/07/11 06:07:00.000   35.161303670  136.881511720    32.7490   1   1   0.0000   0.0000   0.0000   0.0000   0.0000   0.0000   0.00    0.0
2023/07/11 06:07:01.000   35.161303670  136.881511720    32.7490   1   1   0.0000   0.0000   0.0000   0.0000   0.0000   0.0000   0.00    0.0
2023/07/11 06:07:02.000   35.161303670  136.881511720    32.7490   1   1   0.0000   0.0000   0.0000   0.0000   0.0000   0.0000   0.00    0.0
2023/07/11 06:07:03.000   35.161303670  136.881511720    32.7490   1   1   0.0000   0.0000   0.0000   0.0000   0.0000   0.0000   0.00    0.0
2023/07/11 06:07:04.000   35.161303670  136.881511720    32.7490   1   1   0.0000   0.0000   0.0000   0.0000   0.0000   0.0000   0.00    0.0
2023/07/11 06:07:05.000   35.161303670  136.881511720    32.7490   1   1   0.0000   0.0000   0.0000   0.0000   0.0000   0.0000   0.00    0.0
2023/07/11 06:07:06.000   35.161303670  136.881511720    32.7490   1   1   0.0000   0.0000   0.0000   0.0000   0.0000   0.0000   0.00    0.0
2023/07/11 06:07:07.000   35.161303670  136.881511720    32.7490   1   1   0.0000   0.0000   0.0000   0.0000   0.0000   0.0000   0.00    0.0
2023/07/11 06:07:08.000   35.161303670  136.881511720    32.7490   1   1   0.0000   0.0000   0.0000   0.0000   0.0000   0.0000   0.00    0.0
2023/07/11 06:07:09.000   35.161303670  136.881511720    32.7490   1   1   0.0000   0.0000   0.0000   0.0000   0.0000   0.0000   0.00    0.0
2023/07/11 06:07:10.000   35.161303670  136.881511720    32.7490   1   1   0.0000   0.0000   0.0000   0.0000   0.0000   0.0000   0.00    0.0
2023/07/11 06:07:11.000   35.161303670  136.881511720    32.7490   1   1   0.0000   0.0000   0.0000   0.0000   0.0000   0.0000   0.00    0.0
2023/07/11 06:07:12.000   35.161303670  136.881511720    32.7490   1   1   0.0000   0.0000   0.0000   0.0000   0.0000   0.0000   0.00    0.0
2023/07/11 06:07:13.000   35.161303660  136.881511700    32.7490   1   1   0.0000   0.0000   0.0000   0.0000   0.0000   0.0000   0.00    0.0
2023/07/11 06:07:14.000   35.161301830  136.881512950    32.7430   1   1   0.0000   0.0000   0.0000   0.0000   0.0000   0.0000   0.00    0.0
2023/07/11 06:07:15.000   35.161292920  136.881519330    32.7400   1   1   0.0000   0.0000   0.0000   0.0000   0.0000   0.0000   0.00    0.0
2023/07/11 06:07:16.000   35.161274660  136.881532490    32.7590   1   1   0.0000   0.0000   0.0000   0.0000   0.0000   0.0000   0.00    0.0
2023/07/11 06:07:17.000   35.161247620  136.881552050    32.7900   1   1   0.0000   0.0000   0.0000   0.0000   0.0000   0.0000   0.00    0.0
2023/07/11 06:07:18.000   35.161212090  136.881577540    32.8370   1   1   0.0000   0.0000   0.0000   0.0000   0.0000   0.0000   0.00    0.0
2023/07/11 06:07:19.000   35.161168370  136.881608730    32.9030   1   1   0.0000   0.0000   0.0000   0.0000   0.0000   0.0000   0.00    0.0
2023/07/11 06:07:20.000   35.161116320  136.881644420    32.9700   1   1   0.0000   0.0000   0.0000   0.0000   0.0000   0.0000   0.00    0.0
2023/07/11 06:07:21.000   35.161056370  136.881683790    33.0880   1   1   0.0000   0.0000   0.0000   0.0000   0.0000   0.0000   0.00    0.0
2023/07/11 06:07:22.000   35.160988430  136.881724060    33.2400   1   1   0.0000   0.0000   0.0000   0.0000   0.0000   0.0000   0.00    0.0
2023/07/11 06:07:23.000   35.160913160  136.881764720    33.4130   1   1   0.0000   0.0000   0.0000   0.0000   0.0000   0.0000   0.00    0.0
2023/07/11 06:07:24.000   35.160832660  136.881809340    33.6560   1   1   0.0000   0.0000   0.0000   0.0000   0.0000   0.0000   0.00    0.0
2023/07/11 06:07:25.000   35.160747010  136.881856390    33.9280   1   1   0.0000   0.0000   0.0000   0.0000   0.0000   0.0000   0.00    0.0
2023/07/11 06:07:26.000   35.160656530  136.881905590    34.2090   1   1   0.0000   0.0000   0.0000   0.0000   0.0000   0.0000   0.00    0.0
2023/07/11 06:07:27.000   35.160562010  136.881957050    34.5500   1   1   0.0000   0.0000   0.0000   0.0000   0.0000   0.0000   0.00    0.0
2023/07/11 06:07:28.000   35.160464010  136.882010500    35.0250   1   1   0.0000   0.0000   0.0000   0.0000   0.0000   0.0000   0.00    0.0
2023/07/11 06:07:29.000   35.160362920  136.882065200    35.6400   1   1   0.0000   0.0000   0.0000   0.0000   0.0000   0.0000   0.00    0.0
2023/07/11 06:07:30.000   35.160259110  136.882120530    36.3810   1   1   0.0000   0.0000   0.0000   0.0000   0.0000   0.0000   0.00    0.0
2023/07/11 06:07:31.000   35.160153500  136.882175620    37.1800   1   1   0.0000   0.0000   0.0000   0.0000   0.0000   0.0000   0.00    0.0
2023/07/11 06:07:32.000   35.160049160  136.882229940    37.9540   1   1   0.0000   0.0000   0.0000   0.0000   0.0000   0.0000   0.00    0.0
2023/07/11 06:07:33.000   35.159947820  136.882286120    38.7100   1   1   0.0000   0.0000   0.0000   0.0000   0.0000   0.0000   0.00    0.0
2023/07/11 06:07:34.000   35.159849870  136.882342370    39.4260   1   1   0.0000   0.0000   0.0000   0.0000   0.0000   0.0000   0.00    0.0
2023/07/11 06:07:35.000   35.159755930  136.882399890    39.9370   1   1   0.0000   0.0000   0.0000   0.0000   0.0000   0.0000   0.00    0.0
2023/07/11 06:07:36.000   35.159663930  136.882458850    40.3060   1   1   0.0000   0.0000   0.0000   0.0000   0.0000   0.0000   0.00    0.0
2023/07/11 06:07:37.000   35.159572260  136.882518130    40.5110   1   1   0.0000   0.0000   0.0000   0.0000   0.0000   0.0000   0.00    0.0
2023/07/11 06:07:38.000   35.159481810  136.882575260    40.6850   1   1   0.0000   0.0000   0.0000   0.0000   0.0000   0.0000   0.00    0.0
2023/07/11 06:07:39.000   35.159395500  136.882629640    40.8010   1   1   0.0000   0.0000   0.0000   0.0000   0.0000   0.0000   0.00    0.0
2023/07/11 06:07:40.000   35.159315210  136.882679350    40.9070   1   1   0.0000   0.0000   0.0000   0.0000   0.0000   0.0000   0.00    0.0
2023/07/11 06:07:41.000   35.159241620  136.882726790    41.0160   1   1   0.0000   0.0000   0.0000   0.0000   0.0000   0.0000   0.00    0.0
2023/07/11 06:07:42.000   35.159175520  136.882771160    41.1060   1   1   0.0000   0.0000   0.0000   0.0000   0.0000   0.0000   0.00    0.0
2023/07/11 06:07:43.000   35.159120170  136.882811070    41.1780   1   1   0.0000   0.0000   0.0000   0.0000   0.0000   0.0000   0.00    0.0
2023/07/11 06:07:44.000   35.159072210  136.882845870    41.2590   1   1   0.0000   0.0000   0.0000   0.0000   0.0000   0.0000   0.00    0.0
2023/07/11 06:07:45.000   35.159029320  136.882872600    41.2920   1   1   0.0000   0.0000   0.0000   0.0000   0.0000   0.0000   0.00    0.0
2023/07/11 06:07:46.000   35.158992410  136.882889080    41.2930   1   1   0.0000   0.0000   0.0000   0.0000   0.0000   0.0000   0.00    0.0
2023/07/11 06:07:47.000   35.158961370  136.882899100    41.3010   1   1   0.0000   0.0000   0.0000   0.0000   0.0000   0.0000   0.00    0.0
2023/07/11 06:07:48.000   35.158937910  136.882906030    41.3060   1   1   0.0000   0.0000   0.0000   0.0000   0.0000   0.0000   0.00    0.0
2023/07/11 06:07:49.000   35.158922460  136.882910280    41.3090   1   1   0.0000   0.0000   0.0000   0.0000   0.0000   0.0000   0.00    0.0
2023/07/11 06:07:50.000   35.158914250  136.882912790    41.3230   1   1   0.0000   0.0000   0.0000   0.0000   0.0000   0.0000   0.00    0.0
2023/07/11 06:07:51.000   35.158912440  136.882913270    41.3260   1   1   0.0000   0.0000   0.0000   0.0000   0.0000   0.0000   0.00    0.0
2023/07/11 06:07:52.000   35.158912450  136.882913260    41.3260   1   1   0.0000   0.0000   0.0000   0.0000   0.0000   0.0000   0.00    0.0
2023/07/11 06:07:53.000   35.158912450  136.882913260    41.3260   1   1   0.0000   0.0000   0.0000   0.0000   0.0000   0.0000   0.00    0.0
2023/07/11 06:07:54.000   35.158912450  136.882913260    41.3260   1   1   0.0000   0.0000   0.0000   0.0000   0.0000   0.0000   0.00    0.0
2023/07/11 06:07:55.000   35.158912450  136.882913260    41.3260   1   1   0.0000   0.0000   0.0000   0.0000   0.0000   0.0000   0.00    0.0
2023/07/11 06:07:56.000   35.158912450  136.882913260    41.3260   1   1   0.0000   0.0000   0.0000   0.0000   0.0000   0.0000   0.00    0.0
2023/07/11 06:07:57.000   35.158912450  136.882913260    41.3260   1   1   0.0000   0.0000   0.0000   0.0000   0.0000   0.0000   0.00    0.0
2023/07/11 06:07:58.000   35.158912450  136.882913260    41.3260   1   1   0.0000   0.0000   0.0000   0.0000   0.0000   0.0000   0.00    0.0
2023/07/11 06:07:59.000   35.158912450  136.882913260    41.3260   1   1   0.0000   0.0000   0.0000   0.0000   0.0000   0.0000   0.00    0.0
2023/07/11 06:08:00.000   35.158912450  136.882913260    41.3260   1   1   0.0000   0.0000   0.0000   0.0000   0.0000   0.0000   0.00    0.0
2023/07/11 06:08:01.000   35.158912450  136.882913260    41.3260   1   1   0.0000   0.0000   0.0000   0.0000   0.0000   0.0000   0.00    0.0
2023/07/11 06:08:02.000   35.158912450  136.882913260    41.3260   1   1   0.0000   0.0000   0.0000   0.0000   0.0000   0.0000   0.00    0.0
2023/07/11 06:08:03.000   35.158912450  136.882913260    41.3260   1   1   0.0000   0.0000   0.0000   0.0000   0.0000   0.0000   0.00    0.0
2023/07/11 06:08:04.000   35.158912450  136.882913260    41.3260   1   1   0.0000   0.0000   0.0000   0.0000   0.0000   0.0000   0.00    0.0
2023/07/11 06:08:05.000   35.158912450  136.882913260    41.3260   1   1   0.0000   0.0000   0.0000   0.0000   0.0000   0.0000   0.00    0.0
2023/07/11 06:08:06.000   35.158912450  136.882913260    41.3260   1   1   0.0000   0.0000   0.0000   0.0000   0.0000   0.0000   0.00    0.0
2023/07/11 06:08:07.000   35.158912450  136.882913260    41.3260   1   1   0.0000   0.0000   0.0000   0.0000   0.0000   0.0000   0.00    0.0
2023/07/11 06:08:08.000   35.158912450  136.882913260    41.3260   1   1   0.0000   0.0000   0.0000   0.0000   0.0000   0.0000   0.00    0.0
2023/07/11 06:08:09.000   35.158912450  136.882913260    41.3260   1   1   0.0000   0.0000   0.0000   0.0000   0.0000   0.0000   0.00    0.0
2023/07/11 06:08:10.000   35.158912450  136.882913260    41.3260   1   1   0.0000   0.0000   0.0000   0.0000   0.0000   0.0000   0.00    0.0
2023/07/11 06:08:11.000   35.158912450  136.882913260    41.3260   1   1   0.0000   0.0000   0.0000   0.0000   0.0000   0.0000   0.00    0.0
2023/07/11 06:08:12.000   35.158912450  136.882913260    41.3260   1   1   0.0000   0.0000   0.0000   0.0000   0.0000   0.0000   0.00    0.0
2023/07/11 06:08:13.000   35.158912450  136.882913260    41.3260   1   1   0.0000   0.0000   0.0000   0.0000   0.0000   0.0000   0.00    0.0
2023/07/11 06:08:14.000   35.158912450  136.882913260    41.3260   1   1   0.0000   0.0000   0.0000   0.0000   0.0000   0.0000   0.00    0.0
2023/07/11 06:08:15.000   35.158912450  136.882913260    41.3260   1   1   0.0000   0.0000   0.0000   0.0000   0.0000   0.0000   0.00    0.0
2023/07/11 06:08:16.000   35.158912450  136.882913260    41.3260   1   1   0.0000   0.0000   0.0000   0.0000   0.0000   0.0000   0.00    0.0
2023/07/11 06:08:17.000   35.158912450  136.882913260    41.3260   1   1   0.0000   0.0000   0.0000   0.0000   0.0000   0.0000   0.00    0.0
2023/07/11 06:08:18.000   35.158912450  136.882913260    41.3260   1   1   0.0000   0.0000   0.0000   0.0000   0.0000   0.0000   0.00    0.0
2023/07/11 06:08:19.000   35.158912450  136.882913260    41.3260   1   1   0.0000   0.0000   0.0000   0.0000   0.0000   0.0000   0.00    0.0
2023/07/11 06:08:20.000   35.158912440  136.882913260    41.3260   1   1   0.0000   0.0000   0.0000   0.0000   0.0000   0.0000   0.00    0.0
2023/07/11 06:08:21.000   35.158912450  136.882913260    41.3260   1   1   0.0000   0.0000   0.0000   0.0000   0.0000   0.0000   0.00    0.0
2023/07/11 06:08:22.000   35.158912450  136.882913260    41.3260   1   1   0.0000   0.0000   0.0000   0.0000   0.0000   0.0000   0.00    0.0
2023/07/11 06:08:23.000   35.158912440  136.882913260    41.3260   1   1   0.0000   0.0000   0.0000   0.0000   0.0000   0.0000   0.00    0.0
2023/07/11 06:08:24.000   35.158912450  136.882913260    41.3260   1   1   0.0000   0.0000   0.0000   0.0000   0.0000   0.0000   0.00    0.0
2023/07/11 06:08:25.000   35.158912450  136.882913260    41.3260   1   1   0.0000   0.0000   0.0000   0.0000   0.0000   0.0000   0.00    0.0
2023/07/11 06:08:26.000   35.158912440  136.882913260    41.3260   1   1   0.0000   0.0000   0.0000   0.0000   0.0000   0.0000   0.00    0.0
2023/07/11 06:08:27.000   35.158912440  136.882913260    41.3260   1   1   0.0000   0.0000   0.0000   0.0000   0.0000   0.0000   0.00    0.0
2023/07/11 06:08:28.000   35.158912450  136.882913260    41.3260   1   1   0.0000   0.0000   0.0000   0.0000   0.0000   0.0000   0.00    0.0
2023/07/11 06:08:29.000   35.158912450  136.882913260    41.3260   1   1   0.0000   0.0000   0.0000   0.0000   0.0000   0.0000   0.00    0.0
2023/07/11 06:08:30.000   35.158912450  136.882913260    41.3260   1   1   0.0000   0.0000   0.0000   0.0000   0.0000   0.0000   0.00    0.0
2023/07/11 06:08:31.000   35.158912440  136.882913260    41.3260   1   1   0.0000   0.0000   0.0000   0.0000   0.0000   0.0000   0.00    0.0
2023/07/11 06:08:32.000   35.158912440  136.882913260    41.3260   1   1   0.0000   0.0000   0.0000   0.0000   0.0000   0.0000   0.00    0.0
2023/07/11 06:08:33.000   35.158912440  136.882913260    41.3260   1   1   0.0000   0.0000   0.0000   0.0000   0.0000   0.0000   0.00    0.0
2023/07/11 06:08:34.000   35.158912440  136.882913260    41.3260   1   1   0.0000   0.0000   0.0000   0.0000   0.0000   0.0000   0.00    0.0
2023/07/11 06:08:35.000   35.158912440  136.882913260    41.3260   1   1   0.0000   0.0000   0.0000   0.0000   0.0000   0.0000   0.00    0.0
2023/07/11 06:08:36.000   35.158912440  136.882913260    41.3260   1   1   0.0000   0.0000   0.0000   0.0000   0.0000   0.0000   0.00    0.0
2023/07/11 06:08:37.000   35.158912440  136.882913260    41.3260   1   1   0.0000   0.0000   0.0000   0.0000   0.0000   0.0000   0.00    0.0
2023/07/11 06:08:38.000   35.158912440  136.882913260    41.3260   1   1   0.0000   0.0000   0.0000   0.0000   0.0000   0.0000   0.00    0.0
2023/07/11 06:08:39.000   35.158912440  136.882913260    41.3260   1   1   0.0000   0.0000   0.0000   0.0000   0.0000   0.0000   0.00    0.0
2023/07/11 06:08:40.000   35.158912450  136.882913260    41.3260   1   1   0.0000   0.0000   0.0000   0.0000   0.0000   0.0000   0.00    0.0
2023/07/11 06:08:41.000   35.158912440  136.882913260    41.3260   1   1   0.0000   0.0000   0.0000   0.0000   0.0000   0.0000   0.00    0.0
2023/07/11 06:08:42.000   35.158912440  136.882913260    41.3260   1   1   0.0000   0.0000   0.0000   0.0000   0.0000   0.0000   0.00    0.0
2023/07/11 06:08:43.000   35.158912440  136.882913260    41.3260   1   1   0.0000   0.0000   0.0000   0.0000   0.0000   0.0000   0.00    0.0
2023/07/11 06:08:44.000   35.158912440  136.882913260    41.3260   1   1   0.0000   0.0000   0.0000   0.0000   0.0000   0.0000   0.00    0.0
2023/07/11 06:08:45.000   35.158912440  136.882913260    41.3260   1   1   0.0000   0.0000   0.0000   0.0000   0.0000   0.0000   0.00    0.0
2023/07/11 06:08:46.000   35.158912440  136.882913260    41.3260   1   1   0.0000   0.0000   0.0000   0.0000   0.0000   0.0000   0.00    0.0
2023/07/11 06:08:47.000   35.158912440  136.882913260    41.3260   1   1   0.0000   0.0000   0.0000   0.0000   0.0000   0.0000   0.00    0.0
2023/07/11 06:08:48.000   35.158912440  136.882913260    41.3260   1   1   0.0000   0.0000   0.0000   0.0000   0.0000   0.0000   0.00    0.0
2023/07/11 06:08:49.000   35.158912440  136.882913260    41.3260   1   1   0.0000   0.0000   0.0000   0.0000   0.0000   0.0000   0.00    0.0
2023/07/11 06:08:50.000   35.158912440  136.882913260    41.3260   1   1   0.0000   0.0000   0.0000   0.0000   0.0000   0.0000   0.00    0.0
2023/07/11 06:08:51.000   35.158912430  136.882913210    41.3240   1   1   0.0000   0.0000   0.0000   0.0000   0.0000   0.0000   0.00    0.0
2023/07/11 06:08:52.000   35.158910870  136.882913330    41.3080   1   1   0.0000   0.0000   0.0000   0.0000   0.0000   0.0000   0.00    0.0
2023/07/11 06:08:53.000   35.158901700  136.882915260    41.2950   1   1   0.0000   0.0000   0.0000   0.0000   0.0000   0.0000   0.00    0.0
2023/07/11 06:08:54.000   35.158882620  136.882919390    41.2880   1   1   0.0000   0.0000   0.0000   0.0000   0.0000   0.0000   0.00    0.0
2023/07/11 06:08:55.000   35.158857570  136.882925230    41.3030   1   1   0.0000   0.0000   0.0000   0.0000   0.0000   0.0000   0.00    0.0
2023/07/11 06:08:56.000   35.158831530  136.882933000    41.3180   1   1   0.0000   0.0000   0.0000   0.0000   0.0000   0.0000   0.00    0.0
2023/07/11 06:08:57.000   35.158804680  136.882943980    41.3370   1   1   0.0000   0.0000   0.0000   0.0000   0.0000   0.0000   0.00    0.0
2023/07/11 06:08:58.000   35.158778540  136.882957840    41.3520   1   1   0.0000   0.0000   0.0000   0.0000   0.0000   0.0000   0.00    0.0
2023/07/11 06:08:59.000   35.158754830  136.882973800    41.3840   1   1   0.0000   0.0000   0.0000   0.0000   0.0000   0.0000   0.00    0.0
2023/07/11 06:09:00.000   35.158733800  136.882991720    41.4340   1   1   0.0000   0.0000   0.0000   0.0000   0.0000   0.0000   0.00    0.0
2023/07/11 06:09:01.000   35.158713690  136.883013510    41.4940   1   1   0.0000   0.0000   0.0000   0.0000   0.0000   0.0000   0.00    0.0
2023/07/11 06:09:02.000   35.158694170  136.883041750    41.5800   1   1   0.0000   0.0000   0.0000   0.0000   0.0000   0.0000   0.00    0.0
2023/07/11 06:09:03.000   35.158676350  136.883078290    41.7020   1   1   0.0000   0.0000   0.0000   0.0000   0.0000   0.0000   0.00    0.0
2023/07/11 06:09:04.000   35.158663140  136.883124230    41.8560   1   1   0.0000   0.0000   0.0000   0.0000   0.0000   0.0000   0.00    0.0
2023/07/11 06:09:05.000   35.158655210  136.883177750    41.9760   1   1   0.0000   0.0000   0.0000   0.0000   0.0000   0.0000   0.00    0.0
2023/07/11 06:09:06.000   35.158655060  136.883236990    42.1320   1   1   0.0000   0.0000   0.0000   0.0000   0.0000   0.0000   0.00    0.0
2023/07/11 06:09:07.000   35.158660870  136.883295940    42.3180   1   1   0.0000   0.0000   0.0000   0.0000   0.0000   0.0000   0.00    0.0
2023/07/11 06:09:08.000   35.158668160  136.883355210    42.4990   1   1   0.0000   0.0000   0.0000   0.0000   0.0000   0.0000   0.00    0.0
2023/07/11 06:09:09.000   35.158675990  136.883417890    42.6670   1   1   0.0000   0.0000   0.0000   0.0000   0.0000   0.0000   0.00    0.0
2023/07/11 06:09:10.000   35.158684580  136.883484140    42.8490   1   1   0.0000   0.0000   0.0000   0.0000   0.0000   0.0000   0.00    0.0
2023/07/11 06:09:11.000   35.158694790  136.883557070    43.0100   1   1   0.0000   0.0000   0.0000   0.0000   0.0000   0.0000   0.00    0.0
2023/07/11 06:09:12.000   35.158705870  136.883637450    43.1700   1   1   0.0000   0.0000   0.0000   0.0000   0.0000   0.0000   0.00    0.0
2023/07/11 06:09:13.000   35.158717570  136.883725300    43.2760   1   1   0.0000   0.0000   0.0000   0.0000   0.0000   0.0000   0.00    0.0
2023/07/11 06:09:14.000   35.158730220  136.883817170    43.4350   1   1   0.0000   0.0000   0.0000   0.0000   0.0000   0.0000   0.00    0.0
2023/07/11 06:09:15.000   35.158743390  136.883912110    43.4930   1   1   0.0000   0.0000   0.0000   0.0000   0.0000   0.0000   0.00    0.0
2023/07/11 06:09:16.000   35.158757030  136.884012250    43.4550   1   1   0.0000   0.0000   0.0000   0.0000   0.0000   0.0000   0.00    0.0
2023/07/11 06:09:17.000   35.158771010  136.884118240    43.3240   1   1   0.0000   0.0000   0.0000   0.0000   0.0000   0.0000   0.00    0.0
2023/07/11 06:09:18.000   35.158785360  136.884228280    43.1200   1   1   0.0000   0.0000   0.0000   0.0000   0.0000   0.0000   0.00    0.0
2023/07/11 06:09:19.000   35.158799910  136.884341070    42.9750   1   1   0.0000   0.0000   0.0000   0.0000   0.0000   0.0000   0.00    0.0
2023/07/11 06:09:20.000   35.158814070  136.884455530    42.7160   1   1   0.0000   0.0000   0.0000   0.0000   0.0000   0.0000   0.00    0.0
2023/07/11 06:09:21.000   35.158827820  136.884570620    42.4360   1   1   0.0000   0.0000   0.0000   0.0000   0.0000   0.0000   0.00    0.0
2023/07/11 06:09:22.000   35.158841290  136.884685490    42.0970   1   1   0.0000   0.0000   0.0000   0.0000   0.0000   0.0000   0.00    0.0
2023/07/11 06:09:23.000   35.158855690  136.884799240    41.7960   1   1   0.0000   0.0000   0.0000   0.0000   0.0000   0.0000   0.00    0.0
2023/07/11 06:09:24.000   35.158870640  136.884911630    41.5120   1   1   0.0000   0.0000   0.0000   0.0000   0.0000   0.0000   0.00    0.0
2023/07/11 06:09:25.000   35.158885360  136.885023980    41.2350   1   1   0.0000   0.0000   0.0000   0.0000   0.0000   0.0000   0.00    0.0
2023/07/11 06:09:26.000   35.158900650  136.885135760    40.9280   1   1   0.0000   0.0000   0.0000   0.0000   0.0000   0.0000   0.00    0.0
2023/07/11 06:09:27.000   35.158915310  136.885244180    40.6880   1   1   0.0000   0.0000   0.0000   0.0000   0.0000   0.0000   0.00    0.0
2023/07/11 06:09:28.000   35.158929060  136.885347110    40.6030   1   1   0.0000   0.0000   0.0000   0.0000   0.0000   0.0000   0.00    0.0
2023/07/11 06:09:29.000   35.158942420  136.885444790    40.5570   1   1   0.0000   0.0000   0.0000   0.0000   0.0000   0.0000   0.00    0.0
2023/07/11 06:09:30.000   35.158954760  136.885536300    40.5360   1   1   0.0000   0.0000   0.0000   0.0000   0.0000   0.0000   0.00    0.0
2023/07/11 06:09:31.000   35.158965840  136.885615090    40.4980   1   1   0.0000   0.0000   0.0000   0.0000   0.0000   0.0000   0.00    0.0
2023/07/11 06:09:32.000   35.158974600  136.885677840    40.4960   1   1   0.0000   0.0000   0.0000   0.0000   0.0000   0.0000   0.00    0.0
2023/07/11 06:09:33.000   35.158980970  136.885726430    40.4630   1   1   0.0000   0.0000   0.0000   0.0000   0.0000   0.0000   0.00    0.0
2023/07/11 06:09:34.000   35.158986020  136.885765090    40.4600   1   1   0.0000   0.0000   0.0000   0.0000   0.0000   0.0000   0.00    0.0
2023/07/11 06:09:35.000   35.158989950  136.885795890    40.4370   1   1   0.0000   0.0000   0.0000   0.0000   0.0000   0.0000   0.00    0.0
2023/07/11 06:09:36.000   35.158993760  136.885824260    40.4170   1   1   0.0000   0.0000   0.0000   0.0000   0.0000   0.0000   0.00    0.0
2023/07/11 06:09:37.000   35.158997930  136.885856010    40.3900   1   1   0.0000   0.0000   0.0000   0.0000   0.0000   0.0000   0.00    0.0
2023/07/11 06:09:38.000   35.159003740  136.885897200    40.3900   1   1   0.0000   0.0000   0.0000   0.0000   0.0000   0.0000   0.00    0.0
2023/07/11 06:09:39.000   35.159010690  136.885947940    40.4170   1   1   0.0000   0.0000   0.0000   0.0000   0.0000   0.0000   0.00    0.0
2023/07/11 06:09:40.000   35.159018510  136.886008120    40.4400   1   1   0.0000   0.0000   0.0000   0.0000   0.0000   0.0000   0.00    0.0
2023/07/11 06:09:41.000   35.159027900  136.886075920    40.4070   1   1   0.0000   0.0000   0.0000   0.0000   0.0000   0.0000   0.00    0.0
2023/07/11 06:09:42.000   35.159037170  136.886147020    40.3820   1   1   0.0000   0.0000   0.0000   0.0000   0.0000   0.0000   0.00    0.0
2023/07/11 06:09:43.000   35.159046460  136.886217690    40.4000   1   1   0.0000   0.0000   0.0000   0.0000   0.0000   0.0000   0.00    0.0
2023/07/11 06:09:44.000   35.159056010  136.886287060    40.4620   1   1   0.0000   0.0000   0.0000   0.0000   0.0000   0.0000   0.00    0.0
2023/07/11 06:09:45.000   35.159065820  136.886355590    40.4190   1   1   0.0000   0.0000   0.0000   0.0000   0.0000   0.0000   0.00    0.0
2023/07/11 06:09:46.000   35.159074970  136.886423340    40.4110   1   1   0.0000   0.0000   0.0000   0.0000   0.0000   0.0000   0.00    0.0
2023/07/11 06:09:47.000   35.159082890  136.886485470    40.4120   1   1   0.0000   0.0000   0.0000   0.0000   0.0000   0.0000   0.00    0.0
2023/07/11 06:09:48.000   35.159089530  136.886536050    40.4070   1   1   0.0000   0.0000   0.0000   0.0000   0.0000   0.0000   0.00    0.0
2023/07/11 06:09:49.000   35.159094110  136.886571470    40.3920   1   1   0.0000   0.0000   0.0000   0.0000   0.0000   0.0000   0.00    0.0
2023/07/11 06:09:50.000   35.159096410  136.886589870    40.3770   1   1   0.0000   0.0000   0.0000   0.0000   0.0000   0.0000   0.00    0.0
2023/07/11 06:09:51.000   35.159097080  136.886595750    40.3720   1   1   0.0000   0.0000   0.0000   0.0000   0.0000   0.0000   0.00    0.0
2023/07/11 06:09:52.000   35.159097070  136.886595730    40.3730   1   1   0.0000   0.0000   0.0000   0.0000   0.0000   0.0000   0.00    0.0
2023/07/11 06:09:53.000   35.159097070  136.886595730    40.3730   1   1   0.0000   0.0000   0.0000   0.0000   0.0000   0.0000   0.00    0.0
2023/07/11 06:09:54.000   35.159097070  136.886595730    40.3730   1   1   0.0000   0.0000   0.0000   0.0000   0.0000   0.0000   0.00    0.0
2023/07/11 06:09:55.000   35.159097070  136.886595730    40.3730   1   1   0.0000   0.0000   0.0000   0.0000   0.0000   0.0000   0.00    0.0
2023/07/11 06:09:56.000   35.159097070  136.886595730    40.3730   1   1   0.0000   0.0000   0.0000   0.0000   0.0000   0.0000   0.00    0.0
2023/07/11 06:09:57.000   35.159097070  136.886595730    40.3730   1   1   0.0000   0.0000   0.0000   0.0000   0.0000   0.0000   0.00    0.0
2023/07/11 06:09:58.000   35.159097070  136.886595730    40.3730   1   1   0.0000   0.0000   0.0000   0.0000   0.0000   0.0000   0.00    0.0
2023/07/11 06:09:59.000   35.159097070  136.886595730    40.3730   1   1   0.0000   0.0000   0.0000   0.0000   0.0000   0.0000   0.00    0.0
2023/07/11 06:10:00.000   35.159097070  136.886595730    40.3730   1   1   0.0000   0.0000   0.0000   0.0000   0.0000   0.0000   0.00    0.0
2023/07/11 06:10:01.000   35.159097070  136.886595730    40.3730   1   1   0.0000   0.0000   0.0000   0.0000   0.0000   0.0000   0.00    0.0
2023/07/11 06:10:02.000   35.159097070  136.886595730    40.3730   1   1   0.0000   0.0000   0.0000   0.0000   0.0000   0.0000   0.00    0.0
2023/07/11 06:10:03.000   35.159097070  136.886595730    40.3730   1   1   0.0000   0.0000   0.0000   0.0000   0.0000   0.0000   0.00    0.0
2023/07/11 06:10:04.000   35.159097070  136.886595730    40.3730   1   1   0.0000   0.0000   0.0000   0.0000   0.0000   0.0000   0.00    0.0
2023/07/11 06:10:05.000   35.159097070  136.886595730    40.3730   1   1   0.0000   0.0000   0.0000   0.0000   0.0000   0.0000   0.00    0.0
2023/07/11 06:10:06.000   35.159097070  136.886595730    40.3730   1   1   0.0000   0.0000   0.0000   0.0000   0.0000   0.0000   0.00    0.0
2023/07/11 06:10:07.000   35.159097070  136.886595730    40.3730   1   1   0.0000   0.0000   0.0000   0.0000   0.0000   0.0000   0.00    0.0
2023/07/11 06:10:08.000   35.159097070  136.886595730    40.3730   1   1   0.0000   0.0000   0.0000   0.0000   0.0000   0.0000   0.00    0.0
2023/07/11 06:10:09.000   35.159097070  136.886595730    40.3730   1   1   0.0000   0.0000   0.0000   0.0000   0.0000   0.0000   0.00    0.0
2023/07/11 06:10:10.000   35.159097070  136.886595730    40.3730   1   1   0.0000   0.0000   0.0000   0.0000   0.0000   0.0000   0.00    0.0
2023/07/11 06:10:11.000   35.159097070  136.886595730    40.3730   1   1   0.0000   0.0000   0.0000   0.0000   0.0000   0.0000   0.00    0.0
2023/07/11 06:10:12.000   35.159097070  136.886595730    40.3730   1   1   0.0000   0.0000   0.0000   0.0000   0.0000   0.0000   0.00    0.0
2023/07/11 06:10:13.000   35.159097070  136.886595730    40.3730   1   1   0.0000   0.0000   0.0000   0.0000   0.0000   0.0000   0.00    0.0
2023/07/11 06:10:14.000   35.159097070  136.886595730    40.3730   1   1   0.0000   0.0000   0.0000   0.0000   0.0000   0.0000   0.00    0.0
2023/07/11 06:10:15.000   35.159097070  136.886595730    40.3730   1   1   0.0000   0.0000   0.0000   0.0000   0.0000   0.0000   0.00    0.0
2023/07/11 06:10:16.000   35.159097070  136.886595730    40.3730   1   1   0.0000   0.0000   0.0000   0.0000   0.0000   0.0000   0.00    0.0
2023/07/11 06:10:17.000   35.159097070  136.886595730    40.3730   1   1   0.0000   0.0000   0.0000   0.0000   0.0000   0.0000   0.00    0.0
2023/07/11 06:10:18.000   35.159097070  136.886595730    40.3730   1   1   0.0000   0.0000   0.0000   0.0000   0.0000   0.0000   0.00    0.0
2023/07/11 06:10:19.000   35.159097070  136.886595730    40.3730   1   1   0.0000   0.0000   0.0000   0.0000   0.0000   0.0000   0.00    0.0
2023/07/11 06:10:20.000   35.159097070  136.886595730    40.3730   1   1   0.0000   0.0000   0.0000   0.0000   0.0000   0.0000   0.00    0.0
2023/07/11 06:10:21.000   35.159097070  136.886595730    40.3730   1   1   0.0000   0.0000   0.0000   0.0000   0.0000   0.0000   0.00    0.0
2023/07/11 06:10:22.000   35.159097070  136.886595730    40.3730   1   1   0.0000   0.0000   0.0000   0.0000   0.0000   0.0000   0.00    0.0
2023/07/11 06:10:23.000   35.159097070  136.886595730    40.3730   1   1   0.0000   0.0000   0.0000   0.0000   0.0000   0.0000   0.00    0.0
2023/07/11 06:10:24.000   35.159097070  136.886595730    40.3730   1   1   0.0000   0.0000   0.0000   0.0000   0.0000   0.0000   0.00    0.0
2023/07/11 06:10:25.000   35.159097070  136.886595730    40.3730   1   1   0.0000   0.0000   0.0000   0.0000   0.0000   0.0000   0.00    0.0
2023/07/11 06:10:26.000   35.159097070  136.886595730    40.3730   1   1   0.0000   0.0000   0.0000   0.0000   0.0000   0.0000   0.00    0.0
2023/07/11 06:10:27.000   35.159097070  136.886595730    40.3730   1   1   0.0000   0.0000   0.0000   0.0000   0.0000   0.0000   0.00    0.0
2023/07/11 06:10:28.000   35.159097070  136.886595730    40.3730   1   1   0.0000   0.0000   0.0000   0.0000   0.0000   0.0000   0.00    0.0
2023/07/11 06:10:29.000   35.159097070  136.886595730    40.3730   1   1   0.0000   0.0000   0.0000   0.0000   0.0000   0.0000   0.00    0.0
2023/07/11 06:10:30.000   35.159097070  136.886595730    40.3730   1   1   0.0000   0.0000   0.0000   0.0000   0.0000   0.0000   0.00    0.0
2023/07/11 06:10:31.000   35.159097070  136.886595730    40.3730   1   1   0.0000   0.0000   0.0000   0.0000   0.0000   0.0000   0.00    0.0
2023/07/11 06:10:32.000   35.159097070  136.886595730    40.3730   1   1   0.0000   0.0000   0.0000   0.0000   0.0000   0.0000   0.00    0.0
2023/07/11 06:10:33.000   35.159097070  136.886595730    40.3730   1   1   0.0000   0.0000   0.0000   0.0000   0.0000   0.0000   0.00    0.0
2023/07/11 06:10:34.000   35.159097070  136.886595730    40.3730   1   1   0.0000   0.0000   0.0000   0.0000   0.0000   0.0000   0.00    0.0
2023/07/11 06:10:35.000   35.159097070  136.886595730    40.3730   1   1   0.0000   0.0000   0.0000   0.0000   0.0000   0.0000   0.00    0.0
2023/07/11 06:10:36.000   35.159097070  136.886595730    40.3730   1   1   0.0000   0.0000   0.0000   0.0000   0.0000   0.0000   0.00    0.0
2023/07/11 06:10:37.000   35.159097070  136.886595730    40.3730   1   1   0.0000   0.0000   0.0000   0.0000   0.0000   0.0000   0.00    0.0
2023/07/11 06:10:38.000   35.159097070  136.886595730    40.3730   1   1   0.0000   0.0000   0.0000   0.0000   0.0000   0.0000   0.00    0.0
2023/07/11 06:10:39.000   35.159097070  136.886595730    40.3730   1   1   0.0000   0.0000   0.0000   0.0000   0.0000   0.0000   0.00    0.0
2023/07/11 06:10:40.000   35.159097070  136.886595730    40.3730   1   1   0.0000   0.0000   0.0000   0.0000   0.0000   0.0000   0.00    0.0
2023/07/11 06:10:41.000   35.159097070  136.886595730    40.3730   1   1   0.0000   0.0000   0.0000   0.0000   0.0000   0.0000   0.00    0.0
2023/07/11 06:10:42.000   35.159097070  136.886595730    40.3730   1   1   0.0000   0.0000   0.0000   0.0000   0.0000   0.0000   0.00    0.0
2023/07/11 06:10:43.000   35.159097070  136.886595730    40.3730   1   1   0.0000   0.0000   0.0000   0.0000   0.0000   0.0000   0.00    0.0
2023/07/11 06:10:44.000   35.159097070  136.886595730    40.3730   1   1   0.0000   0.0000   0.0000   0.0000   0.0000   0.0000   0.00    0.0
2023/07/11 06:10:45.000   35.159097070  136.886595730    40.3730   1   1   0.0000   0.0000   0.0000   0.0000   0.0000   0.0000   0.00    0.0
2023/07/11 06:10:46.000   35.159097070  136.886595730    40.3730   1   1   0.0000   0.0000   0.0000   0.0000   0.0000   0.0000   0.00    0.0
2023/07/11 06:10:47.000   35.159097060  136.886595840    40.3690   1   1   0.0000   0.0000   0.0000   0.0000   0.0000   0.0000   0.00    0.0
2023/07/11 06:10:48.000   35.159097590  136.886600420    40.3620   1   1   0.0000   0.0000   0.0000   0.0000   0.0000   0.0000   0.00    0.0
2023/07/11 06:10:49.000   35.159099460  136.886615180    40.3550   1   1   0.0000   0.0000   0.0000   0.0000   0.0000   0.0000   0.00    0.0
2023/07/11 06:10:50.000   35.159103440  136.886641520    40.3560   1   1   0.0000   0.0000   0.0000   0.0000   0.0000   0.0000   0.00    0.0
2023/07/11 06:10:51.000   35.159109500  136.886676980    40.3680   1   1   0.0000   0.0000   0.0000   0.0000   0.0000   0.0000   0.00    0.0
2023/07/11 06:10:52.000   35.159118490  136.886714150    40.4210   1   1   0.0000   0.0000   0.0000   0.0000   0.0000   0.0000   0.00    0.0
2023/07/11 06:10:53.000   35.159130290  136.886747190    40.4580   1   1   0.0000   0.0000   0.0000   0.0000   0.0000   0.0000   0.00    0.0
2023/07/11 06:10:54.000   35.159145260  136.886775330    40.4520   1   1   0.0000   0.0000   0.0000   0.0000   0.0000   0.0000   0.00    0.0
2023/07/11 06:10:55.000   35.159162150  136.886796950    40.4490   1   1   0.0000   0.0000   0.0000   0.0000   0.0000   0.0000   0.00    0.0
2023/07/11 06:10:56.000   35.159177810  136.886810950    40.4580   1   1   0.0000   0.0000   0.0000   0.0000   0.0000   0.0000   0.00    0.0
2023/07/11 06:10:57.000   35.159190240  136.886819270    40.4750   1   1   0.0000   0.0000   0.0000   0.0000   0.0000   0.0000   0.00    0.0
2023/07/11 06:10:58.000   35.159197620  136.886823300    40.4730   1   1   0.0000   0.0000   0.0000   0.0000   0.0000   0.0000   0.00    0.0
2023/07/11 06:10:59.000   35.159199340  136.886824280    40.4650   1   1   0.0000   0.0000   0.0000   0.0000   0.0000   0.0000   0.00    0.0
2023/07/11 06:11:00.000   35.159202060  136.886825330    40.4720   1   1   0.0000   0.0000   0.0000   0.0000   0.0000   0.0000   0.00    0.0
2023/07/11 06:11:01.000   35.159208840  136.886828250    40.4710   1   1   0.0000   0.0000   0.0000   0.0000   0.0000   0.0000   0.00    0.0
2023/07/11 06:11:02.000   35.159214320  136.886830080    40.4680   1   1   0.0000   0.0000   0.0000   0.0000   0.0000   0.0000   0.00    0.0
2023/07/11 06:11:03.000   35.159215050  136.886830040    40.4760   1   1   0.0000   0.0000   0.0000   0.0000   0.0000   0.0000   0.00    0.0
2023/07/11 06:11:04.000   35.159215030  136.886830180    40.4720   1   1   0.0000   0.0000   0.0000   0.0000   0.0000   0.0000   0.00    0.0
2023/07/11 06:11:05.000   35.159216240  136.886830610    40.4620   1   1   0.0000   0.0000   0.0000   0.0000   0.0000   0.0000   0.00    0.0
2023/07/11 06:11:06.000   35.159224220  136.886831640    40.4500   1   1   0.0000   0.0000   0.0000   0.0000   0.0000   0.0000   0.00    0.0
2023/07/11 06:11:07.000   35.159242230  136.886829730    40.4430   1   1   0.0000   0.0000   0.0000   0.0000   0.0000   0.0000   0.00    0.0
2023/07/11 06:11:08.000   35.159272550  136.886821710    40.4260   1   1   0.0000   0.0000   0.0000   0.0000   0.0000   0.0000   0.00    0.0
2023/07/11 06:11:09.000   35.159314340  136.886810830    40.3950   1   1   0.0000   0.0000   0.0000   0.0000   0.0000   0.0000   0.00    0.0
2023/07/11 06:11:10.000   35.159366100  136.886798550    40.4100   1   1   0.0000   0.0000   0.0000   0.0000   0.0000   0.0000   0.00    0.0
2023/07/11 06:11:11.000   35.159426140  136.886784130    40.4260   1   1   0.0000   0.0000   0.0000   0.0000   0.0000   0.0000   0.00    0.0
2023/07/11 06:11:12.000   35.159493420  136.886768230    40.4530   1   1   0.0000   0.0000   0.0000   0.0000   0.0000   0.0000   0.00    0.0
2023/07/11 06:11:13.000   35.159567150  136.886751690    40.4740   1   1   0.0000   0.0000   0.0000   0.0000   0.0000   0.0000   0.00    0.0
2023/07/11 06:11:14.000   35.159646910  136.886733300    40.4760   1   1   0.0000   0.0000   0.0000   0.0000   0.0000   0.0000   0.00    0.0
2023/07/11 06:11:15.000   35.159732060  136.886712550    40.5010   1   1   0.0000   0.0000   0.0000   0.0000   0.0000   0.0000   0.00    0.0
2023/07/11 06:11:16.000   35.159820560  136.886689510    40.4830   1   1   0.0000   0.0000   0.0000   0.0000   0.0000   0.0000   0.00    0.0
2023/07/11 06:11:17.000   35.159910330  136.886665990    40.5100   1   1   0.0000   0.0000   0.0000   0.0000   0.0000   0.0000   0.00    0.0
2023/07/11 06:11:18.000   35.160001420  136.886642650    40.5230   1   1   0.0000   0.0000   0.0000   0.0000   0.0000   0.0000   0.00    0.0
2023/07/11 06:11:19.000   35.160094070  136.886618500    40.5540   1   1   0.0000   0.0000   0.0000   0.0000   0.0000   0.0000   0.00    0.0
2023/07/11 06:11:20.000   35.160188270  136.886593810    40.5550   1   1   0.0000   0.0000   0.0000   0.0000   0.0000   0.0000   0.00    0.0
2023/07/11 06:11:21.000   35.160284260  136.886569680    40.5520   1   1   0.0000   0.0000   0.0000   0.0000   0.0000   0.0000   0.00    0.0
2023/07/11 06:11:22.000   35.160381550  136.886544710    40.5650   1   1   0.0000   0.0000   0.0000   0.0000   0.0000   0.0000   0.00    0.0
2023/07/11 06:11:23.000   35.160480360  136.886519040    40.5760   1   1   0.0000   0.0000   0.0000   0.0000   0.0000   0.0000   0.00    0.0
2023/07/11 06:11:24.000   35.160580090  136.886493240    40.5800   1   1   0.0000   0.0000   0.0000   0.0000   0.0000   0.0000   0.00    0.0
2023/07/11 06:11:25.000   35.160679980  136.886468070    40.5990   1   1   0.0000   0.0000   0.0000   0.0000   0.0000   0.0000   0.00    0.0
2023/07/11 06:11:26.000   35.160779740  136.886442970    40.6050   1   1   0.0000   0.0000   0.0000   0.0000   0.0000   0.0000   0.00    0.0
2023/07/11 06:11:27.000   35.160879090  136.886417920    40.6550   1   1   0.0000   0.0000   0.0000   0.0000   0.0000   0.0000   0.00    0.0
2023/07/11 06:11:28.000   35.160977840  136.886391870    40.6880   1   1   0.0000   0.0000   0.0000   0.0000   0.0000   0.0000   0.00    0.0
2023/07/11 06:11:29.000   35.161076770  136.886366010    40.7100   1   1   0.0000   0.0000   0.0000   0.0000   0.0000   0.0000   0.00    0.0
2023/07/11 06:11:30.000   35.161177200  136.886340540    40.7510   1   1   0.0000   0.0000   0.0000   0.0000   0.0000   0.0000   0.00    0.0
2023/07/11 06:11:31.000   35.161279210  136.886315260    40.7590   1   1   0.0000   0.0000   0.0000   0.0000   0.0000   0.0000   0.00    0.0
2023/07/11 06:11:32.000   35.161382050  136.886288340    40.7690   1   1   0.0000   0.0000   0.0000   0.0000   0.0000   0.0000   0.00    0.0
