% program   : RTKLIB MATLAB
% sol start : 2023/07/11 06:04:30.0 GPST
% sol end   : 2023/07/11 06:25:00.0 GPST
% pos mode  : Kinematic
% freqs     : L1+2
% solution  : Forward
% elev mask : 30.0 deg
% dynamics  : off
% tidecorr  : off
% ionos opt : Broadcast
% tropo opt : Saastamoinen
% ephemeris : Broadcast
% navi sys  : GPS GLONASS Galileo QZSS BDS
% amb res   : Instantaneous
% amb glo   : ON
% val thres : 3.0
% antenna1  :                       ( 0.0000  0.0000  0.0000)
% antenna2  :                       ( 0.0000  0.0000  0.0000)
% ref pos   : 35.134709483  136.977574275   104.7280
%
% (lat/lon/height=WGS84/ellipsoidal,Q=1:fix,2:float,3:sbas,4:dgps,5:single,6:ppp,ns=# of satellites)
%  GPST                  latitude(deg) longitude(deg)  height(m)   Q  ns   sdn(m)   sde(m)   sdu(m)  sdne(m)  sdeu(m)  sdun(m) age(s)  ratio    vn(m/s)    ve(m/s)    vu(m/s)      sdvn     sdve     sdvu    sdvne    sdveu    sdvun
2023/07/11 06:04:30.000   35.165360855  136.881409538    41.4084   1  19   0.0045   0.0045   0.0097   0.0027   0.0011  -0.0030   0.03    6.1    0.01294    0.04308    0.02656   0.09822  0.10782  0.25014  0.05434  0.05004  0.05026
2023/07/11 06:04:31.000   35.165360852  136.881409531    41.4098   1  19   0.0045   0.0045   0.0097   0.0027   0.0011  -0.0030   0.03    5.9    0.00027    0.01856   -0.00936   0.09822  0.10783  0.25016  0.05434  0.05010  0.05027
2023/07/11 06:04:32.000   35.165360854  136.881409534    41.4069   1  19   0.0045   0.0045   0.0097   0.0027   0.0011  -0.0030   0.03    5.9    0.01946   -0.02313    0.01343   0.09822  0.10783  0.25018  0.05434  0.05016  0.05029
2023/07/11 06:04:33.000   35.165360845  136.881409523    41.4066   1  19   0.0045   0.0045   0.0097   0.0027   0.0011  -0.0030   0.03    6.3    0.01080   -0.00406    0.03797   0.09822  0.10783  0.25020  0.05434  0.05022  0.05031
2023/07/11 06:04:34.000   35.165360858  136.881409533    41.4030   1  19   0.0045   0.0045   0.0097   0.0027   0.0011  -0.0030   0.03    5.8    0.02632   -0.00481   -0.01494   0.09823  0.10783  0.25021  0.05434  0.05028  0.05033
2023/07/11 06:04:35.000   35.165360847  136.881409536    41.4049   1  19   0.0045   0.0045   0.0097   0.0027   0.0011  -0.0030   0.03    6.0    0.01562    0.00944    0.01665   0.09823  0.10783  0.25023  0.05435  0.05034  0.05035
2023/07/11 06:04:36.000   35.165360855  136.881409532    41.3986   1  19   0.0045   0.0045   0.0097   0.0027   0.0011  -0.0030   0.03    5.8   -0.01606    0.03013   -0.00190   0.09823  0.10784  0.25025  0.05435  0.05040  0.05036
2023/07/11 06:04:37.000   35.165360853  136.881409528    41.4011   1  19   0.0045   0.0045   0.0097   0.0027   0.0011  -0.0030   0.03    6.0   -0.00303   -0.00837   -0.01775   0.09823  0.10784  0.25026  0.05435  0.05046  0.05038
2023/07/11 06:04:38.000   35.165360855  136.881409561    41.4029   1  19   0.0045   0.0045   0.0097   0.0027   0.0011  -0.0030   0.03    6.7    0.01142    0.00811    0.01811   0.09823  0.10784  0.25028  0.05435  0.05052  0.05040
2023/07/11 06:04:39.000   35.165360853  136.881409531    41.4025   1  19   0.0045   0.0045   0.0097   0.0027   0.0011  -0.0030   0.03    6.0    0.03034   -0.00937    0.02509   0.09823  0.10784  0.25030  0.05435  0.05058  0.05042
2023/07/11 06:04:40.000   35.165360848  136.881409528    41.3961   1  19   0.0045   0.0045   0.0097   0.0027   0.0011  -0.0030   0.03    6.2   -0.01433    0.00685   -0.03897   0.09823  0.10785  0.25032  0.05435  0.05064  0.05044
2023/07/11 06:04:41.000   35.165360873  136.881409549    41.3999   1  19   0.0045   0.0045   0.0097   0.0027   0.0011  -0.0030   0.03    5.9    0.00176   -0.00333   -0.00306   0.09823  0.10785  0.25033  0.05435  0.05070  0.05045
2023/07/11 06:04:42.000   35.165360843  136.881409529    41.4003   1  19   0.0045   0.0045   0.0097   0.0027   0.0011  -0.0030   0.03    5.3   -0.00906    0.02528   -0.03119   0.09823  0.10785  0.25035  0.05435  0.05076  0.05047
2023/07/11 06:04:43.000   35.165360839  136.881409521    41.3984   1  19   0.0045   0.0045   0.0097   0.0027   0.0011  -0.0030   0.03    4.9    0.00804   -0.01708    0.00185   0.09824  0.10785  0.25037  0.05435  0.05082  0.05049
2023/07/11 06:04:44.000   35.165360850  136.881409543    41.3957   1  19   0.0045   0.0045   0.0097   0.0027   0.0011  -0.0030   0.03    5.8    0.00384    0.00423    0.01481   0.09824  0.10786  0.25038  0.05435  0.05088  0.05051
2023/07/11 06:04:45.000   35.165360860  136.881409564    41.3985   1  19   0.0045   0.0045   0.0097   0.0027   0.0011  -0.0030   0.03    5.8   -0.01322    0.01752    0.06429   0.09824  0.10786  0.25040  0.05435  0.05094  0.05052
2023/07/11 06:04:46.000   35.165360861  136.881409542    41.3964   1  19   0.0045   0.0045   0.0097   0.0027   0.0011  -0.0030   0.03    5.8    0.00278    0.02757   -0.01865   0.09824  0.10786  0.25042  0.05435  0.05100  0.05054
2023/07/11 06:04:47.000   35.165360862  136.881409556    41.3961   1  19   0.0045   0.0045   0.0097   0.0027   0.0011  -0.0030   0.03    5.4    0.00967    0.01682   -0.01025   0.09824  0.10786  0.25043  0.05435  0.05106  0.05056
2023/07/11 06:04:48.000   35.165360865  136.881409515    41.3931   1  19   0.0045   0.0045   0.0097   0.0027   0.0011  -0.0030   0.03    6.1   -0.00079   -0.02063   -0.04611   0.09824  0.10786  0.25045  0.05435  0.05111  0.05058
2023/07/11 06:04:49.000   35.165360863  136.881409546    41.3938   1  19   0.0045   0.0045   0.0097   0.0027   0.0011  -0.0030   0.03    5.5   -0.00777   -0.00355    0.02799   0.09824  0.10787  0.25047  0.05435  0.05117  0.05060
2023/07/11 06:04:50.000   35.165360860  136.881409530    41.3931   1  19   0.0045   0.0045   0.0097   0.0027   0.0011  -0.0030   0.03    4.7    0.00744   -0.01517    0.01548   0.09824  0.10787  0.25048  0.05435  0.05123  0.05061
2023/07/11 06:04:51.000   35.165360855  136.881409531    41.3943   1  19   0.0045   0.0045   0.0097   0.0027   0.0012  -0.0030   0.03    5.0   -0.00127    0.00001    0.05571   0.09824  0.10787  0.25050  0.05435  0.05129  0.05063
2023/07/11 06:04:52.000   35.165360866  136.881409506    41.3938   1  19   0.0045   0.0045   0.0097   0.0027   0.0012  -0.0030   0.03    4.8    0.02165   -0.02870   -0.03584   0.09824  0.10787  0.25052  0.05435  0.05135  0.05065
2023/07/11 06:04:53.000   35.165360854  136.881409540    41.3927   1  19   0.0045   0.0045   0.0097   0.0027   0.0012  -0.0030   0.03    4.7   -0.01259   -0.00593   -0.00189   0.09825  0.10788  0.25053  0.05435  0.05141  0.05067
2023/07/11 06:04:54.000   35.165360851  136.881409530    41.3947   1  19   0.0045   0.0045   0.0097   0.0027   0.0012  -0.0030   0.03    4.7   -0.01419    0.02459    0.04805   0.09825  0.10788  0.25055  0.05435  0.05147  0.05068
2023/07/11 06:04:55.000   35.165360863  136.881409534    41.3922   1  19   0.0045   0.0045   0.0097   0.0027   0.0012  -0.0030   0.03    5.1   -0.00756    0.01309   -0.00564   0.09825  0.10788  0.25057  0.05435  0.05153  0.05070
2023/07/11 06:04:56.000   35.165360849  136.881409531    41.3955   1  19   0.0045   0.0045   0.0097   0.0027   0.0012  -0.0030   0.03    4.8    0.02587    0.00603   -0.03740   0.09825  0.10788  0.25058  0.05435  0.05158  0.05072
2023/07/11 06:04:57.000   35.165360858  136.881409524    41.3903   1  19   0.0045   0.0045   0.0097   0.0027   0.0012  -0.0030   0.03    4.9   -0.01435   -0.02654    0.01494   0.09825  0.10789  0.25060  0.05435  0.05164  0.05074
2023/07/11 06:04:58.000   35.165360849  136.881409529    41.3946   1  19   0.0045   0.0045   0.0097   0.0027   0.0012  -0.0030   0.03    4.8    0.01157   -0.00238    0.04314   0.09825  0.10789  0.25062  0.05435  0.05170  0.05075
2023/07/11 06:04:59.000   35.165360850  136.881409520    41.3914   1  19   0.0045   0.0045   0.0097   0.0027   0.0012  -0.0030   0.03    4.5   -0.00319    0.02597   -0.02972   0.09825  0.10789  0.25063  0.05435  0.05176  0.05077
2023/07/11 06:05:00.000   35.165360849  136.881409500    41.3916   1  19   0.0045   0.0045   0.0097   0.0027   0.0012  -0.0030   0.03    4.5    0.00749    0.00088   -0.04985   0.09825  0.10789  0.25065  0.05435  0.05182  0.05079
2023/07/11 06:05:01.000   35.165360850  136.881409511    41.3942   1  19   0.0045   0.0045   0.0097   0.0027   0.0012  -0.0030   0.03    4.6    0.01293   -0.01344   -0.00826   0.09825  0.10790  0.25067  0.05435  0.05188  0.05081
2023/07/11 06:05:02.000   35.165360853  136.881409522    41.3926   1  19   0.0045   0.0045   0.0097   0.0027   0.0012  -0.0030   0.03    4.5    0.00908   -0.01312    0.05455   0.09826  0.10790  0.25068  0.05435  0.05193  0.05082
2023/07/11 06:05:03.000   35.165360841  136.881409512    41.3919   1  19   0.0045   0.0045   0.0097   0.0027   0.0012  -0.0030   0.03    4.5   -0.02180    0.03810    0.00384   0.09826  0.10790  0.25070  0.05435  0.05199  0.05084
2023/07/11 06:05:04.000   35.165360839  136.881409508    41.3889   1  19   0.0045   0.0045   0.0097   0.0027   0.0012  -0.0030   0.03    4.6    0.02211    0.01046    0.03584   0.09826  0.10790  0.25072  0.05435  0.05205  0.05086
2023/07/11 06:05:05.000   35.165360870  136.881408141    41.3893   1  19   0.0045   0.0045   0.0097   0.0027   0.0012  -0.0030   0.03    3.7    0.03180   -0.26500    0.05979   0.10371  0.10867  0.26798  0.05026  0.06273 -0.02346
2023/07/11 06:05:06.000   35.165360796  136.881404359    41.4013   1  19   0.0045   0.0045   0.0097   0.0027   0.0012  -0.0030   0.03    3.8   -0.04488   -0.38273    0.00525   0.09826  0.10791  0.25075  0.05435  0.05217  0.05089
2023/07/11 06:05:07.000   35.165360337  136.881399482    41.4211   1  19   0.0045   0.0045   0.0097   0.0027   0.0012  -0.0030   0.03    3.6   -0.05912   -0.46451    0.12643   0.09826  0.10791  0.25077  0.05435  0.05222  0.05091
2023/07/11 06:05:08.000   35.165358979  136.881393016    41.4166   1  19   0.0045   0.0045   0.0097   0.0027   0.0012  -0.0030   0.03    5.0   -0.26866   -0.66919   -0.12362   0.09826  0.10791  0.25078  0.05436  0.05228  0.05093
2023/07/11 06:05:09.000   35.165355796  136.881384444    41.4405   1  19   0.0045   0.0045   0.0097   0.0027   0.0012  -0.0030   0.03    3.7   -0.44407   -0.79104    0.06467   0.09826  0.10791  0.25080  0.05436  0.05234  0.05094
2023/07/11 06:05:10.000   35.165350058  136.881375829    41.4493   1  19   0.0045   0.0045   0.0097   0.0027   0.0012  -0.0030   0.03    5.3   -0.76263   -0.83406   -0.02563   0.09826  0.10792  0.25082  0.05436  0.05240  0.05096
2023/07/11 06:05:11.000   35.165341264  136.881366839    41.4591   1  19   0.0045   0.0045   0.0097   0.0027   0.0012  -0.0030   0.03    4.1   -1.11119   -0.81938    0.00839   0.09826  0.10792  0.25083  0.05436  0.05246  0.05098
2023/07/11 06:05:12.000   35.165328801  136.881358364    41.4717   1  19   0.0045   0.0045   0.0097   0.0027   0.0012  -0.0030   0.03    4.8   -1.58322   -0.82145    0.04357   0.09827  0.10792  0.25085  0.05436  0.05251  0.05100
2023/07/11 06:05:13.000   35.165313190  136.881348847    41.4586   1  19   0.0045   0.0045   0.0097   0.0027   0.0012  -0.0030   0.03    5.3   -1.88411   -0.98267   -0.16790   0.09827  0.10792  0.25087  0.05436  0.05257  0.05101
2023/07/11 06:05:14.000   35.165296639  136.881335971    41.4528   1  19   0.0045   0.0045   0.0097   0.0027   0.0012  -0.0030   0.03    4.4   -1.77535   -1.38227   -0.02219   0.09827  0.10793  0.25088  0.05436  0.05263  0.05103
2023/07/11 06:05:15.000   35.165282380  136.881316510    41.4202   1  19   0.0045   0.0045   0.0097   0.0027   0.0012  -0.0030   0.03    4.8   -1.32151   -2.10677   -0.06602   0.09827  0.10793  0.25090  0.05436  0.05269  0.05105
2023/07/11 06:05:16.000   35.165272875  136.881291157    41.4077   1  19   0.0045   0.0045   0.0097   0.0027   0.0012  -0.0030   0.03    6.0   -0.64156   -2.38360   -0.03623   0.09827  0.10793  0.25092  0.05436  0.05274  0.05106
2023/07/11 06:05:17.000   35.165269106  136.881264885    41.3991   1  19   0.0045   0.0045   0.0097   0.0027   0.0012  -0.0030   0.03    3.8   -0.26178   -2.36960   -0.01850   0.09827  0.10793  0.25093  0.05436  0.05280  0.05108
2023/07/11 06:05:18.000   35.165267858  136.881239779    41.4030   1  19   0.0045   0.0045   0.0097   0.0027   0.0012  -0.0030   0.03    4.0   -0.03863   -2.22934    0.08218   0.09827  0.10794  0.25095  0.05436  0.05286  0.05110
2023/07/11 06:05:19.000   35.165268304  136.881214384    41.4043   1  19   0.0045   0.0045   0.0097   0.0027   0.0012  -0.0030   0.03    4.5    0.19255   -2.40789    0.06729   0.09827  0.10794  0.25096  0.05436  0.05292  0.05112
2023/07/11 06:05:20.000   35.165270857  136.881187570    41.4244   1  19   0.0045   0.0045   0.0097   0.0027   0.0012  -0.0030   0.03    3.9    0.35779   -2.40126    0.01923   0.09827  0.10794  0.25098  0.05436  0.05297  0.05113
2023/07/11 06:05:21.000   35.165274584  136.881162655    41.4293   1  18   0.0051   0.0049   0.0106   0.0034  -0.0026  -0.0044   0.03    4.6    0.35789   -2.26092   -0.00630   0.11268  0.12354  0.26751  0.07916 -0.05242 -0.04983
2023/07/11 06:05:22.000   35.165277274  136.881139467    41.4334   1  18   0.0051   0.0049   0.0106   0.0034  -0.0026  -0.0044   0.03    4.6    0.21762   -2.00234   -0.03987   0.11268  0.12354  0.26754  0.07917 -0.05238 -0.04984
2023/07/11 06:05:23.000   35.165278377  136.881118365    41.4420   1  18   0.0051   0.0049   0.0106   0.0034  -0.0026  -0.0044   0.03    5.6   -0.04534   -1.77894    0.03120   0.11268  0.12355  0.26756  0.07917 -0.05234 -0.04985
2023/07/11 06:05:24.000   35.165276981  136.881100889    41.4343   1  18   0.0051   0.0049   0.0106   0.0034  -0.0026  -0.0044   0.03    4.7   -0.29121   -1.47875    0.04305   0.11268  0.12355  0.26759  0.07917 -0.05231 -0.04985
2023/07/11 06:05:25.000   35.165273310  136.881086297    41.4227   1  18   0.0051   0.0049   0.0106   0.0034  -0.0026  -0.0044   0.03    6.5   -0.52492   -1.22815    0.00544   0.12617  0.12389  0.30045  0.08240 -0.06315 -0.10118
2023/07/11 06:05:26.000   35.165267006  136.881075112    41.3991   1  18   0.0051   0.0049   0.0106   0.0034  -0.0026  -0.0044   0.03    5.0   -0.83867   -0.88889   -0.23643   0.11269  0.12355  0.26765  0.07917 -0.05223 -0.04987
2023/07/11 06:05:27.000   35.165259011  136.881066613    41.3830   1  18   0.0051   0.0049   0.0106   0.0034  -0.0026  -0.0044   0.03    5.2   -0.96978   -0.66826   -0.09484   0.11269  0.12355  0.26768  0.07917 -0.05220 -0.04987
2023/07/11 06:05:28.000   35.165250407  136.881060658    41.3702   1  18   0.0051   0.0049   0.0106   0.0034  -0.0026  -0.0044   0.03    5.0   -0.82175   -0.37385   -0.01776   0.11269  0.12355  0.26771  0.07917 -0.05216 -0.04988
2023/07/11 06:05:29.000   35.165242978  136.881057307    41.3446   1  18   0.0051   0.0049   0.0106   0.0034  -0.0026  -0.0044   0.03    5.7   -0.79233   -0.34262    0.02864   0.11269  0.12355  0.26774  0.07917 -0.05212 -0.04989
2023/07/11 06:05:30.000   35.165234449  136.881054566    41.3161   1  18   0.0051   0.0049   0.0106   0.0034  -0.0026  -0.0044   0.03    6.0   -1.01904   -0.20245    0.05046   0.11269  0.12356  0.26777  0.07917 -0.05209 -0.04989
2023/07/11 06:05:31.000   35.165226560  136.881052333    41.3089   1  18   0.0051   0.0049   0.0106   0.0034  -0.0026  -0.0044   0.03    6.2   -0.68501   -0.10395   -0.09588   0.11269  0.12356  0.26780  0.07917 -0.05205 -0.04990
2023/07/11 06:05:32.000   35.165220878  136.881050833    41.2572   1  18   0.0051   0.0049   0.0106   0.0034  -0.0026  -0.0044   0.03    5.6   -0.63465   -0.08218   -0.16694   0.11270  0.12356  0.26783  0.07917 -0.05201 -0.04990
2023/07/11 06:05:33.000   35.165215559  136.881049726    41.2160   1  18   0.0051   0.0049   0.0106   0.0034  -0.0026  -0.0044   0.03    5.2   -0.51894   -0.12929   -0.06677   0.11270  0.12356  0.26785  0.07917 -0.05197 -0.04991
2023/07/11 06:05:34.000   35.165212008  136.881048982    41.1849   1  18   0.0051   0.0049   0.0106   0.0034  -0.0026  -0.0044   0.03    5.7   -0.18841   -0.02235   -0.07150   0.11270  0.12356  0.26788  0.07917 -0.05194 -0.04992
2023/07/11 06:05:35.000   35.165211671  136.881048964    41.1848   1  18   0.0051   0.0049   0.0106   0.0034  -0.0026  -0.0044   0.03    6.0   -0.01021    0.00439    0.00796   0.11270  0.12356  0.26791  0.07917 -0.05190 -0.04992
2023/07/11 06:05:36.000   35.165211663  136.881048944    41.1902   1  18   0.0051   0.0049   0.0106   0.0034  -0.0026  -0.0044   0.03    5.9   -0.00803    0.00598    0.05942   0.11270  0.12356  0.26794  0.07917 -0.05186 -0.04993
2023/07/11 06:05:37.000   35.165211644  136.881048946    41.1934   1  18   0.0051   0.0049   0.0106   0.0034  -0.0026  -0.0044   0.03    5.2   -0.03900   -0.03953    0.02463   0.11270  0.12357  0.26797  0.07917 -0.05183 -0.04994
2023/07/11 06:05:38.000   35.165211555  136.881048943    41.1817   1  18   0.0051   0.0049   0.0106   0.0034  -0.0026  -0.0044   0.03    5.5    0.00448   -0.04459    0.00763   0.11271  0.12357  0.26800  0.07917 -0.05179 -0.04994
2023/07/11 06:05:39.000   35.165211532  136.881048914    41.1809   1  18   0.0051   0.0049   0.0106   0.0034  -0.0026  -0.0044   0.03    5.7   -0.00402   -0.04516    0.06805   0.11271  0.12357  0.26803  0.07917 -0.05175 -0.04995
2023/07/11 06:05:40.000   35.165211535  136.881048940    41.1782   1  18   0.0051   0.0049   0.0106   0.0034  -0.0026  -0.0044   0.03    5.9   -0.00115   -0.00494    0.00847   0.11271  0.12357  0.26806  0.07917 -0.05171 -0.04996
2023/07/11 06:05:41.000   35.165211537  136.881048911    41.1856   1  18   0.0051   0.0049   0.0106   0.0034  -0.0026  -0.0044   0.03    7.4   -0.01576    0.01182    0.03333   0.11271  0.12357  0.26809  0.07917 -0.05168 -0.04996
2023/07/11 06:05:42.000   35.165211539  136.881048918    41.1809   1  18   0.0051   0.0049   0.0106   0.0034  -0.0026  -0.0044   0.03    6.0   -0.01298    0.01860   -0.00801   0.11271  0.12357  0.26811  0.07917 -0.05164 -0.04997
2023/07/11 06:05:43.000   35.165211553  136.881048924    41.1822   1  18   0.0051   0.0049   0.0106   0.0034  -0.0026  -0.0044   0.03    5.8    0.03943    0.01190   -0.00143   0.11272  0.12357  0.26814  0.07917 -0.05160 -0.04998
2023/07/11 06:05:44.000   35.165211563  136.881048914    41.1815   1  18   0.0051   0.0049   0.0106   0.0034  -0.0026  -0.0044   0.03    6.1    0.01350    0.00846   -0.01016   0.11272  0.12357  0.26817  0.07917 -0.05156 -0.04998
2023/07/11 06:05:45.000   35.165211546  136.881048961    41.1796   1  18   0.0051   0.0049   0.0106   0.0034  -0.0026  -0.0044   0.03    5.6    0.00672    0.02125   -0.04351   0.11272  0.12358  0.26820  0.07917 -0.05153 -0.04999
2023/07/11 06:05:46.000   35.165211552  136.881048932    41.1819   1  18   0.0051   0.0049   0.0106   0.0034  -0.0026  -0.0044   0.03    6.2    0.01186   -0.02120    0.02041   0.11272  0.12358  0.26823  0.07917 -0.05149 -0.05000
2023/07/11 06:05:47.000   35.165211477  136.881048912    41.1821   1  18   0.0051   0.0049   0.0106   0.0034  -0.0025  -0.0044   0.03    6.1   -0.08486   -0.05449    0.07428   0.11272  0.12358  0.26826  0.07917 -0.05145 -0.05000
2023/07/11 06:05:48.000   35.165207528  136.881048533    41.1468   1  18   0.0051   0.0049   0.0106   0.0034  -0.0025  -0.0044   0.03    5.2   -0.72371    0.03034   -0.07490   0.11272  0.12358  0.26829  0.07917 -0.05141 -0.05001
2023/07/11 06:05:49.000   35.165199806  136.881048313    41.0454   1  18   0.0051   0.0049   0.0106   0.0034  -0.0025  -0.0044   0.03    7.6   -0.95975   -0.11917   -0.23014   0.11273  0.12358  0.26831  0.07917 -0.05138 -0.05002
2023/07/11 06:05:50.000   35.165190818  136.881047748    40.9820   1  18   0.0051   0.0049   0.0106   0.0034  -0.0025  -0.0044   0.03    5.5   -1.16009   -0.01250   -0.27269   0.11273  0.12358  0.26834  0.07917 -0.05134 -0.05002
2023/07/11 06:05:51.000   35.165181052  136.881046999    40.9020   1  18   0.0051   0.0049   0.0106   0.0034  -0.0025  -0.0044   0.03    4.2   -1.11439   -0.14234    0.01453   0.11273  0.12358  0.26837  0.07917 -0.05130 -0.05003
2023/07/11 06:05:52.000   35.165169045  136.881045165    40.8174   1  18   0.0051   0.0049   0.0106   0.0034  -0.0025  -0.0044   0.03    4.9   -1.57372   -0.34662    0.05578   0.12611  0.12390  0.30085  0.08227 -0.06187 -0.10093
2023/07/11 06:05:53.000   35.165154892  136.881037150    40.7466   1  18   0.0051   0.0049   0.0106   0.0034  -0.0025  -0.0044   0.03    3.6   -1.65356   -1.00067   -0.09504   0.11273  0.12359  0.26843  0.07917 -0.05122 -0.05004
2023/07/11 06:05:54.000   35.165141133  136.881020671    40.5430   2  18   0.5039   0.4855   1.0432   0.3372  -0.2618  -0.4378   0.03    2.4   -1.40065   -1.93954    0.18551   0.12610  0.12390  0.30088  0.08226 -0.06178 -0.10091
2023/07/11 06:05:55.000   35.165131057  136.880998605    40.7771   1  18   0.0052   0.0052   0.0108   0.0033  -0.0031  -0.0043   0.03    4.3   -0.87643   -2.34408    0.13152   0.11274  0.12359  0.26849  0.07917 -0.05115 -0.05006
2023/07/11 06:05:56.000   35.165124541  136.880968758    40.8140   1  17   0.0052   0.0054   0.0110   0.0031  -0.0035  -0.0041   0.03    3.1   -0.34617   -3.01693   -0.26801   0.11283  0.13750  0.27818  0.07746 -0.08362 -0.04671
2023/07/11 06:05:57.000   35.165123415  136.880929812    40.8284   1  16   0.0053   0.0062   0.0120   0.0038  -0.0053  -0.0049   0.03    3.0    0.08720   -4.12873    0.45050   0.14804  0.29981  0.54029  0.16556 -0.35527 -0.21066
2023/07/11 06:05:58.000   35.165128661  136.880884039    40.8231   1  18   0.0053   0.0062   0.0120   0.0038  -0.0053  -0.0049   0.03    4.1    1.09185   -4.29456   -0.01785   0.11274  0.12359  0.26857  0.07917 -0.05103 -0.05008
2023/07/11 06:05:59.000   35.165137779  136.880839888    40.8854   1  18   0.0052   0.0061   0.0120   0.0039  -0.0052  -0.0050   0.03    5.9    1.03860   -3.79140   -0.19017   0.11274  0.12360  0.26860  0.07917 -0.05099 -0.05008
2023/07/11 06:06:00.000   35.165145673  136.880800171    40.9366   1  18   0.0052   0.0061   0.0120   0.0039  -0.0052  -0.0050   0.03    8.5    0.68159   -3.39373    0.14586   0.12609  0.12390  0.30097  0.08223 -0.06149 -0.10085
2023/07/11 06:06:01.000   35.165150634  136.880765799    40.9716   1  18   0.0051   0.0049   0.0106   0.0034  -0.0025  -0.0044   0.03    7.3    0.34994   -3.03239   -0.02455   0.11275  0.12360  0.26866  0.07918 -0.05092 -0.05010
2023/07/11 06:06:02.000   35.165153388  136.880731737    40.9999   1  18   0.0051   0.0049   0.0106   0.0034  -0.0025  -0.0044   0.03    3.8   -0.04538   -3.15798   -0.04436   0.11275  0.12360  0.26869  0.07918 -0.05088 -0.05011
2023/07/11 06:06:03.000   35.165152519  136.880704317    41.2071   2  18   0.5037   0.4854   1.0433   0.3369  -0.2605  -0.4375   0.03    1.8   -0.54052   -2.74463    0.01323   0.11275  0.12360  0.26872  0.07918 -0.05084 -0.05011
2023/07/11 06:06:04.000   35.165145203  136.880676058    40.9548   1  17   0.0052   0.0053   0.0109   0.0037  -0.0013  -0.0040   0.03    8.3   -0.92322   -1.89134   -0.08651   0.13293  0.14427  0.32486  0.09936  0.07259 -0.07083
2023/07/11 06:06:05.000   35.165134753  136.880657252    40.9352   1  17   0.0052   0.0053   0.0109   0.0037  -0.0013  -0.0040   0.03    7.6   -1.43039   -1.55779   -0.12010   0.12337  0.14425  0.28695  0.09996  0.06999  0.05021
2023/07/11 06:06:06.000   35.165116630  136.880641790    40.9289   1  17   0.0052   0.0053   0.0109   0.0037  -0.0012  -0.0040   0.03    6.9   -2.61611   -1.21667    0.15310   0.12337  0.14426  0.28698  0.09996  0.07003  0.05019
2023/07/11 06:06:07.000   35.165086229  136.880629271    40.8930   1  17   0.0052   0.0057   0.0112   0.0036  -0.0026  -0.0039   0.03    4.3   -4.05406   -0.96678    0.22879   0.11285  0.13749  0.27860  0.07743 -0.08350 -0.04670
2023/07/11 06:06:08.000   35.165044092  136.880618760    40.7913   1  16   0.0057   0.0082   0.0141   0.0052  -0.0075  -0.0059   0.03    3.1   -5.32997   -0.67610   -0.35123   0.12886  0.19080  0.31966  0.12100 -0.11249 -0.05216
2023/07/11 06:06:09.000   35.164996491  136.880615063    45.6165   2  16   0.5516   0.7743   1.3753   0.4886  -0.7522  -0.5934   0.03    1.9   -6.28977   -0.94179   -0.06769   0.11818  0.25643  0.40556  0.11655 -0.26599 -0.11186
2023/07/11 06:06:10.000   35.164943333  136.880644035    40.6594   2  16   0.5695   1.1083   1.8196   0.5925  -1.2290  -0.7217   0.03    1.8   -6.98366   -1.15771    0.04025   0.11818  0.25641  0.40558  0.11655 -0.26597 -0.11187
2023/07/11 06:06:11.000   35.164865549  136.880580126    40.7749   1  15   0.0057   0.0082   0.0141   0.0052  -0.0075  -0.0059   0.03    3.1   -7.51980   -1.31697   -0.01258   0.13383  0.29532  0.40579  0.15095 -0.26260 -0.10843
2023/07/11 06:06:12.000   35.164797643  136.880555107    46.4057   2  16   0.5393   0.7449   1.3748   0.4630  -0.7560  -0.5961   0.03    2.0   -8.03337   -1.02977   -0.15197   0.11818  0.25637  0.40563  0.11655 -0.26593 -0.11188
2023/07/11 06:06:13.000   35.164720081  136.880556051    40.6916   1  16   0.0057   0.0082   0.0141   0.0052  -0.0075  -0.0059   0.03    5.6   -8.52680   -0.77882   -0.16134   0.12886  0.19081  0.31971  0.12101 -0.11228 -0.05226
2023/07/11 06:06:14.000   35.164639973  136.880545500    40.6481   1  15   0.0057   0.0082   0.0145   0.0052  -0.0077  -0.0062   0.03    7.7   -9.10922   -0.93291   -0.09496   0.12945  0.19415  0.33241  0.11917 -0.09663 -0.06213
2023/07/11 06:06:15.000   35.164555460  136.880536043    40.6467   1  17   0.0054   0.0066   0.0121   0.0043  -0.0047  -0.0047   0.03    4.6   -9.54892   -0.74890   -0.29669   0.13581  0.19250  0.37812  0.12543 -0.13900 -0.12005
2023/07/11 06:06:16.000   35.164477383  136.880543798    42.6661   2  17   0.4654   0.5028   1.0677   0.3456  -0.1906  -0.3827   0.03    2.3   -9.85229   -0.70409   -0.00445   0.11727  0.14695  0.30155  0.09316  0.09100  0.03922
2023/07/11 06:06:17.000   35.164377233  136.880521756    40.5594   1  17   0.0054   0.0066   0.0124   0.0043  -0.0048  -0.0049   0.03    4.2  -10.18046   -0.49795   -0.23638   0.11726  0.14695  0.30159  0.09315  0.09104  0.03917
2023/07/11 06:06:18.000   35.164283299  136.880517810    40.5167   1  18   0.0054   0.0066   0.0124   0.0043  -0.0048  -0.0049   0.03    3.2  -10.65034   -0.10850    0.19203   0.12508  0.14275  0.32452  0.09436  0.07598 -0.06445
2023/07/11 06:06:19.000   35.164190535  136.880514258    41.3489   2  17   0.4744   0.5255   1.0847   0.3652  -0.0845  -0.3591   0.03    1.3  -10.64849   -0.03221   -0.12411   0.11725  0.14696  0.30167  0.09314  0.09111  0.03908
2023/07/11 06:06:20.000   35.164097974  136.880524748    42.4706   2  18   0.4610   0.4853   1.0460   0.3331  -0.2538  -0.4002   0.03    1.1  -10.89656    0.10710   -0.21858   0.10997  0.12458  0.27685  0.07418 -0.03232 -0.05791
2023/07/11 06:06:21.000   35.163995323  136.880516115    40.7665   2  18   0.4610   0.4853   1.0460   0.3330  -0.2537  -0.4002   0.03    1.2  -10.89988    0.28966   -0.11320   0.10997  0.12458  0.27689  0.07418 -0.03225 -0.05793
2023/07/11 06:06:22.000   35.163895810  136.880518404    41.0324   2  18   0.4610   0.4853   1.0460   0.3330  -0.2535  -0.4002   0.03    1.2  -11.07960    0.15978   -0.01008   0.10997  0.12458  0.27692  0.07418 -0.03218 -0.05795
2023/07/11 06:06:23.000   35.163798339  136.880521617    40.6729   2  18   0.4610   0.4853   1.0461   0.3330  -0.2534  -0.4002   0.03    1.0  -11.18684    0.09347    0.00647   0.10997  0.12458  0.27696  0.07418 -0.03211 -0.05797
2023/07/11 06:06:24.000   35.163695002  136.880516414    39.5771   2  19   0.4485   0.4852   1.0107   0.3328  -0.2526  -0.3626   0.03    1.2  -11.29100   -0.10755   -0.17467   0.11963  0.12337  0.29926  0.07925 -0.05683 -0.09345
2023/07/11 06:06:25.000   35.163589528  136.880518162    40.2294   2  19   0.4485   0.4852   1.0107   0.3327  -0.2525  -0.3626   0.03    1.5  -11.61893    0.08105   -0.22052   0.10776  0.12317  0.26864  0.07689 -0.04786 -0.04336
2023/07/11 06:06:26.000   35.163482749  136.880518930    39.9671   2  19   0.4485   0.4852   1.0108   0.3327  -0.2523  -0.3626   0.03    1.2  -12.02505   -0.06623   -0.16764   0.11963  0.12337  0.29930  0.07924 -0.05673 -0.09344
2023/07/11 06:06:27.000   35.163372739  136.880524265    39.1180   1  19   0.0045   0.0049   0.0103   0.0034  -0.0024  -0.0036   0.03    6.4  -12.32528    0.11823   -0.48709   0.10776  0.12317  0.26870  0.07689 -0.04778 -0.04339
2023/07/11 06:06:28.000   35.163261527  136.880526852    38.4932   1  19   0.0045   0.0049   0.0103   0.0034  -0.0024  -0.0036   0.03    4.8  -12.53096    0.20921   -0.50125   0.10776  0.12317  0.26873  0.07689 -0.04774 -0.04340
2023/07/11 06:06:29.000   35.163148159  136.880522641    38.4981   2  18   0.4608   0.5434   1.0818   0.3695  -0.3971  -0.4150   0.03    1.4  -12.65540    0.18978   -0.91181   0.11153  0.16516  0.31060  0.09525 -0.13931 -0.07974
2023/07/11 06:06:30.000   35.163034443  136.880530062    37.0335   1  18   0.0048   0.0062   0.0122   0.0042  -0.0056  -0.0049   0.03    5.4  -12.68562    0.03475   -0.54451   0.11153  0.16516  0.31062  0.09526 -0.13928 -0.07975
2023/07/11 06:06:31.000   35.162922769  136.880536135    36.2773   1  17   0.0052   0.0107   0.0187   0.0058  -0.0124  -0.0070   0.03   10.7  -12.27753    0.89809   -0.77214   0.11450  0.25531  0.40557  0.11882 -0.26488 -0.11453
2023/07/11 06:06:32.000   35.162813609  136.880551484    35.5561   1  16   0.0052   0.0107   0.0192   0.0058  -0.0125  -0.0068   0.03    9.9  -11.99058    1.79703   -0.45729   0.12136  0.25533  0.40695  0.11961 -0.26456 -0.10853
2023/07/11 06:06:33.000   35.162705794  136.880578095    34.6152   2  14   0.7027   1.0854   1.9471   0.6213  -1.2077  -0.5475   0.03    1.2  -11.87529    3.00974   -0.83571   0.14856  0.25798  0.41388  0.12695 -0.26112 -0.07321
2023/07/11 06:06:34.000   35.162600419  136.880609195    33.9644   2  17   0.5103   1.0515   1.8097   0.5715  -1.2093  -0.6929   0.03    1.5  -11.96653    3.79123   -0.61442   0.14323  0.29676  0.53673  0.16475 -0.35119 -0.20825
2023/07/11 06:06:49.000   35.161107537  136.881579530    20.1022   2   4  18.1584   4.5856  23.6455  -8.9875  10.1454 -20.5124   0.03    8.1   -0.34647    0.32434    0.38860   1.21335  0.36619  1.36911 -0.55950  0.58778 -1.15159
2023/07/11 06:06:50.000   35.161213181  136.881561024    33.8125   2   4  18.1594   4.5863  23.6446  -8.9885  10.1463 -20.5126   0.03    3.3   -0.01608   -0.02865    0.12166   1.21334  0.36621  1.36935 -0.55946  0.58793 -1.15168
2023/07/11 06:06:51.000   35.160519629  136.881767840   125.2863   2   4   9.9646   2.4196  16.2142  -4.6525   5.9920 -12.6296   0.03    1.1   -0.00023   -0.01058    0.10952   1.21332  0.36622  1.36961 -0.55942  0.58807 -1.15177
2023/07/11 06:06:52.000   35.160912069  136.881647015    73.3533   2   4   9.9679   2.4214  16.2164  -4.6553   5.9949 -12.6326   0.03    2.5    0.04249   -0.03072   -0.01552   1.21331  0.36623  1.36985 -0.55939  0.58822 -1.15186
2023/07/11 06:06:53.000   35.161059995  136.881599372    54.5428   2   4   9.9712   2.4231  16.2186  -4.6580   5.9978 -12.6356   0.03    1.5    0.00576   -0.03232   -0.10081   1.21330  0.36625  1.37010 -0.55935  0.58837 -1.15196
2023/07/11 06:06:54.000   35.161093702  136.881585012    50.7975   2   4   9.9745   2.4248  16.2209  -4.6606   6.0007 -12.6386   0.03    1.0   -0.04934   -0.00327    0.03239   1.21329  0.36627  1.37034 -0.55931  0.58852 -1.15205
2023/07/11 06:06:55.000   35.161093110  136.881580973    51.3596   1   4   8.2633   2.1758  14.6682  -4.2402   5.6494 -11.0094   0.03    5.1   -0.10002    0.03502    0.07241   1.21328  0.36628  1.37059 -0.55928  0.58866 -1.15214
2023/07/11 06:06:56.000   35.161113640  136.881572428    47.9123   2   4   9.9810   2.4282  16.2255  -4.6660   6.0065 -12.6445   0.03    1.2   -0.12644    0.01585    0.06351   1.21327  0.36630  1.37084 -0.55924  0.58881 -1.15224
2023/07/11 06:06:57.000   35.161118039  136.881567814    47.1607   1   4   0.1301   0.0307   0.2121  -0.0612   0.0785  -0.1655   0.03    3.4   -0.08768   -0.03044   -0.11086   1.21326  0.36632  1.37109 -0.55921  0.58896 -1.15233
2023/07/11 06:06:58.000   35.161115748  136.881567597    48.1664   2   4   9.9875   2.4316  16.2301  -4.6713   6.0123 -12.6505   0.03    1.1   -0.35232    0.04236    0.21020   1.21325  0.36633  1.37134 -0.55917  0.58911 -1.15242
2023/07/11 06:06:59.000   35.161118128  136.881568453    48.4481   2   4   9.9908   2.4333  16.2324  -4.6740   6.0152 -12.6535   0.03    2.5  168.84790  -29.57484 -229.17655   1.14261  0.35931  1.25503 -0.53243  0.55469 -1.05004
2023/07/11 06:07:00.000   35.161133503  136.881563996    46.4593   2   4   9.9941   2.4350  16.2347  -4.6766   6.0181 -12.6565   0.03    1.3    0.02593    0.00634    0.07031   1.21323  0.36637  1.37184 -0.55910  0.58941 -1.15261
2023/07/11 06:07:01.000   35.161126867  136.881564515    47.4013   2   4   9.9973   2.4367  16.2370  -4.6793   6.0210 -12.6595   0.03    1.4    0.08241   -0.06144   -0.08320   1.21322  0.36639  1.37209 -0.55907  0.58956 -1.15271
2023/07/11 06:07:02.000   35.161124152  136.881563683    47.3012   2   4  10.0006   2.4384  16.2393  -4.6820   6.0239 -12.6625   0.03    1.3    0.15234   -0.02332   -0.03232   1.21321  0.36640  1.37234 -0.55903  0.58970 -1.15280
2023/07/11 06:07:03.000   35.161122428  136.881562709    47.7888   1   4   0.1305   0.0308   0.2124  -0.0614   0.0788  -0.1659   0.03    3.5    0.06892    0.01564   -0.01960   1.14222  0.35933  1.25589 -0.53211  0.55516 -1.05010
2023/07/11 06:07:04.000   35.161114732  136.881565264    49.2383   2   4  10.0072   2.4418  16.2440  -4.6873   6.0297 -12.6685   0.03    2.4    0.01912   -0.01181    0.04209   1.14212  0.35934  1.25611 -0.53203  0.55527 -1.05011
2023/07/11 06:07:05.000   35.161125920  136.881560920    47.9483   2   4  10.0105   2.4435  16.2463  -4.6900   6.0326 -12.6715   0.03    1.1   -0.04133    0.02541    0.09144   1.14202  0.35934  1.25633 -0.53196  0.55539 -1.05013
2023/07/11 06:07:06.000   35.161121165  136.881561341    49.0982   1   4   0.1307   0.0309   0.2126  -0.0615   0.0789  -0.1661   0.03    9.9   -0.18945    0.02759    0.11491   1.14192  0.35935  1.25654 -0.53188  0.55551 -1.05014
2023/07/11 06:07:07.000   35.161127603  136.881557290    48.2629   1   4   0.1308   0.0310   0.2127  -0.0616   0.0790  -0.1661   0.03    3.1   -0.00967   -0.09579    0.00333   1.14182  0.35935  1.25676 -0.53180  0.55563 -1.05015
2023/07/11 06:07:08.000   35.161129029  136.881558597    48.3404   2   4  10.0204   2.4486  16.2533  -4.6981   6.0413 -12.6806   0.03    1.9    0.02033    0.03522   -0.07143   1.14173  0.35936  1.25698 -0.53172  0.55574 -1.05017
2023/07/11 06:07:09.000   35.161139655  136.881555612    46.9433   2   4  10.0237   2.4503  16.2557  -4.7007   6.0442 -12.6836   0.03    1.6   -0.16555    0.01998    0.01950   1.14163  0.35936  1.25719 -0.53164  0.55586 -1.05018
2023/07/11 06:07:10.000   35.161349453  136.881488813    20.5987   2   4  18.1784   4.6004  23.6268  -9.0079  10.1636 -20.5157   0.03    2.0    0.09052   -0.02271   -0.05934   1.14153  0.35937  1.25741 -0.53157  0.55598 -1.05020
2023/07/11 06:07:11.000   35.161351504  136.881486953    20.6402   2   4  18.1793   4.6011  23.6259  -9.0089  10.1644 -20.5159   0.03    1.1   -0.04988   -0.00694    0.09822   1.14144  0.35938  1.25763 -0.53149  0.55610 -1.05021
2023/07/11 06:07:12.000   35.161351529  136.881487061    20.7776   2   4  18.1803   4.6018  23.6250  -9.0099  10.1653 -20.5161   0.03    1.0   -0.11882   -0.00851    0.14625   1.14134  0.35938  1.25785 -0.53141  0.55622 -1.05023
2023/07/11 06:07:13.000   35.161355317  136.881486691    20.8911   2   4  18.1812   4.6025  23.6241  -9.0108  10.1661 -20.5162   0.03    1.3    0.03485    0.02088   -0.12208   1.14124  0.35939  1.25806 -0.53134  0.55634 -1.05025
2023/07/11 06:07:14.000   35.160935420  136.881603387    80.9093   2   4   6.8051   2.0361  12.2030  -3.4707   4.6774  -9.0469   0.03    1.1   -0.41948    0.27375   -0.53800   1.14114  0.35940  1.25829 -0.53125  0.55646 -1.05026
2023/07/11 06:07:15.000   35.161229773  136.881537696    36.7090   2   6   4.5061   1.5868   8.4263  -2.3698   3.2583  -6.1138   0.03    1.7   -1.76307    0.41006    0.36784   0.61271  0.31502  1.15147 -0.34494  0.48440 -0.80341
2023/07/11 06:07:16.000   35.161049040  136.881672995    80.3884   2   6   0.9611   1.0670   2.0444   0.6146  -0.8534  -1.1351   0.03   30.9   -1.15291    1.05204    1.24334   0.45975  0.39556  0.94808  0.34495 -0.55443 -0.59660
2023/07/11 06:07:17.000   35.161215655  136.881533322    54.8372   2   7   0.9111   0.9941   2.1210   0.6366  -0.9851  -1.1937   0.03    1.9   -2.13459    1.72880    0.81822   0.32284  0.37583  0.84549  0.28050 -0.50448 -0.46428
2023/07/11 06:07:18.000   35.161374109  136.881951594    40.3808   2   5   2.3183   5.2773   3.7072   3.4338  -1.0859  -0.6764   0.03    0.0   -4.22993    2.87633   -0.15616   0.27319  0.58067  0.76787  0.36911 -0.48796 -0.29442
2023/07/11 06:07:19.000   35.161066179  136.881565085    61.5077   2   8   0.6582   0.7675   1.5154   0.4377  -0.4701  -0.7210   0.03    1.8   -3.51154    3.19660   -1.54573   0.23064  0.18188  0.48077  0.10293 -0.16245 -0.25911
2023/07/11 06:07:20.000   35.161120791  136.881631612    35.9243   2  14   0.5444   0.6500   1.3531   0.4692  -0.6180  -0.5730   0.03    1.0   -6.15093    3.41154    0.02303   0.14761  0.17882  0.39157  0.11890 -0.17823 -0.15394
2023/07/11 06:07:21.000   35.161048988  136.881620202    43.1776   2  13   0.7672   1.2000   2.1790   0.7395  -1.3978  -0.7766   0.03    1.9   -6.94356    5.02098   -2.46886   0.18031  0.32110  0.55781  0.18612 -0.37073 -0.20862
2023/07/11 06:07:24.000   35.160881355  136.881841122    38.5870   2   9   0.8455   1.4663   2.5949   0.9783  -1.7487  -1.1861   0.03    1.4   -8.68464    5.30843   -1.51171   0.27537  0.48376  0.62319  0.33015 -0.39952 -0.27125
2023/07/11 06:07:25.000   35.160758279  136.881846175    36.6656   2  13   0.7038   1.3652   2.0500   0.8402  -1.3976  -0.7682   0.03    1.1   -9.79430    4.29726   -0.27795   0.22355  0.42435  0.55794  0.27407 -0.38023 -0.21901
2023/07/11 06:07:26.000   35.160665978  136.881896404    35.4807   2  13   0.7549   1.3749   2.1460   0.8662  -1.3603  -0.6459   0.03    1.0  -10.21301    4.72147    0.09106   0.22352  0.42432  0.55783  0.27405 -0.38016 -0.21901
2023/07/11 06:07:27.000   35.160576249  136.881951633    37.1253   2  14   0.6779   1.3592   2.0004   0.8256  -1.4184  -0.8220   0.03    1.1  -10.67265    4.67722    0.47150   0.18521  0.39381  0.55773  0.23524 -0.37976 -0.21856
2023/07/11 06:07:28.000   35.160461747  136.881984961    35.5096   2  14   0.6779   1.3593   2.0005   0.8257  -1.4185  -0.8222   0.03    1.4  -11.06713    5.03907    0.35730   0.15885  0.35344  0.42683  0.19697 -0.28611 -0.11660
2023/07/11 06:07:29.000   35.160358081  136.882043255    36.3574   2  14   0.7114   1.5546   2.0108   0.9190  -1.4715  -0.8485   0.03    1.6  -11.38895    5.34243    0.29331   0.15885  0.35346  0.42684  0.19699 -0.28613 -0.11667
2023/07/11 06:07:30.000   35.160260648  136.882110630    37.8993   2  10   0.7982   1.8365   2.4677   1.0406  -1.7913  -0.8840   0.03    1.3  -11.54079    5.01212    0.62296   0.22127  0.66270  0.64698  0.29192 -0.52282 -0.05262
2023/07/11 06:07:31.000   35.160205921  136.882051259    70.6934   2  11   0.6900   0.8084   1.4513   0.5583  -0.7635  -0.5571   0.03    1.1  -12.17212    5.97664   -0.92181   0.15744  0.25764  0.42475  0.12719 -0.25780 -0.09950
2023/07/11 06:07:32.000   35.160116000  136.882149851    72.5813   2   9   1.1642   1.1018   1.8113   0.9948  -0.7650  -0.7681   0.03    1.6  -10.40561    5.48170   -1.40089   0.28010  0.29274  0.53465  0.26028 -0.13769 -0.19441
2023/07/11 06:07:33.000   35.160051899  136.882247990   -12.3244   2   9   0.6135   0.6733   3.1761   0.4956   1.0462   0.5243   0.03    1.0  -10.74088    5.82765    5.15433   0.15180  0.17329  0.62444  0.12086  0.20521  0.03419
2023/07/11 06:07:34.000   35.159837243  136.882383790    32.0226   2   8   0.7340   0.6629   2.0132   0.2703  -0.1246  -0.9200   0.03    1.2   -9.64374    4.88920    0.60683   0.20255  0.13965  0.49420 -0.03593  0.11044 -0.16636
2023/07/11 06:07:35.000   35.159749528  136.882413641    39.3812   2  10   0.7984   0.6388   1.4339  -0.1274   0.4243  -0.8497   0.03    1.1  -10.27781    5.26194    0.39907   0.25062  0.13834  0.39309 -0.06187  0.10217 -0.23746
2023/07/11 06:07:36.000   35.159660726  136.882465971    39.5445   2  16   0.5380   0.5194   1.1787   0.3476  -0.2440  -0.5490   0.03    1.1  -10.86936    6.17454    1.27691   0.14867  0.12898  0.35861  0.05767  0.06227 -0.16025
2023/07/11 06:07:37.000   35.159569176  136.882514819    41.1531   2  18   0.4690   0.4894   1.0238   0.3441  -0.2613  -0.3892   0.03    1.1  -10.35055    5.86015   -0.04857   0.12677  0.12342  0.30647  0.07827 -0.05192 -0.10606
2023/07/11 06:07:38.000   35.159484182  136.882571240    40.0825   2  19   0.4471   0.4850   1.0136   0.3303  -0.2424  -0.3620   0.03    1.1   -9.87036    5.65397   -0.25242   0.11934  0.12341  0.30057  0.07882 -0.05305 -0.09319
2023/07/11 06:07:39.000   35.159401038  136.882626658    39.0805   2  19   0.4471   0.4850   1.0136   0.3303  -0.2423  -0.3620   0.03    1.0   -9.18147    5.23316   -0.50460   0.10772  0.12325  0.27084  0.07680 -0.04486 -0.04459
2023/07/11 06:07:40.000   35.159320742  136.882671406    39.7260   2  19   0.4470   0.4850   1.0137   0.3303  -0.2422  -0.3620   0.03    1.1   -8.59365    4.75126   -0.15941   0.10772  0.12326  0.27087  0.07680 -0.04482 -0.04461
2023/07/11 06:07:41.000   35.159246781  136.882721128    39.7472   2  19   0.4470   0.4850   1.0137   0.3302  -0.2420  -0.3620   0.03    1.0   -7.80966    4.26520    0.02369   0.11932  0.12341  0.30062  0.07881 -0.05289 -0.09318
2023/07/11 06:07:42.000   35.159180001  136.882762441    39.8082   2  19   0.4470   0.4850   1.0137   0.3302  -0.2419  -0.3620   0.03    1.1   -6.74847    3.89853    0.15111   0.10771  0.12326  0.27092  0.07680 -0.04473 -0.04464
2023/07/11 06:07:43.000   35.159120251  136.882811789    41.0857   1  17   0.0053   0.0122   0.0206   0.0063  -0.0141  -0.0078   0.03    5.7   -5.58912    3.47163    0.00406   0.11463  0.25369  0.40679  0.11879 -0.26319 -0.11527
2023/07/11 06:07:44.000   35.159072153  136.882846332    41.1587   1  17   0.0053   0.0117   0.0205   0.0063  -0.0139  -0.0078   0.03    6.8   -4.95863    3.02262   -0.03623   0.11463  0.25367  0.40681  0.11879 -0.26317 -0.11528
2023/07/11 06:07:45.000   35.159029261  136.882873160    41.1894   1  17   0.0053   0.0116   0.0205   0.0063  -0.0139  -0.0078   0.03    7.1   -4.35530    2.08054   -0.14231   0.11463  0.25364  0.40682  0.11879 -0.26314 -0.11530
2023/07/11 06:07:46.000   35.158992326  136.882889649    41.1996   1  17   0.0051   0.0106   0.0186   0.0057  -0.0123  -0.0070   0.03    6.1   -3.78466    1.16491   -0.06303   0.11464  0.25362  0.40684  0.11879 -0.26312 -0.11531
2023/07/11 06:07:47.000   35.158961293  136.882899733    41.2031   1  17   0.0051   0.0106   0.0186   0.0057  -0.0123  -0.0070   0.03    7.6   -3.02248    0.65863    0.12067   0.11464  0.25360  0.40685  0.11878 -0.26309 -0.11532
2023/07/11 06:07:48.000   35.158937867  136.882906917    41.1954   1  17   0.0049   0.0075   0.0138   0.0046  -0.0076  -0.0055   0.03    8.5   -2.06750    0.85638   -0.38317   0.11464  0.25357  0.40687  0.11878 -0.26306 -0.11533
2023/07/11 06:07:49.000   35.158921923  136.882905507    40.8433   2  18   0.4765   0.6179   1.1930   0.4150  -0.5463  -0.4846   0.03    1.7   -1.28906    0.24268    0.17706   0.11169  0.16476  0.31145  0.09553 -0.13686 -0.08083
2023/07/11 06:07:50.000   35.158913539  136.882904586    41.7276   2  17   0.4845   0.6225   1.2144   0.4229  -0.5302  -0.4636   0.03    1.1   -0.62201    0.12407    0.01953   0.11958  0.16664  0.31153  0.10097 -0.13624 -0.07913
2023/07/11 06:07:51.000   35.158915620  136.882925066    38.6758   2  17   0.4844   0.6226   1.2144   0.4229  -0.5301  -0.4636   0.03    1.1    0.06645   -0.00586    0.01844   0.11958  0.16664  0.31154  0.10098 -0.13621 -0.07915
2023/07/11 06:07:52.000   35.158916497  136.882923697    39.2014   2  17   0.4844   0.6226   1.2143   0.4229  -0.5300  -0.4636   0.03    1.1   -0.01071    0.01543   -0.06252   0.11959  0.16663  0.31155  0.10098 -0.13618 -0.07917
2023/07/11 06:07:53.000   35.158917927  136.882924660    39.3217   2  17   0.4844   0.6226   1.2143   0.4229  -0.5299  -0.4636   0.03    1.1    0.03908   -0.00282    0.08232   0.11959  0.16663  0.31156  0.10099 -0.13614 -0.07918
2023/07/11 06:07:54.000   35.158917711  136.882923823    39.6831   2  17   0.4844   0.6226   1.2143   0.4229  -0.5298  -0.4636   0.03    1.1   -0.00676    0.00946    0.06303   0.11959  0.16662  0.31157  0.10099 -0.13611 -0.07920
2023/07/11 06:07:55.000   35.158918795  136.882924681    39.6579   2  17   0.4844   0.6226   1.2143   0.4229  -0.5297  -0.4636   0.03    1.1    0.01906   -0.00262   -0.08361   0.11959  0.16662  0.31158  0.10100 -0.13608 -0.07921
2023/07/11 06:07:56.000   35.158920047  136.882926217    39.5203   2  17   0.4844   0.6226   1.2143   0.4229  -0.5296  -0.4636   0.03    1.9   -0.00003    0.00244   -0.01331   0.11959  0.16662  0.31159  0.10100 -0.13605 -0.07923
2023/07/11 06:07:57.000   35.158919288  136.882927364    39.9305   2  17   0.4844   0.6226   1.2143   0.4228  -0.5295  -0.4636   0.03    1.8    0.04588    0.05947   -0.02558   0.11960  0.16661  0.31159  0.10101 -0.13602 -0.07924
2023/07/11 06:07:58.000   35.158920360  136.882929608    39.6958   2  17   0.4844   0.6226   1.2143   0.4228  -0.5294  -0.4636   0.03    1.8    0.01354   -0.00920    0.02079   0.11960  0.16661  0.31160  0.10101 -0.13599 -0.07926
2023/07/11 06:07:59.000   35.158921254  136.882931149    39.4919   2  17   0.4844   0.6226   1.2143   0.4228  -0.5293  -0.4636   0.03    1.7    0.00048   -0.03239   -0.05358   0.11960  0.16661  0.31161  0.10102 -0.13595 -0.07928
2023/07/11 06:08:00.000   35.158920530  136.882930442    39.5039   2  17   0.4843   0.6226   1.2143   0.4228  -0.5292  -0.4636   0.03    1.8   -0.00222    0.00892   -0.03134   0.11960  0.16660  0.31162  0.10102 -0.13592 -0.07929
2023/07/11 06:08:01.000   35.158921227  136.882930660    39.4633   2  17   0.4843   0.6226   1.2143   0.4228  -0.5291  -0.4636   0.03    1.8   -0.01021    0.00250   -0.02171   0.11960  0.16660  0.31163  0.10103 -0.13589 -0.07931
2023/07/11 06:08:02.000   35.158920590  136.882931571    39.3819   2  17   0.4843   0.6226   1.2143   0.4228  -0.5290  -0.4636   0.03    1.7   -0.00803    0.00392    0.00092   0.11961  0.16659  0.31164  0.10103 -0.13586 -0.07932
2023/07/11 06:08:03.000   35.158921596  136.882932769    39.2381   2  17   0.4843   0.6226   1.2142   0.4228  -0.5289  -0.4636   0.03    1.8   -0.02083    0.00752   -0.02079   0.11961  0.16659  0.31165  0.10104 -0.13583 -0.07934
2023/07/11 06:08:04.000   35.158921840  136.882933374    39.4204   2  17   0.4843   0.6226   1.2142   0.4227  -0.5289  -0.4636   0.03    1.7    0.00608    0.02114   -0.00336   0.11961  0.16659  0.31166  0.10104 -0.13579 -0.07935
2023/07/11 06:08:05.000   35.158922457  136.882934015    39.4940   2  17   0.4843   0.6226   1.2142   0.4227  -0.5288  -0.4636   0.03    2.0    0.03441    0.01101   -0.06805   0.11961  0.16658  0.31167  0.10105 -0.13576 -0.07937
2023/07/11 06:08:06.000   35.158922492  136.882934539    39.4657   2  17   0.4843   0.6226   1.2142   0.4227  -0.5287  -0.4636   0.03    1.7    0.01362    0.03009   -0.03747   0.11961  0.16658  0.31168  0.10105 -0.13573 -0.07939
2023/07/11 06:08:07.000   35.158922564  136.882934914    39.2068   2  18   0.4763   0.6179   1.1928   0.4147  -0.5447  -0.4845   0.03    1.7    0.00952    0.00658   -0.05942   0.11172  0.16467  0.31162  0.09559 -0.13628 -0.08109
2023/07/11 06:08:08.000   35.158922591  136.882935495    39.6846   2  17   0.4842   0.6226   1.2142   0.4227  -0.5285  -0.4636   0.03    1.7   -0.01473   -0.01681    0.05397   0.11962  0.16657  0.31170  0.10106 -0.13567 -0.07942
2023/07/11 06:08:09.000   35.158923337  136.882935944    39.6182   2  17   0.4842   0.6226   1.2142   0.4227  -0.5284  -0.4636   0.03    1.6    0.00516   -0.03560   -0.00425   0.11962  0.16657  0.31171  0.10107 -0.13563 -0.07943
2023/07/11 06:08:10.000   35.158923545  136.882936551    39.7041   2  17   0.4842   0.6226   1.2142   0.4227  -0.5283  -0.4636   0.03    1.6    0.01576    0.01369    0.02072   0.11537  0.16640  0.28923  0.09989 -0.13236 -0.05135
2023/07/11 06:08:11.000   35.158924152  136.882937200    39.5055   2  17   0.4842   0.6226   1.2142   0.4227  -0.5282  -0.4636   0.03    1.5    0.01294    0.01384    0.03177   0.11537  0.16639  0.28924  0.09990 -0.13233 -0.05137
2023/07/11 06:08:12.000   35.158923657  136.882936653    39.6787   2  17   0.4842   0.6226   1.2142   0.4226  -0.5281  -0.4636   0.03    1.5    0.00303    0.02125   -0.00094   0.11537  0.16639  0.28925  0.09991 -0.13230 -0.05139
2023/07/11 06:08:13.000   35.158923568  136.882936263    39.2893   2  18   0.4762   0.6179   1.1928   0.4146  -0.5442  -0.4845   0.03    1.4   -0.00747    0.01389   -0.02887   0.10750  0.16450  0.28910  0.09453 -0.13316 -0.05514
2023/07/11 06:08:14.000   35.158924148  136.882938100    39.2168   2  18   0.4762   0.6179   1.1928   0.4146  -0.5441  -0.4845   0.03    1.4    0.02160    0.00094   -0.01381   0.10750  0.16449  0.28911  0.09453 -0.13314 -0.05516
2023/07/11 06:08:15.000   35.158925360  136.882938453    39.5836   2  17   0.4842   0.6227   1.2141   0.4226  -0.5278  -0.4636   0.03    1.5    0.00789   -0.07975    0.14420   0.11538  0.16638  0.28928  0.09993 -0.13222 -0.05146
2023/07/11 06:08:16.000   35.158925391  136.882938400    39.6513   2  17   0.4841   0.6227   1.2141   0.4226  -0.5277  -0.4636   0.03    1.5    0.03006   -0.02071   -0.01323   0.11538  0.16638  0.28929  0.09993 -0.13219 -0.05148
2023/07/11 06:08:17.000   35.158925598  136.882938905    39.6113   2  17   0.4841   0.6227   1.2141   0.4226  -0.5276  -0.4636   0.03    1.4    0.03623    0.04330   -0.07555   0.11538  0.16637  0.28930  0.09994 -0.13216 -0.05151
2023/07/11 06:08:18.000   35.158926872  136.882939829    39.4261   2  17   0.4841   0.6227   1.2141   0.4226  -0.5275  -0.4635   0.03    1.5   -0.00957   -0.01753    0.04183   0.11538  0.16637  0.28931  0.09995 -0.13213 -0.05153
2023/07/11 06:08:19.000   35.158924712  136.882938059    38.9212   2  18   0.4762   0.6179   1.1927   0.4146  -0.5437  -0.4844   0.03    1.3    0.02205    0.01761    0.02324   0.10751  0.16447  0.28916  0.09456 -0.13300 -0.05525
2023/07/11 06:08:20.000   35.158927135  136.882940976    39.1092   2  17   0.4841   0.6227   1.2141   0.4225  -0.5273  -0.4635   0.03    1.4    0.00256   -0.00716    0.00519   0.11539  0.16636  0.28933  0.09996 -0.13208 -0.05158
2023/07/11 06:08:21.000   35.158927195  136.882941870    39.1861   2  17   0.4841   0.6227   1.2141   0.4225  -0.5272  -0.4635   0.03    1.4   -0.03016   -0.03960    0.01546   0.11539  0.16636  0.28934  0.09997 -0.13205 -0.05160
2023/07/11 06:08:22.000   35.158927147  136.882941634    39.1278   2  17   0.4841   0.6227   1.2141   0.4225  -0.5271  -0.4635   0.03    1.5    0.02378    0.04447   -0.02293   0.11539  0.16636  0.28935  0.09997 -0.13202 -0.05162
2023/07/11 06:08:23.000   35.158926849  136.882941239    39.3186   2  17   0.4841   0.6227   1.2141   0.4225  -0.5270  -0.4635   0.03    1.6   -0.03604   -0.05596   -0.00196   0.11539  0.16635  0.28936  0.09998 -0.13199 -0.05164
2023/07/11 06:08:24.000   35.158925597  136.882940344    40.3382   2  18   0.4582   0.6190   1.0112   0.4098  -0.4819  -0.3316   0.03    1.8    0.01524    0.01178   -0.06190   0.11539  0.16635  0.28937  0.09999 -0.13197 -0.05167
2023/07/11 06:08:25.000   35.158925526  136.882940344    40.3444   2  18   0.4582   0.6190   1.0112   0.4098  -0.4819  -0.3316   0.03    1.8    0.01179   -0.00797   -0.01694   0.11539  0.16635  0.28938  0.09999 -0.13194 -0.05169
2023/07/11 06:08:26.000   35.158925780  136.882939168    40.4080   2  18   0.4581   0.6190   1.0112   0.4098  -0.4818  -0.3316   0.03    1.9    0.02705    0.03575   -0.06369   0.11540  0.16634  0.28939  0.10000 -0.13191 -0.05171
2023/07/11 06:08:27.000   35.158925536  136.882939908    40.4380   2  18   0.4581   0.6191   1.0112   0.4098  -0.4818  -0.3316   0.03    1.8   -0.01079   -0.00927   -0.01159   0.11540  0.16634  0.28939  0.10001 -0.13188 -0.05173
2023/07/11 06:08:28.000   35.158925641  136.882939610    40.2517   2  18   0.4581   0.6191   1.0112   0.4098  -0.4817  -0.3316   0.03    1.9    0.01093    0.01914   -0.03148   0.11540  0.16634  0.28940  0.10001 -0.13185 -0.05176
2023/07/11 06:08:29.000   35.158925986  136.882939389    40.1569   2  18   0.4581   0.6191   1.0111   0.4098  -0.4816  -0.3316   0.03    1.8    0.04783    0.03600    0.01289   0.11540  0.16633  0.28941  0.10002 -0.13183 -0.05178
2023/07/11 06:08:30.000   35.158926237  136.882939892    40.2176   2  18   0.4581   0.6191   1.0111   0.4098  -0.4816  -0.3316   0.03    2.0   -0.01360    0.01777   -0.01288   0.11540  0.16633  0.28942  0.10002 -0.13180 -0.05180
2023/07/11 06:08:31.000   35.158926272  136.882939979    40.2813   2  18   0.4581   0.6191   1.0111   0.4098  -0.4815  -0.3316   0.03    1.9   -0.02246    0.03035   -0.00577   0.11540  0.16633  0.28943  0.10003 -0.13177 -0.05183
2023/07/11 06:08:32.000   35.158926502  136.882940676    40.3075   2  18   0.4581   0.6191   1.0111   0.4098  -0.4815  -0.3316   0.03    1.9   -0.02761   -0.03437    0.03903   0.11541  0.16632  0.28944  0.10004 -0.13174 -0.05185
2023/07/11 06:08:33.000   35.158924915  136.882939569    39.9266   2  19   0.4469   0.6136   0.9966   0.3995  -0.4959  -0.3566   0.03    1.6    0.00986   -0.02215    0.03310   0.10753  0.16441  0.28930  0.09463 -0.13260 -0.05553
2023/07/11 06:08:34.000   35.158924100  136.882939125    39.8336   2  19   0.4469   0.6136   0.9965   0.3995  -0.4958  -0.3566   0.03    1.8   -0.03068   -0.00858    0.04292   0.10753  0.16440  0.28931  0.09463 -0.13258 -0.05555
2023/07/11 06:08:35.000   35.158926174  136.882939653    40.3029   2  18   0.4581   0.6192   1.0111   0.4098  -0.4813  -0.3316   0.03    1.8    0.04314    0.00693    0.01592   0.11541  0.16631  0.28947  0.10006 -0.13166 -0.05192
2023/07/11 06:08:36.000   35.158926211  136.882941210    40.4370   2  18   0.4581   0.6192   1.0110   0.4098  -0.4812  -0.3316   0.03    2.0   -0.01298   -0.01173   -0.01326   0.11541  0.16631  0.28948  0.10006 -0.13163 -0.05194
2023/07/11 06:08:37.000   35.158925395  136.882940203    40.4415   2  18   0.4581   0.6192   1.0110   0.4098  -0.4812  -0.3316   0.03    1.8    0.00629    0.02052   -0.04654   0.12558  0.17018  0.31467  0.10863 -0.14755 -0.09383
2023/07/11 06:08:38.000   35.158924618  136.882939687    40.7157   2  18   0.4580   0.6192   1.0110   0.4098  -0.4811  -0.3317   0.03    1.8    0.00291   -0.01657    0.00746   0.12558  0.17017  0.31467  0.10863 -0.14751 -0.09383
2023/07/11 06:08:39.000   35.158924869  136.882938681    40.6028   2  18   0.4580   0.6192   1.0110   0.4098  -0.4811  -0.3317   0.03    2.0   -0.00408   -0.00653    0.01815   0.12557  0.17016  0.31466  0.10863 -0.14747 -0.09383
2023/07/11 06:08:40.000   35.158924555  136.882938675    40.7272   2  18   0.4580   0.6192   1.0110   0.4098  -0.4810  -0.3317   0.03    1.9    0.01949    0.02022   -0.00066   0.12557  0.17015  0.31465  0.10863 -0.14743 -0.09382
2023/07/11 06:08:41.000   35.158923717  136.882937868    40.8021   2  18   0.4580   0.6192   1.0110   0.4098  -0.4810  -0.3317   0.03    1.9    0.01734   -0.02177    0.04954   0.12557  0.17014  0.31464  0.10862 -0.14739 -0.09382
2023/07/11 06:08:42.000   35.158923798  136.882937081    40.5465   2  18   0.4580   0.6192   1.0110   0.4098  -0.4809  -0.3317   0.03    1.9    0.00250   -0.01157    0.06517   0.12557  0.17013  0.31464  0.10862 -0.14735 -0.09382
2023/07/11 06:08:43.000   35.158923680  136.882936498    40.5314   2  18   0.4580   0.6193   1.0109   0.4098  -0.4809  -0.3317   0.03    1.9    0.00997   -0.01710    0.00288   0.12557  0.17013  0.31463  0.10862 -0.14731 -0.09382
2023/07/11 06:08:44.000   35.158922615  136.882935570    40.6159   2  18   0.4580   0.6193   1.0109   0.4098  -0.4808  -0.3317   0.03    2.0   -0.00719   -0.02245    0.03657   0.12557  0.17012  0.31462  0.10862 -0.14726 -0.09381
2023/07/11 06:08:45.000   35.158922752  136.882935085    40.6337   2  18   0.4580   0.6193   1.0109   0.4098  -0.4807  -0.3317   0.03    1.9    0.01430   -0.00044   -0.00316   0.11543  0.16628  0.28957  0.10012 -0.13137 -0.05215
2023/07/11 06:08:46.000   35.158923456  136.882935554    40.4125   2  18   0.4580   0.6193   1.0109   0.4098  -0.4807  -0.3317   0.03    1.9   -0.00011   -0.00820   -0.00192   0.11543  0.16628  0.28957  0.10013 -0.13134 -0.05217
2023/07/11 06:08:47.000   35.158923060  136.882934182    40.5452   2  18   0.4580   0.6193   1.0109   0.4098  -0.4806  -0.3317   0.03    1.9   -0.01091   -0.03610   -0.00486   0.12556  0.17009  0.31460  0.10862 -0.14714 -0.09381
2023/07/11 06:08:48.000   35.158922796  136.882932337    40.4397   2  18   0.4580   0.6193   1.0109   0.4098  -0.4806  -0.3317   0.03    1.9   -0.01933   -0.01622    0.00463   0.12556  0.17008  0.31459  0.10862 -0.14710 -0.09380
2023/07/11 06:08:49.000   35.158921835  136.882932077    40.5990   2  18   0.4580   0.6193   1.0108   0.4098  -0.4805  -0.3317   0.03    1.8    0.04049    0.05014   -0.08824   0.11543  0.16627  0.28960  0.10015 -0.13126 -0.05224
2023/07/11 06:08:50.000   35.158921260  136.882931741    40.4329   2  18   0.4579   0.6193   1.0108   0.4098  -0.4805  -0.3317   0.03    1.8    0.01982    0.01923   -0.03809   0.11544  0.16626  0.28961  0.10015 -0.13123 -0.05226
2023/07/11 06:08:51.000   35.158920529  136.882930440    40.4863   2  18   0.4579   0.6193   1.0108   0.4098  -0.4804  -0.3317   0.03    1.9   -0.02086   -0.02946    0.04741   0.11544  0.16626  0.28962  0.10016 -0.13120 -0.05228
2023/07/11 06:08:52.000   35.158919236  136.882931343    40.3185   2  18   0.4579   0.6194   1.0108   0.4098  -0.4803  -0.3317   0.03    2.1   -0.41196    0.22400   -0.01235   0.11544  0.16626  0.28963  0.10016 -0.13117 -0.05231
2023/07/11 06:08:53.000   35.158901609  136.882916208    41.2109   1  17   0.0056   0.0071   0.0103   0.0053  -0.0047  -0.0032   0.03    4.5   -1.62931    0.29017   -0.18899   0.13225  0.17461  0.29132  0.11610 -0.12462 -0.02683
2023/07/11 06:08:54.000   35.158890482  136.882938059    40.4107   2  19   0.4467   0.6138   0.9963   0.3995  -0.4948  -0.3567   0.03    1.0   -2.76284    0.15836   -0.27210   0.10756  0.16431  0.28950  0.09473 -0.13201 -0.05594
2023/07/11 06:08:55.000   35.158866217  136.882945579    40.3488   2  19   0.4467   0.6138   0.9963   0.3995  -0.4947  -0.3567   0.03    1.0   -2.80248    0.67110    0.15915   0.10756  0.16431  0.28951  0.09474 -0.13198 -0.05596
2023/07/11 06:08:56.000   35.158838042  136.882951026    40.4707   2  18   0.4583   0.6155   1.0775   0.4052  -0.5131  -0.4115   0.03    1.1   -2.88836    0.79336    0.37138   0.12808  0.16897  0.36095  0.10770 -0.15876 -0.13424
2023/07/11 06:08:57.000   35.158810087  136.882959680    40.1578   2  19   0.4467   0.6138   0.9962   0.3995  -0.4946  -0.3567   0.03    1.0   -2.98790    1.66273   -0.40341   0.11698  0.16769  0.31453  0.10256 -0.14672 -0.09373
2023/07/11 06:08:58.000   35.158781705  136.882962649    43.1831   2  19   0.4353   0.5430   0.9185   0.3617  -0.3663  -0.2974   0.03    1.1   -2.94974    1.02260    0.44868   0.10757  0.16429  0.28954  0.09475 -0.13189 -0.05602
2023/07/11 06:08:59.000   35.158760666  136.882991427    41.7428   2  20   0.4260   0.4846   0.8665   0.3300  -0.2440  -0.2475   0.03    1.1   -2.32354    1.42587   -0.17687   0.10430  0.12304  0.25546  0.07819 -0.05049  0.02115
2023/07/11 06:09:00.000   35.158741185  136.883011021    42.2787   2  20   0.4259   0.4846   0.8666   0.3300  -0.2439  -0.2475   0.03    1.1   -2.23627    1.73739   -0.13369   0.10430  0.12304  0.25548  0.07819 -0.05046  0.02112
2023/07/11 06:09:01.000   35.158722729  136.883026413    42.2813   2  20   0.4259   0.4846   0.8666   0.3299  -0.2438  -0.2475   0.03    1.3   -2.19474    2.24461    0.07336   0.10429  0.12304  0.25551  0.07819 -0.05043  0.02109
2023/07/11 06:09:02.000   35.158704874  136.883058335    41.0388   2  20   0.4259   0.4846   0.8666   0.3299  -0.2437  -0.2474   0.03    1.3   -2.02617    3.02094    0.04665   0.10429  0.12304  0.25554  0.07818 -0.05040  0.02105
