% program   : RTKLIB MATLAB
% sol start : 2023/07/11 06:04:30.0 GPST
% sol end   : 2023/07/11 06:25:00.0 GPST
% pos mode  : Kinematic
% freqs     : L1+2
% solution  : Forward
% elev mask : 30.0 deg
% dynamics  : off
% tidecorr  : off
% ionos opt : Broadcast
% tropo opt : Saastamoinen
% ephemeris : Broadcast
% navi sys  : GPS GLONASS Galileo QZSS BDS
% amb res   : Instantaneous
% amb glo   : ON
% val thres : 3.0
% antenna1  :                       ( 0.0000  0.0000  0.0000)
% antenna2  :                       ( 0.0000  0.0000  0.0000)
% ref pos   : 35.134709483  136.977574275   104.7280
%
% (lat/lon/height=WGS84/ellipsoidal,Q=1:fix,2:float,3:sbas,4:dgps,5:single,6:ppp,ns=# of satellites)
%  GPST                  latitude(deg) longitude(deg)  height(m)   Q  ns   sdn(m)   sde(m)   sdu(m)  sdne(m)  sdeu(m)  sdun(m) age(s)  ratio    vn(m/s)    ve(m/s)    vu(m/s)      sdvn     sdve     sdvu    sdvne    sdveu    sdvun
2023/07/11 06:04:33.000   35.165360845  136.881409523    41.4066   1  19   0.0045   0.0045   0.0097   0.0027   0.0011  -0.0030   0.03    6.3    0.01080   -0.00406    0.03797   0.09822  0.10783  0.25020  0.05434  0.05022  0.05031
2023/07/11 06:04:36.000   35.165360855  136.881409532    41.3986   1  19   0.0045   0.0045   0.0097   0.0027   0.0011  -0.0030   0.03    5.8   -0.01606    0.03013   -0.00190   0.09823  0.10784  0.25025  0.05435  0.05040  0.05036
2023/07/11 06:04:37.000   35.165360853  136.881409528    41.4011   1  19   0.0045   0.0045   0.0097   0.0027   0.0011  -0.0030   0.03    6.0   -0.00303   -0.00837   -0.01775   0.09823  0.10784  0.25026  0.05435  0.05046  0.05038
2023/07/11 06:04:38.000   35.165360855  136.881409561    41.4029   1  19   0.0045   0.0045   0.0097   0.0027   0.0011  -0.0030   0.03    6.7    0.01142    0.00811    0.01811   0.09823  0.10784  0.25028  0.05435  0.05052  0.05040
2023/07/11 06:04:39.000   35.165360853  136.881409531    41.4025   1  19   0.0045   0.0045   0.0097   0.0027   0.0011  -0.0030   0.03    6.0    0.03034   -0.00937    0.02509   0.09823  0.10784  0.25030  0.05435  0.05058  0.05042
2023/07/11 06:04:40.000   35.165360848  136.881409528    41.3961   1  19   0.0045   0.0045   0.0097   0.0027   0.0011  -0.0030   0.03    6.2   -0.01433    0.00685   -0.03897   0.09823  0.10785  0.25032  0.05435  0.05064  0.05044
2023/07/11 06:04:44.000   35.165360850  136.881409543    41.3957   1  19   0.0045   0.0045   0.0097   0.0027   0.0011  -0.0030   0.03    5.8    0.00384    0.00423    0.01481   0.09824  0.10786  0.25038  0.05435  0.05088  0.05051
2023/07/11 06:04:46.000   35.165360861  136.881409542    41.3964   1  19   0.0045   0.0045   0.0097   0.0027   0.0011  -0.0030   0.03    5.8    0.00278    0.02757   -0.01865   0.09824  0.10786  0.25042  0.05435  0.05100  0.05054
2023/07/11 06:04:47.000   35.165360862  136.881409556    41.3961   1  19   0.0045   0.0045   0.0097   0.0027   0.0011  -0.0030   0.03    5.4    0.00967    0.01682   -0.01025   0.09824  0.10786  0.25043  0.05435  0.05106  0.05056
2023/07/11 06:04:48.000   35.165360865  136.881409515    41.3931   1  19   0.0045   0.0045   0.0097   0.0027   0.0011  -0.0030   0.03    6.1   -0.00079   -0.02063   -0.04611   0.09824  0.10786  0.25045  0.05435  0.05111  0.05058
2023/07/11 06:04:49.000   35.165360863  136.881409546    41.3938   1  19   0.0045   0.0045   0.0097   0.0027   0.0011  -0.0030   0.03    5.5   -0.00777   -0.00355    0.02799   0.09824  0.10787  0.25047  0.05435  0.05117  0.05060
2023/07/11 06:04:50.000   35.165360860  136.881409530    41.3931   1  19   0.0045   0.0045   0.0097   0.0027   0.0011  -0.0030   0.03    4.7    0.00744   -0.01517    0.01548   0.09824  0.10787  0.25048  0.05435  0.05123  0.05061
2023/07/11 06:04:51.000   35.165360855  136.881409531    41.3943   1  19   0.0045   0.0045   0.0097   0.0027   0.0012  -0.0030   0.03    5.0   -0.00127    0.00001    0.05571   0.09824  0.10787  0.25050  0.05435  0.05129  0.05063
2023/07/11 06:04:52.000   35.165360866  136.881409506    41.3938   1  19   0.0045   0.0045   0.0097   0.0027   0.0012  -0.0030   0.03    4.8    0.02165   -0.02870   -0.03584   0.09824  0.10787  0.25052  0.05435  0.05135  0.05065
2023/07/11 06:04:54.000   35.165360851  136.881409530    41.3947   1  19   0.0045   0.0045   0.0097   0.0027   0.0012  -0.0030   0.03    4.7   -0.01419    0.02459    0.04805   0.09825  0.10788  0.25055  0.05435  0.05147  0.05068
2023/07/11 06:04:57.000   35.165360858  136.881409524    41.3903   1  19   0.0045   0.0045   0.0097   0.0027   0.0012  -0.0030   0.03    4.9   -0.01435   -0.02654    0.01494   0.09825  0.10789  0.25060  0.05435  0.05164  0.05074
2023/07/11 06:04:58.000   35.165360849  136.881409529    41.3946   1  19   0.0045   0.0045   0.0097   0.0027   0.0012  -0.0030   0.03    4.8    0.01157   -0.00238    0.04314   0.09825  0.10789  0.25062  0.05435  0.05170  0.05075
2023/07/11 06:04:59.000   35.165360850  136.881409520    41.3914   1  19   0.0045   0.0045   0.0097   0.0027   0.0012  -0.0030   0.03    4.5   -0.00319    0.02597   -0.02972   0.09825  0.10789  0.25063  0.05435  0.05176  0.05077
2023/07/11 06:05:00.000   35.165360849  136.881409500    41.3916   1  19   0.0045   0.0045   0.0097   0.0027   0.0012  -0.0030   0.03    4.5    0.00749    0.00088   -0.04985   0.09825  0.10789  0.25065  0.05435  0.05182  0.05079
2023/07/11 06:05:01.000   35.165360850  136.881409511    41.3942   1  19   0.0045   0.0045   0.0097   0.0027   0.0012  -0.0030   0.03    4.6    0.01293   -0.01344   -0.00826   0.09825  0.10790  0.25067  0.05435  0.05188  0.05081
2023/07/11 06:05:02.000   35.165360853  136.881409522    41.3926   1  19   0.0045   0.0045   0.0097   0.0027   0.0012  -0.0030   0.03    4.5    0.00908   -0.01312    0.05455   0.09826  0.10790  0.25068  0.05435  0.05193  0.05082
2023/07/11 06:05:03.000   35.165360841  136.881409512    41.3919   1  19   0.0045   0.0045   0.0097   0.0027   0.0012  -0.0030   0.03    4.5   -0.02180    0.03810    0.00384   0.09826  0.10790  0.25070  0.05435  0.05199  0.05084
2023/07/11 06:05:04.000   35.165360839  136.881409508    41.3889   1  19   0.0045   0.0045   0.0097   0.0027   0.0012  -0.0030   0.03    4.6    0.02211    0.01046    0.03584   0.09826  0.10790  0.25072  0.05435  0.05205  0.05086
2023/07/11 06:05:07.000   35.165360337  136.881399482    41.4211   1  19   0.0045   0.0045   0.0097   0.0027   0.0012  -0.0030   0.03    3.6   -0.05912   -0.46451    0.12643   0.09826  0.10791  0.25077  0.05435  0.05222  0.05091
2023/07/11 06:05:11.000   35.165341264  136.881366839    41.4591   1  19   0.0045   0.0045   0.0097   0.0027   0.0012  -0.0030   0.03    4.1   -1.11119   -0.81938    0.00839   0.09826  0.10792  0.25083  0.05436  0.05246  0.05098
2023/07/11 06:05:14.000   35.165296639  136.881335971    41.4528   1  19   0.0045   0.0045   0.0097   0.0027   0.0012  -0.0030   0.03    4.4   -1.77535   -1.38227   -0.02219   0.09827  0.10793  0.25088  0.05436  0.05263  0.05103
2023/07/11 06:05:15.000   35.165282380  136.881316510    41.4202   1  19   0.0045   0.0045   0.0097   0.0027   0.0012  -0.0030   0.03    4.8   -1.32151   -2.10677   -0.06602   0.09827  0.10793  0.25090  0.05436  0.05269  0.05105
2023/07/11 06:05:23.000   35.165278377  136.881118365    41.4420   1  18   0.0051   0.0049   0.0106   0.0034  -0.0026  -0.0044   0.03    5.6   -0.04534   -1.77894    0.03120   0.11268  0.12355  0.26756  0.07917 -0.05234 -0.04985
2023/07/11 06:05:26.000   35.165267006  136.881075112    41.3991   1  18   0.0051   0.0049   0.0106   0.0034  -0.0026  -0.0044   0.03    5.0   -0.83867   -0.88889   -0.23643   0.11269  0.12355  0.26765  0.07917 -0.05223 -0.04987
2023/07/11 06:05:27.000   35.165259011  136.881066613    41.3830   1  18   0.0051   0.0049   0.0106   0.0034  -0.0026  -0.0044   0.03    5.2   -0.96978   -0.66826   -0.09484   0.11269  0.12355  0.26768  0.07917 -0.05220 -0.04987
2023/07/11 06:05:28.000   35.165250407  136.881060658    41.3702   1  18   0.0051   0.0049   0.0106   0.0034  -0.0026  -0.0044   0.03    5.0   -0.82175   -0.37385   -0.01776   0.11269  0.12355  0.26771  0.07917 -0.05216 -0.04988
2023/07/11 06:05:31.000   35.165226560  136.881052333    41.3089   1  18   0.0051   0.0049   0.0106   0.0034  -0.0026  -0.0044   0.03    6.2   -0.68501   -0.10395   -0.09588   0.11269  0.12356  0.26780  0.07917 -0.05205 -0.04990
2023/07/11 06:05:34.000   35.165212008  136.881048982    41.1849   1  18   0.0051   0.0049   0.0106   0.0034  -0.0026  -0.0044   0.03    5.7   -0.18841   -0.02235   -0.07150   0.11270  0.12356  0.26788  0.07917 -0.05194 -0.04992
2023/07/11 06:05:35.000   35.165211671  136.881048964    41.1848   1  18   0.0051   0.0049   0.0106   0.0034  -0.0026  -0.0044   0.03    6.0   -0.01021    0.00439    0.00796   0.11270  0.12356  0.26791  0.07917 -0.05190 -0.04992
2023/07/11 06:05:36.000   35.165211663  136.881048944    41.1902   1  18   0.0051   0.0049   0.0106   0.0034  -0.0026  -0.0044   0.03    5.9   -0.00803    0.00598    0.05942   0.11270  0.12356  0.26794  0.07917 -0.05186 -0.04993
2023/07/11 06:05:37.000   35.165211644  136.881048946    41.1934   1  18   0.0051   0.0049   0.0106   0.0034  -0.0026  -0.0044   0.03    5.2   -0.03900   -0.03953    0.02463   0.11270  0.12357  0.26797  0.07917 -0.05183 -0.04994
2023/07/11 06:05:38.000   35.165211555  136.881048943    41.1817   1  18   0.0051   0.0049   0.0106   0.0034  -0.0026  -0.0044   0.03    5.5    0.00448   -0.04459    0.00763   0.11271  0.12357  0.26800  0.07917 -0.05179 -0.04994
2023/07/11 06:05:39.000   35.165211532  136.881048914    41.1809   1  18   0.0051   0.0049   0.0106   0.0034  -0.0026  -0.0044   0.03    5.7   -0.00402   -0.04516    0.06805   0.11271  0.12357  0.26803  0.07917 -0.05175 -0.04995
2023/07/11 06:05:40.000   35.165211535  136.881048940    41.1782   1  18   0.0051   0.0049   0.0106   0.0034  -0.0026  -0.0044   0.03    5.9   -0.00115   -0.00494    0.00847   0.11271  0.12357  0.26806  0.07917 -0.05171 -0.04996
2023/07/11 06:05:41.000   35.165211537  136.881048911    41.1856   1  18   0.0051   0.0049   0.0106   0.0034  -0.0026  -0.0044   0.03    7.4   -0.01576    0.01182    0.03333   0.11271  0.12357  0.26809  0.07917 -0.05168 -0.04996
2023/07/11 06:05:50.000   35.165190818  136.881047748    40.9820   1  18   0.0051   0.0049   0.0106   0.0034  -0.0025  -0.0044   0.03    5.5   -1.16009   -0.01250   -0.27269   0.11273  0.12358  0.26834  0.07917 -0.05134 -0.05002
2023/07/11 06:05:51.000   35.165181052  136.881046999    40.9020   1  18   0.0051   0.0049   0.0106   0.0034  -0.0025  -0.0044   0.03    4.2   -1.11439   -0.14234    0.01453   0.11273  0.12358  0.26837  0.07917 -0.05130 -0.05003
2023/07/11 06:05:53.000   35.165154892  136.881037150    40.7466   1  18   0.0051   0.0049   0.0106   0.0034  -0.0025  -0.0044   0.03    3.6   -1.65356   -1.00067   -0.09504   0.11273  0.12359  0.26843  0.07917 -0.05122 -0.05004
2023/07/11 06:05:54.000   35.165141133  136.881020671    40.5430   2  18   0.5039   0.4855   1.0432   0.3372  -0.2618  -0.4378   0.03    2.4   -1.40065   -1.93954    0.18551   0.12610  0.12390  0.30088  0.08226 -0.06178 -0.10091
2023/07/11 06:05:55.000   35.165131057  136.880998605    40.7771   1  18   0.0052   0.0052   0.0108   0.0033  -0.0031  -0.0043   0.03    4.3   -0.87643   -2.34408    0.13152   0.11274  0.12359  0.26849  0.07917 -0.05115 -0.05006
2023/07/11 06:05:59.000   35.165137779  136.880839888    40.8854   1  18   0.0052   0.0061   0.0120   0.0039  -0.0052  -0.0050   0.03    5.9    1.03860   -3.79140   -0.19017   0.11274  0.12360  0.26860  0.07917 -0.05099 -0.05008
2023/07/11 06:06:00.000   35.165145673  136.880800171    40.9366   1  18   0.0052   0.0061   0.0120   0.0039  -0.0052  -0.0050   0.03    8.5    0.68159   -3.39373    0.14586   0.12609  0.12390  0.30097  0.08223 -0.06149 -0.10085
2023/07/11 06:06:02.000   35.165153388  136.880731737    40.9999   1  18   0.0051   0.0049   0.0106   0.0034  -0.0025  -0.0044   0.03    3.8   -0.04538   -3.15798   -0.04436   0.11275  0.12360  0.26869  0.07918 -0.05088 -0.05011
2023/07/11 06:06:03.000   35.165152519  136.880704317    41.2071   2  18   0.5037   0.4854   1.0433   0.3369  -0.2605  -0.4375   0.03    1.8   -0.54052   -2.74463    0.01323   0.11275  0.12360  0.26872  0.07918 -0.05084 -0.05011
2023/07/11 06:06:04.000   35.165145203  136.880676058    40.9548   1  17   0.0052   0.0053   0.0109   0.0037  -0.0013  -0.0040   0.03    8.3   -0.92322   -1.89134   -0.08651   0.13293  0.14427  0.32486  0.09936  0.07259 -0.07083
2023/07/11 06:06:10.000   35.164943333  136.880644035    40.6594   2  16   0.5695   1.1083   1.8196   0.5925  -1.2290  -0.7217   0.03    1.8   -6.98366   -1.15771    0.04025   0.11818  0.25641  0.40558  0.11655 -0.26597 -0.11187
2023/07/11 06:06:11.000   35.164865549  136.880580126    40.7749   1  15   0.0057   0.0082   0.0141   0.0052  -0.0075  -0.0059   0.03    3.1   -7.51980   -1.31697   -0.01258   0.13383  0.29532  0.40579  0.15095 -0.26260 -0.10843
2023/07/11 06:06:12.000   35.164797643  136.880555107    46.4057   2  16   0.5393   0.7449   1.3748   0.4630  -0.7560  -0.5961   0.03    2.0   -8.03337   -1.02977   -0.15197   0.11818  0.25637  0.40563  0.11655 -0.26593 -0.11188
2023/07/11 06:06:14.000   35.164639973  136.880545500    40.6481   1  15   0.0057   0.0082   0.0145   0.0052  -0.0077  -0.0062   0.03    7.7   -9.10922   -0.93291   -0.09496   0.12945  0.19415  0.33241  0.11917 -0.09663 -0.06213
2023/07/11 06:06:20.000   35.164097974  136.880524748    42.4706   2  18   0.4610   0.4853   1.0460   0.3331  -0.2538  -0.4002   0.03    1.1  -10.89656    0.10710   -0.21858   0.10997  0.12458  0.27685  0.07418 -0.03232 -0.05791
2023/07/11 06:06:24.000   35.163695002  136.880516414    39.5771   2  19   0.4485   0.4852   1.0107   0.3328  -0.2526  -0.3626   0.03    1.2  -11.29100   -0.10755   -0.17467   0.11963  0.12337  0.29926  0.07925 -0.05683 -0.09345
2023/07/11 06:06:26.000   35.163482749  136.880518930    39.9671   2  19   0.4485   0.4852   1.0108   0.3327  -0.2523  -0.3626   0.03    1.2  -12.02505   -0.06623   -0.16764   0.11963  0.12337  0.29930  0.07924 -0.05673 -0.09344
2023/07/11 06:06:28.000   35.163261527  136.880526852    38.4932   1  19   0.0045   0.0049   0.0103   0.0034  -0.0024  -0.0036   0.03    4.8  -12.53096    0.20921   -0.50125   0.10776  0.12317  0.26873  0.07689 -0.04774 -0.04340
2023/07/11 06:06:31.000   35.162922769  136.880536135    36.2773   1  17   0.0052   0.0107   0.0187   0.0058  -0.0124  -0.0070   0.03   10.7  -12.27753    0.89809   -0.77214   0.11450  0.25531  0.40557  0.11882 -0.26488 -0.11453
2023/07/11 06:06:33.000   35.162705794  136.880578095    34.6152   2  14   0.7027   1.0854   1.9471   0.6213  -1.2077  -0.5475   0.03    1.2  -11.87529    3.00974   -0.83571   0.14856  0.25798  0.41388  0.12695 -0.26112 -0.07321
2023/07/11 06:06:49.000   35.161107537  136.881579530    20.1022   2   4  18.1584   4.5856  23.6455  -8.9875  10.1454 -20.5124   0.03    8.1   -0.34647    0.32434    0.38860   1.21335  0.36619  1.36911 -0.55950  0.58778 -1.15159
2023/07/11 06:06:50.000   35.161213181  136.881561024    33.8125   2   4  18.1594   4.5863  23.6446  -8.9885  10.1463 -20.5126   0.03    3.3   -0.01608   -0.02865    0.12166   1.21334  0.36621  1.36935 -0.55946  0.58793 -1.15168
2023/07/11 06:06:52.000   35.160912069  136.881647015    73.3533   2   4   9.9679   2.4214  16.2164  -4.6553   5.9949 -12.6326   0.03    2.5    0.04249   -0.03072   -0.01552   1.21331  0.36623  1.36985 -0.55939  0.58822 -1.15186
2023/07/11 06:06:54.000   35.161093702  136.881585012    50.7975   2   4   9.9745   2.4248  16.2209  -4.6606   6.0007 -12.6386   0.03    1.0   -0.04934   -0.00327    0.03239   1.21329  0.36627  1.37034 -0.55931  0.58852 -1.15205
2023/07/11 06:06:55.000   35.161093110  136.881580973    51.3596   1   4   8.2633   2.1758  14.6682  -4.2402   5.6494 -11.0094   0.03    5.1   -0.10002    0.03502    0.07241   1.21328  0.36628  1.37059 -0.55928  0.58866 -1.15214
2023/07/11 06:06:56.000   35.161113640  136.881572428    47.9123   2   4   9.9810   2.4282  16.2255  -4.6660   6.0065 -12.6445   0.03    1.2   -0.12644    0.01585    0.06351   1.21327  0.36630  1.37084 -0.55924  0.58881 -1.15224
2023/07/11 06:06:57.000   35.161118039  136.881567814    47.1607   1   4   0.1301   0.0307   0.2121  -0.0612   0.0785  -0.1655   0.03    3.4   -0.08768   -0.03044   -0.11086   1.21326  0.36632  1.37109 -0.55921  0.58896 -1.15233
2023/07/11 06:06:59.000   35.161118128  136.881568453    48.4481   2   4   9.9908   2.4333  16.2324  -4.6740   6.0152 -12.6535   0.03    2.5  168.84790  -29.57484 -229.17655   1.14261  0.35931  1.25503 -0.53243  0.55469 -1.05004
2023/07/11 06:07:00.000   35.161133503  136.881563996    46.4593   2   4   9.9941   2.4350  16.2347  -4.6766   6.0181 -12.6565   0.03    1.3    0.02593    0.00634    0.07031   1.21323  0.36637  1.37184 -0.55910  0.58941 -1.15261
2023/07/11 06:07:01.000   35.161126867  136.881564515    47.4013   2   4   9.9973   2.4367  16.2370  -4.6793   6.0210 -12.6595   0.03    1.4    0.08241   -0.06144   -0.08320   1.21322  0.36639  1.37209 -0.55907  0.58956 -1.15271
2023/07/11 06:07:02.000   35.161124152  136.881563683    47.3012   2   4  10.0006   2.4384  16.2393  -4.6820   6.0239 -12.6625   0.03    1.3    0.15234   -0.02332   -0.03232   1.21321  0.36640  1.37234 -0.55903  0.58970 -1.15280
2023/07/11 06:07:03.000   35.161122428  136.881562709    47.7888   1   4   0.1305   0.0308   0.2124  -0.0614   0.0788  -0.1659   0.03    3.5    0.06892    0.01564   -0.01960   1.14222  0.35933  1.25589 -0.53211  0.55516 -1.05010
2023/07/11 06:07:06.000   35.161121165  136.881561341    49.0982   1   4   0.1307   0.0309   0.2126  -0.0615   0.0789  -0.1661   0.03    9.9   -0.18945    0.02759    0.11491   1.14192  0.35935  1.25654 -0.53188  0.55551 -1.05014
2023/07/11 06:07:08.000   35.161129029  136.881558597    48.3404   2   4  10.0204   2.4486  16.2533  -4.6981   6.0413 -12.6806   0.03    1.9    0.02033    0.03522   -0.07143   1.14173  0.35936  1.25698 -0.53172  0.55574 -1.05017
2023/07/11 06:07:09.000   35.161139655  136.881555612    46.9433   2   4  10.0237   2.4503  16.2557  -4.7007   6.0442 -12.6836   0.03    1.6   -0.16555    0.01998    0.01950   1.14163  0.35936  1.25719 -0.53164  0.55586 -1.05018
2023/07/11 06:07:10.000   35.161349453  136.881488813    20.5987   2   4  18.1784   4.6004  23.6268  -9.0079  10.1636 -20.5157   0.03    2.0    0.09052   -0.02271   -0.05934   1.14153  0.35937  1.25741 -0.53157  0.55598 -1.05020
2023/07/11 06:07:11.000   35.161351504  136.881486953    20.6402   2   4  18.1793   4.6011  23.6259  -9.0089  10.1644 -20.5159   0.03    1.1   -0.04988   -0.00694    0.09822   1.14144  0.35938  1.25763 -0.53149  0.55610 -1.05021
2023/07/11 06:07:12.000   35.161351529  136.881487061    20.7776   2   4  18.1803   4.6018  23.6250  -9.0099  10.1653 -20.5161   0.03    1.0   -0.11882   -0.00851    0.14625   1.14134  0.35938  1.25785 -0.53141  0.55622 -1.05023
2023/07/11 06:07:15.000   35.161229773  136.881537696    36.7090   2   6   4.5061   1.5868   8.4263  -2.3698   3.2583  -6.1138   0.03    1.7   -1.76307    0.41006    0.36784   0.61271  0.31502  1.15147 -0.34494  0.48440 -0.80341
2023/07/11 06:07:16.000   35.161049040  136.881672995    80.3884   2   6   0.9611   1.0670   2.0444   0.6146  -0.8534  -1.1351   0.03   30.9   -1.15291    1.05204    1.24334   0.45975  0.39556  0.94808  0.34495 -0.55443 -0.59660
2023/07/11 06:07:17.000   35.161215655  136.881533322    54.8372   2   7   0.9111   0.9941   2.1210   0.6366  -0.9851  -1.1937   0.03    1.9   -2.13459    1.72880    0.81822   0.32284  0.37583  0.84549  0.28050 -0.50448 -0.46428
2023/07/11 06:07:20.000   35.161120791  136.881631612    35.9243   2  14   0.5444   0.6500   1.3531   0.4692  -0.6180  -0.5730   0.03    1.0   -6.15093    3.41154    0.02303   0.14761  0.17882  0.39157  0.11890 -0.17823 -0.15394
2023/07/11 06:07:21.000   35.161048988  136.881620202    43.1776   2  13   0.7672   1.2000   2.1790   0.7395  -1.3978  -0.7766   0.03    1.9   -6.94356    5.02098   -2.46886   0.18031  0.32110  0.55781  0.18612 -0.37073 -0.20862
2023/07/11 06:07:24.000   35.160881355  136.881841122    38.5870   2   9   0.8455   1.4663   2.5949   0.9783  -1.7487  -1.1861   0.03    1.4   -8.68464    5.30843   -1.51171   0.27537  0.48376  0.62319  0.33015 -0.39952 -0.27125
2023/07/11 06:07:25.000   35.160758279  136.881846175    36.6656   2  13   0.7038   1.3652   2.0500   0.8402  -1.3976  -0.7682   0.03    1.1   -9.79430    4.29726   -0.27795   0.22355  0.42435  0.55794  0.27407 -0.38023 -0.21901
2023/07/11 06:07:26.000   35.160665978  136.881896404    35.4807   2  13   0.7549   1.3749   2.1460   0.8662  -1.3603  -0.6459   0.03    1.0  -10.21301    4.72147    0.09106   0.22352  0.42432  0.55783  0.27405 -0.38016 -0.21901
2023/07/11 06:07:28.000   35.160461747  136.881984961    35.5096   2  14   0.6779   1.3593   2.0005   0.8257  -1.4185  -0.8222   0.03    1.4  -11.06713    5.03907    0.35730   0.15885  0.35344  0.42683  0.19697 -0.28611 -0.11660
2023/07/11 06:07:29.000   35.160358081  136.882043255    36.3574   2  14   0.7114   1.5546   2.0108   0.9190  -1.4715  -0.8485   0.03    1.6  -11.38895    5.34243    0.29331   0.15885  0.35346  0.42684  0.19699 -0.28613 -0.11667
2023/07/11 06:07:30.000   35.160260648  136.882110630    37.8993   2  10   0.7982   1.8365   2.4677   1.0406  -1.7913  -0.8840   0.03    1.3  -11.54079    5.01212    0.62296   0.22127  0.66270  0.64698  0.29192 -0.52282 -0.05262
2023/07/11 06:07:31.000   35.160205921  136.882051259    70.6934   2  11   0.6900   0.8084   1.4513   0.5583  -0.7635  -0.5571   0.03    1.1  -12.17212    5.97664   -0.92181   0.15744  0.25764  0.42475  0.12719 -0.25780 -0.09950
2023/07/11 06:07:32.000   35.160116000  136.882149851    72.5813   2   9   1.1642   1.1018   1.8113   0.9948  -0.7650  -0.7681   0.03    1.6  -10.40561    5.48170   -1.40089   0.28010  0.29274  0.53465  0.26028 -0.13769 -0.19441
2023/07/11 06:07:33.000   35.160051899  136.882247990   -12.3244   2   9   0.6135   0.6733   3.1761   0.4956   1.0462   0.5243   0.03    1.0  -10.74088    5.82765    5.15433   0.15180  0.17329  0.62444  0.12086  0.20521  0.03419
2023/07/11 06:07:34.000   35.159837243  136.882383790    32.0226   2   8   0.7340   0.6629   2.0132   0.2703  -0.1246  -0.9200   0.03    1.2   -9.64374    4.88920    0.60683   0.20255  0.13965  0.49420 -0.03593  0.11044 -0.16636
2023/07/11 06:07:36.000   35.159660726  136.882465971    39.5445   2  16   0.5380   0.5194   1.1787   0.3476  -0.2440  -0.5490   0.03    1.1  -10.86936    6.17454    1.27691   0.14867  0.12898  0.35861  0.05767  0.06227 -0.16025
2023/07/11 06:07:37.000   35.159569176  136.882514819    41.1531   2  18   0.4690   0.4894   1.0238   0.3441  -0.2613  -0.3892   0.03    1.1  -10.35055    5.86015   -0.04857   0.12677  0.12342  0.30647  0.07827 -0.05192 -0.10606
2023/07/11 06:07:38.000   35.159484182  136.882571240    40.0825   2  19   0.4471   0.4850   1.0136   0.3303  -0.2424  -0.3620   0.03    1.1   -9.87036    5.65397   -0.25242   0.11934  0.12341  0.30057  0.07882 -0.05305 -0.09319
2023/07/11 06:07:39.000   35.159401038  136.882626658    39.0805   2  19   0.4471   0.4850   1.0136   0.3303  -0.2423  -0.3620   0.03    1.0   -9.18147    5.23316   -0.50460   0.10772  0.12325  0.27084  0.07680 -0.04486 -0.04459
2023/07/11 06:07:40.000   35.159320742  136.882671406    39.7260   2  19   0.4470   0.4850   1.0137   0.3303  -0.2422  -0.3620   0.03    1.1   -8.59365    4.75126   -0.15941   0.10772  0.12326  0.27087  0.07680 -0.04482 -0.04461
2023/07/11 06:07:46.000   35.158992326  136.882889649    41.1996   1  17   0.0051   0.0106   0.0186   0.0057  -0.0123  -0.0070   0.03    6.1   -3.78466    1.16491   -0.06303   0.11464  0.25362  0.40684  0.11879 -0.26312 -0.11531
2023/07/11 06:07:48.000   35.158937867  136.882906917    41.1954   1  17   0.0049   0.0075   0.0138   0.0046  -0.0076  -0.0055   0.03    8.5   -2.06750    0.85638   -0.38317   0.11464  0.25357  0.40687  0.11878 -0.26306 -0.11533
2023/07/11 06:07:49.000   35.158921923  136.882905507    40.8433   2  18   0.4765   0.6179   1.1930   0.4150  -0.5463  -0.4846   0.03    1.7   -1.28906    0.24268    0.17706   0.11169  0.16476  0.31145  0.09553 -0.13686 -0.08083
2023/07/11 06:07:51.000   35.158915620  136.882925066    38.6758   2  17   0.4844   0.6226   1.2144   0.4229  -0.5301  -0.4636   0.03    1.1    0.06645   -0.00586    0.01844   0.11958  0.16664  0.31154  0.10098 -0.13621 -0.07915
2023/07/11 06:07:52.000   35.158916497  136.882923697    39.2014   2  17   0.4844   0.6226   1.2143   0.4229  -0.5300  -0.4636   0.03    1.1   -0.01071    0.01543   -0.06252   0.11959  0.16663  0.31155  0.10098 -0.13618 -0.07917
2023/07/11 06:07:54.000   35.158917711  136.882923823    39.6831   2  17   0.4844   0.6226   1.2143   0.4229  -0.5298  -0.4636   0.03    1.1   -0.00676    0.00946    0.06303   0.11959  0.16662  0.31157  0.10099 -0.13611 -0.07920
2023/07/11 06:07:56.000   35.158920047  136.882926217    39.5203   2  17   0.4844   0.6226   1.2143   0.4229  -0.5296  -0.4636   0.03    1.9   -0.00003    0.00244   -0.01331   0.11959  0.16662  0.31159  0.10100 -0.13605 -0.07923
2023/07/11 06:07:57.000   35.158919288  136.882927364    39.9305   2  17   0.4844   0.6226   1.2143   0.4228  -0.5295  -0.4636   0.03    1.8    0.04588    0.05947   -0.02558   0.11960  0.16661  0.31159  0.10101 -0.13602 -0.07924
2023/07/11 06:07:59.000   35.158921254  136.882931149    39.4919   2  17   0.4844   0.6226   1.2143   0.4228  -0.5293  -0.4636   0.03    1.7    0.00048   -0.03239   -0.05358   0.11960  0.16661  0.31161  0.10102 -0.13595 -0.07928
2023/07/11 06:08:00.000   35.158920530  136.882930442    39.5039   2  17   0.4843   0.6226   1.2143   0.4228  -0.5292  -0.4636   0.03    1.8   -0.00222    0.00892   -0.03134   0.11960  0.16660  0.31162  0.10102 -0.13592 -0.07929
2023/07/11 06:08:02.000   35.158920590  136.882931571    39.3819   2  17   0.4843   0.6226   1.2143   0.4228  -0.5290  -0.4636   0.03    1.7   -0.00803    0.00392    0.00092   0.11961  0.16659  0.31164  0.10103 -0.13586 -0.07932
2023/07/11 06:08:03.000   35.158921596  136.882932769    39.2381   2  17   0.4843   0.6226   1.2142   0.4228  -0.5289  -0.4636   0.03    1.8   -0.02083    0.00752   -0.02079   0.11961  0.16659  0.31165  0.10104 -0.13583 -0.07934
2023/07/11 06:08:04.000   35.158921840  136.882933374    39.4204   2  17   0.4843   0.6226   1.2142   0.4227  -0.5289  -0.4636   0.03    1.7    0.00608    0.02114   -0.00336   0.11961  0.16659  0.31166  0.10104 -0.13579 -0.07935
2023/07/11 06:08:05.000   35.158922457  136.882934015    39.4940   2  17   0.4843   0.6226   1.2142   0.4227  -0.5288  -0.4636   0.03    2.0    0.03441    0.01101   -0.06805   0.11961  0.16658  0.31167  0.10105 -0.13576 -0.07937
2023/07/11 06:08:06.000   35.158922492  136.882934539    39.4657   2  17   0.4843   0.6226   1.2142   0.4227  -0.5287  -0.4636   0.03    1.7    0.01362    0.03009   -0.03747   0.11961  0.16658  0.31168  0.10105 -0.13573 -0.07939
2023/07/11 06:08:07.000   35.158922564  136.882934914    39.2068   2  18   0.4763   0.6179   1.1928   0.4147  -0.5447  -0.4845   0.03    1.7    0.00952    0.00658   -0.05942   0.11172  0.16467  0.31162  0.09559 -0.13628 -0.08109
2023/07/11 06:08:09.000   35.158923337  136.882935944    39.6182   2  17   0.4842   0.6226   1.2142   0.4227  -0.5284  -0.4636   0.03    1.6    0.00516   -0.03560   -0.00425   0.11962  0.16657  0.31171  0.10107 -0.13563 -0.07943
2023/07/11 06:08:10.000   35.158923545  136.882936551    39.7041   2  17   0.4842   0.6226   1.2142   0.4227  -0.5283  -0.4636   0.03    1.6    0.01576    0.01369    0.02072   0.11537  0.16640  0.28923  0.09989 -0.13236 -0.05135
2023/07/11 06:08:12.000   35.158923657  136.882936653    39.6787   2  17   0.4842   0.6226   1.2142   0.4226  -0.5281  -0.4636   0.03    1.5    0.00303    0.02125   -0.00094   0.11537  0.16639  0.28925  0.09991 -0.13230 -0.05139
2023/07/11 06:08:14.000   35.158924148  136.882938100    39.2168   2  18   0.4762   0.6179   1.1928   0.4146  -0.5441  -0.4845   0.03    1.4    0.02160    0.00094   -0.01381   0.10750  0.16449  0.28911  0.09453 -0.13314 -0.05516
2023/07/11 06:08:18.000   35.158926872  136.882939829    39.4261   2  17   0.4841   0.6227   1.2141   0.4226  -0.5275  -0.4635   0.03    1.5   -0.00957   -0.01753    0.04183   0.11538  0.16637  0.28931  0.09995 -0.13213 -0.05153
2023/07/11 06:08:20.000   35.158927135  136.882940976    39.1092   2  17   0.4841   0.6227   1.2141   0.4225  -0.5273  -0.4635   0.03    1.4    0.00256   -0.00716    0.00519   0.11539  0.16636  0.28933  0.09996 -0.13208 -0.05158
2023/07/11 06:08:21.000   35.158927195  136.882941870    39.1861   2  17   0.4841   0.6227   1.2141   0.4225  -0.5272  -0.4635   0.03    1.4   -0.03016   -0.03960    0.01546   0.11539  0.16636  0.28934  0.09997 -0.13205 -0.05160
2023/07/11 06:08:22.000   35.158927147  136.882941634    39.1278   2  17   0.4841   0.6227   1.2141   0.4225  -0.5271  -0.4635   0.03    1.5    0.02378    0.04447   -0.02293   0.11539  0.16636  0.28935  0.09997 -0.13202 -0.05162
2023/07/11 06:08:28.000   35.158925641  136.882939610    40.2517   2  18   0.4581   0.6191   1.0112   0.4098  -0.4817  -0.3316   0.03    1.9    0.01093    0.01914   -0.03148   0.11540  0.16634  0.28940  0.10001 -0.13185 -0.05176
2023/07/11 06:08:30.000   35.158926237  136.882939892    40.2176   2  18   0.4581   0.6191   1.0111   0.4098  -0.4816  -0.3316   0.03    2.0   -0.01360    0.01777   -0.01288   0.11540  0.16633  0.28942  0.10002 -0.13180 -0.05180
2023/07/11 06:08:31.000   35.158926272  136.882939979    40.2813   2  18   0.4581   0.6191   1.0111   0.4098  -0.4815  -0.3316   0.03    1.9   -0.02246    0.03035   -0.00577   0.11540  0.16633  0.28943  0.10003 -0.13177 -0.05183
2023/07/11 06:08:33.000   35.158924915  136.882939569    39.9266   2  19   0.4469   0.6136   0.9966   0.3995  -0.4959  -0.3566   0.03    1.6    0.00986   -0.02215    0.03310   0.10753  0.16441  0.28930  0.09463 -0.13260 -0.05553
2023/07/11 06:08:34.000   35.158924100  136.882939125    39.8336   2  19   0.4469   0.6136   0.9965   0.3995  -0.4958  -0.3566   0.03    1.8   -0.03068   -0.00858    0.04292   0.10753  0.16440  0.28931  0.09463 -0.13258 -0.05555
2023/07/11 06:08:35.000   35.158926174  136.882939653    40.3029   2  18   0.4581   0.6192   1.0111   0.4098  -0.4813  -0.3316   0.03    1.8    0.04314    0.00693    0.01592   0.11541  0.16631  0.28947  0.10006 -0.13166 -0.05192
2023/07/11 06:08:36.000   35.158926211  136.882941210    40.4370   2  18   0.4581   0.6192   1.0110   0.4098  -0.4812  -0.3316   0.03    2.0   -0.01298   -0.01173   -0.01326   0.11541  0.16631  0.28948  0.10006 -0.13163 -0.05194
2023/07/11 06:08:38.000   35.158924618  136.882939687    40.7157   2  18   0.4580   0.6192   1.0110   0.4098  -0.4811  -0.3317   0.03    1.8    0.00291   -0.01657    0.00746   0.12558  0.17017  0.31467  0.10863 -0.14751 -0.09383
2023/07/11 06:08:40.000   35.158924555  136.882938675    40.7272   2  18   0.4580   0.6192   1.0110   0.4098  -0.4810  -0.3317   0.03    1.9    0.01949    0.02022   -0.00066   0.12557  0.17015  0.31465  0.10863 -0.14743 -0.09382
2023/07/11 06:08:41.000   35.158923717  136.882937868    40.8021   2  18   0.4580   0.6192   1.0110   0.4098  -0.4810  -0.3317   0.03    1.9    0.01734   -0.02177    0.04954   0.12557  0.17014  0.31464  0.10862 -0.14739 -0.09382
2023/07/11 06:08:42.000   35.158923798  136.882937081    40.5465   2  18   0.4580   0.6192   1.0110   0.4098  -0.4809  -0.3317   0.03    1.9    0.00250   -0.01157    0.06517   0.12557  0.17013  0.31464  0.10862 -0.14735 -0.09382
2023/07/11 06:08:46.000   35.158923456  136.882935554    40.4125   2  18   0.4580   0.6193   1.0109   0.4098  -0.4807  -0.3317   0.03    1.9   -0.00011   -0.00820   -0.00192   0.11543  0.16628  0.28957  0.10013 -0.13134 -0.05217
2023/07/11 06:08:47.000   35.158923060  136.882934182    40.5452   2  18   0.4580   0.6193   1.0109   0.4098  -0.4806  -0.3317   0.03    1.9   -0.01091   -0.03610   -0.00486   0.12556  0.17009  0.31460  0.10862 -0.14714 -0.09381
2023/07/11 06:08:52.000   35.158919236  136.882931343    40.3185   2  18   0.4579   0.6194   1.0108   0.4098  -0.4803  -0.3317   0.03    2.1   -0.41196    0.22400   -0.01235   0.11544  0.16626  0.28963  0.10016 -0.13117 -0.05231
2023/07/11 06:08:53.000   35.158901609  136.882916208    41.2109   1  17   0.0056   0.0071   0.0103   0.0053  -0.0047  -0.0032   0.03    4.5   -1.62931    0.29017   -0.18899   0.13225  0.17461  0.29132  0.11610 -0.12462 -0.02683
2023/07/11 06:08:57.000   35.158810087  136.882959680    40.1578   2  19   0.4467   0.6138   0.9962   0.3995  -0.4946  -0.3567   0.03    1.0   -2.98790    1.66273   -0.40341   0.11698  0.16769  0.31453  0.10256 -0.14672 -0.09373
2023/07/11 06:08:58.000   35.158781705  136.882962649    43.1831   2  19   0.4353   0.5430   0.9185   0.3617  -0.3663  -0.2974   0.03    1.1   -2.94974    1.02260    0.44868   0.10757  0.16429  0.28954  0.09475 -0.13189 -0.05602
2023/07/11 06:08:59.000   35.158760666  136.882991427    41.7428   2  20   0.4260   0.4846   0.8665   0.3300  -0.2440  -0.2475   0.03    1.1   -2.32354    1.42587   -0.17687   0.10430  0.12304  0.25546  0.07819 -0.05049  0.02115
2023/07/11 06:09:06.000   35.158664333  136.883247757    42.3056   2  19   0.4536   0.4866   0.8953   0.3399  -0.2505  -0.2559   0.03    2.6    0.46224    5.40349    0.65613   0.11598  0.12502  0.27358  0.08420 -0.04841 -0.04030
2023/07/11 06:09:08.000   35.158669665  136.883361460    43.4075   2  13   0.6827   0.5008   1.3573   0.4046  -0.3511  -0.7342   0.03    1.1    0.93381    5.53552    0.21198   0.17734  0.12650  0.34538  0.07777  0.03100 -0.15169
2023/07/11 06:09:10.000   35.158684178  136.883493708    44.2896   2  12   0.8091   0.6205   1.5847   0.1047   0.4142  -0.9446   0.03    1.9    1.27338    6.37100    0.11265   0.21761  0.13051  0.37989  0.04475  0.07776 -0.20725
2023/07/11 06:09:11.000   35.158701551  136.883568614    43.7337   2  12   0.8091   0.6205   1.5846   0.1042   0.4145  -0.9446   0.03    1.1    1.13412    6.98489    0.25908   0.21763  0.13051  0.37992  0.04474  0.07782 -0.20727
2023/07/11 06:09:13.000   35.158715648  136.883734088    45.0817   2  13   0.6504   0.6104   1.3419   0.2360   0.2872  -0.7078   0.03    1.8    1.29758    8.29263    0.19853   0.18892  0.13042  0.37661  0.05047  0.07627 -0.19371
2023/07/11 06:09:15.000   35.158753359  136.883920907    43.8078   2  18   0.4435   0.4846   0.9543   0.3287  -0.2374  -0.3299   0.03    1.1    1.46692    8.87603    0.01276   0.11002  0.12488  0.28314  0.07371 -0.01496 -0.06181
2023/07/11 06:09:17.000   35.158782898  136.884123751    43.7432   2  20   0.4257   0.4845   0.8669   0.3295  -0.2425  -0.2473   0.03    1.3    1.53407    9.92669   -0.20628   0.10427  0.12305  0.25593  0.07817 -0.04991  0.02051
2023/07/11 06:09:18.000   35.158793837  136.884235930    44.0915   2  20   0.4256   0.4845   0.8669   0.3295  -0.2424  -0.2473   0.03    1.3    1.63561   10.17366   -0.00211   0.10427  0.12305  0.25595  0.07817 -0.04988  0.02047
2023/07/11 06:09:19.000   35.158807916  136.884346036    43.5537   2  20   0.4256   0.4845   0.8669   0.3295  -0.2423  -0.2473   0.03    1.3    1.59223   10.34504   -0.24579   0.10427  0.12305  0.25598  0.07817 -0.04985  0.02043
2023/07/11 06:09:20.000   35.158814402  136.884456061    42.6663   1  20   0.0049   0.0050   0.0092   0.0036  -0.0025  -0.0029   0.03    3.2    1.51088   10.36354   -0.21211   0.10427  0.12305  0.25601  0.07817 -0.04982  0.02040
2023/07/11 06:09:21.000   35.158836680  136.884574732    43.1493   2  19   0.4335   0.4846   0.9308   0.3284  -0.2362  -0.2986   0.03    2.0    1.51437   10.51069   -0.32936   0.11890  0.12347  0.30220  0.07818 -0.04714 -0.09295
2023/07/11 06:09:22.000   35.158848745  136.884688866    43.2787   2  19   0.4335   0.4846   0.9309   0.3284  -0.2361  -0.2986   0.03    1.2    1.51064   10.37308   -0.27749   0.11889  0.12347  0.30221  0.07818 -0.04708 -0.09295
2023/07/11 06:09:23.000   35.158856787  136.884799678    41.7785   1  20   0.0047   0.0050   0.0092   0.0035  -0.0023  -0.0023   0.03    3.1    1.62903   10.39419   -0.42864   0.11118  0.12328  0.27078  0.07999 -0.05593 -0.05464
2023/07/11 06:09:24.000   35.158874464  136.884915668    43.5656   2  20   0.4370   0.4858   0.8873   0.3346  -0.2552  -0.2825   0.03    1.7    1.28062   10.03824   -0.47046   0.11118  0.12328  0.27080  0.07998 -0.05589 -0.05465
2023/07/11 06:09:25.000   35.158891354  136.885023178    42.6176   2  19   0.4335   0.4846   0.9309   0.3283  -0.2357  -0.2986   0.03    1.0    1.65065   10.05376   -0.42329   0.11888  0.12347  0.30226  0.07816 -0.04690 -0.09294
2023/07/11 06:09:31.000   35.158972035  136.885619357    41.1099   2  19   0.4471   0.4857   0.9595   0.3338  -0.2513  -0.3385   0.03    1.0    1.05476    6.51828    0.17051   0.11885  0.12348  0.30234  0.07812 -0.04653 -0.09293
2023/07/11 06:09:33.000   35.158988619  136.885730280    40.3521   2  18   0.4793   0.4858   1.1058   0.3334  -0.2484  -0.4554   0.03    1.2    0.63711    3.96299   -0.13059   0.12611  0.12493  0.32661  0.07280  0.01377 -0.11766
2023/07/11 06:09:36.000   35.159000882  136.885822282    40.4010   2  18   0.4579   0.4846   1.0545   0.3262  -0.2246  -0.4003   0.03    1.0    0.42066    2.46213   -0.17612   0.11002  0.12492  0.28386  0.07364 -0.01108 -0.06232
2023/07/11 06:09:37.000   35.159003683  136.885857863    41.1882   2  20   0.4253   0.4844   0.8673   0.3290  -0.2408  -0.2471   0.03    1.2    0.50636    3.35466   -0.10695   0.10424  0.12307  0.25645  0.07816 -0.04926  0.01974
2023/07/11 06:09:38.000   35.159011543  136.885897956    40.1088   2  20   0.4253   0.4844   0.8673   0.3290  -0.2407  -0.2471   0.03    1.0    0.80714    4.17725    0.13384   0.10424  0.12307  0.25647  0.07816 -0.04923  0.01970
2023/07/11 06:09:40.000   35.159027791  136.886013731    41.3410   2  20   0.4253   0.4844   0.8673   0.3290  -0.2405  -0.2471   0.03    1.0    0.98051    5.84781    0.17635   0.10424  0.12307  0.25652  0.07816 -0.04916  0.01962
2023/07/11 06:09:41.000   35.159033851  136.886080621    41.1989   2  20   0.4252   0.4844   0.8674   0.3290  -0.2404  -0.2471   0.03    1.0    0.96956    6.39186    0.14592   0.11112  0.12329  0.27113  0.07992 -0.05523 -0.05472
2023/07/11 06:09:42.000   35.159045793  136.886151733    40.3844   2  20   0.4252   0.4844   0.8674   0.3289  -0.2403  -0.2470   0.03    2.1    1.14861    6.57530   -0.08536   0.11112  0.12329  0.27114  0.07992 -0.05519 -0.05472
2023/07/11 06:09:43.000   35.159051937  136.886225178    40.6823   2  16   0.4810   0.4911   0.8868   0.3526  -0.2324  -0.2385   0.03    1.2    0.98588    6.38891   -0.07262   0.12238  0.12605  0.27496  0.08168 -0.00894  0.06143
2023/07/11 06:09:44.000   35.159065227  136.886301455    41.0412   2  19   0.4335   0.6409   0.9695   0.3896  -0.4750  -0.3213   0.03    1.0    1.03144    6.02456    0.34568   0.10777  0.16693  0.28997  0.09407 -0.13107 -0.05672
2023/07/11 06:09:49.000   35.159095345  136.886534783    45.3746   1   9   0.0477   0.0659   0.0223   0.0553   0.0297   0.0258   0.03    4.1    0.41170    1.56331   -1.11339   0.16272  0.15648  0.48605  0.07440  0.16185 -0.16200
2023/07/11 06:09:50.000   35.159124510  136.886579867    42.8887   2   6   1.4001   0.9117   2.5592  -0.6836   1.1499  -1.4261   0.03    3.6    0.97141    1.28202    0.12488   0.22561  0.15061  0.48870  0.06407  0.08894 -0.23469
2023/07/11 06:09:52.000   35.159138153  136.886655790    19.5770   1   7   0.0339   0.0151   0.0188   0.0198  -0.0066  -0.0111   0.03    4.6    0.10903    0.00257   -0.02978   0.21869  0.14448  0.41806  0.07247 -0.06347 -0.19421
2023/07/11 06:09:54.000   35.159078092  136.886704197    33.8589   2   7   0.8006   0.6291   1.3774   0.2695  -0.0875  -0.5815   0.03    1.5    0.06603   -0.03130   -0.10321   0.21866  0.14448  0.41810  0.07243 -0.06335 -0.19406
2023/07/11 06:09:56.000   35.159103642  136.886724618    36.2076   2   7   0.8006   0.6290   1.3775   0.2692  -0.0864  -0.5810   0.03    1.1   -0.04239    0.02855    0.11118   0.21863  0.14448  0.41813  0.07239 -0.06323 -0.19391
2023/07/11 06:09:57.000   35.159114872  136.886717388    37.4382   2   7   0.7813   0.6244   1.3448   0.2926   0.1234  -0.6240   0.03    1.0    0.02744    0.03030    0.10404   0.21862  0.14448  0.41815  0.07236 -0.06317 -0.19383
2023/07/11 06:09:58.000   35.159066695  136.886751927    45.2144   2   6   1.9019   0.9960   2.4883  -1.1094   1.2619  -2.0044   0.03    1.0    0.05158    0.06260    0.09447   0.26254  0.14980  0.45596 -0.02276  0.05662 -0.25292
2023/07/11 06:10:00.000   35.159137691  136.886727958    37.7286   2   5   2.0644   1.0116   2.5962  -1.1714   1.3126  -2.1476   0.03    2.0   -0.04445   -0.07783   -0.15721   0.31465  0.15020  0.45854 -0.04913  0.06122 -0.26901
2023/07/11 06:10:01.000   35.159118363  136.886734321    39.6465   2   7   0.7921   0.6961   1.4139   0.1580   0.3813  -0.6964   0.03    1.7   -0.13086    0.01675    0.17379   0.26192  0.14983  0.43860 -0.02447  0.04857 -0.22137
2023/07/11 06:10:04.000   35.159122737  136.886711259    38.5427   2   5   1.0234   0.8079   1.5900  -0.3653   0.6663  -0.8770   0.03    1.2    0.06932    0.03823    0.03332   0.31485  0.15019  0.45850 -0.04927  0.06137 -0.26875
2023/07/11 06:10:05.000   35.159117226  136.886712281    39.0364   2   5   1.0236   0.8079   1.5900  -0.3656   0.6664  -0.8769   0.03    1.1   -0.06795   -0.04793   -0.08670   0.31490  0.15019  0.45849 -0.04930  0.06141 -0.26869
2023/07/11 06:10:06.000   35.159128853  136.886706033    36.7155   2   5   1.0557   0.8115   1.6200  -0.3917   0.6840  -0.9213   0.03    1.3   -0.06920    0.03449    0.20789   0.31495  0.15019  0.45848 -0.04933  0.06145 -0.26863
2023/07/11 06:10:07.000   35.159131451  136.886700217    35.4867   2   6   0.8355   0.6701   1.4167   0.3767   0.3294  -0.5845   0.03    1.1    0.03664    0.00608    0.02678   0.23824  0.14466  0.41968  0.07672 -0.06061 -0.18465
2023/07/11 06:10:10.000   35.159092668  136.886703806    39.2861   2   9   0.7131   0.6497   1.3868   0.3926   0.2649  -0.5210   0.03    1.4    0.00887   -0.13355   -0.35376   0.17222  0.14444  0.40805  0.07327 -0.06274 -0.15832
2023/07/11 06:10:11.000   35.159089734  136.886692790    37.1222   2   9   0.7132   0.6549   1.4019   0.3937   0.2952  -0.5186   0.03    1.1    0.07577    0.01524   -0.04424   0.17222  0.14444  0.40810  0.07325 -0.06269 -0.15829
2023/07/11 06:10:12.000   35.159088897  136.886690346    36.7923   2   9   0.7132   0.6548   1.4020   0.3937   0.2954  -0.5185   0.03    1.1   -0.06638    0.00423    0.09631   0.17221  0.14444  0.40815  0.07324 -0.06263 -0.15827
2023/07/11 06:10:15.000   35.159088279  136.886684775    36.5104   2   9   0.7133   0.6548   1.4022   0.3935   0.2962  -0.5182   0.03    1.3    0.01285    0.02049    0.07336   0.17220  0.14444  0.40832  0.07319 -0.06245 -0.15819
2023/07/11 06:10:16.000   35.159087316  136.886683191    36.7938   2   9   0.7133   0.6548   1.4023   0.3934   0.2964  -0.5181   0.03    1.1    0.01954    0.04669    0.15832   0.17219  0.14444  0.40837  0.07317 -0.06240 -0.15816
2023/07/11 06:10:17.000   35.159080149  136.886692235    38.2395   2   8   0.7940   0.7448   1.5161   0.1759   0.5407  -0.6849   0.03    1.3    0.00441   -0.06004   -0.14524   0.18933  0.14854  0.42908  0.05123  0.02591 -0.18805
2023/07/11 06:10:18.000   35.159093870  136.886731364    44.5215   2   7   0.8036   0.8403   1.6739   0.2808   0.7540  -0.6178   0.03    1.1   -0.03588    0.03712    0.26228   0.18953  0.19559  0.55288  0.03868  0.21222 -0.19606
2023/07/11 06:10:22.000   35.159100092  136.886723562    42.8273   2   5   0.8177   0.8413   1.6936   0.2684   0.7617  -0.6479   0.03    1.3   -0.02040   -0.12022   -0.28107   0.27512  0.20948  0.60483 -0.11269  0.25169 -0.28791
2023/07/11 06:10:23.000   35.159102118  136.886721812    42.4701   2   5   0.8178   0.8413   1.6938   0.2682   0.7618  -0.6481   0.03    1.2    0.06266    0.01170   -0.00492   0.27516  0.20949  0.60492 -0.11275  0.25175 -0.28794
2023/07/11 06:10:30.000   35.159121250  136.886698353    39.6545   2   5   2.5115   1.5855   3.9318  -1.7668   2.3100  -2.9675   0.03    1.0    0.00480    0.02224   -0.00127   0.19594  0.22214  0.58249 -0.06167  0.25340 -0.21773
2023/07/11 06:10:31.000   35.159119140  136.886701901    42.5573   2   6   0.7953   0.7257   1.5050   0.4247   0.5242  -0.5335   0.03    1.0    0.08330   -0.13407   -0.48898   0.17476  0.18481  0.48482  0.08434  0.15624 -0.13707
2023/07/11 06:10:32.000   35.159118810  136.886701715    42.7781   2   6   0.7953   0.7257   1.5050   0.4246   0.5243  -0.5333   0.03    1.7   -0.00867    0.07216    0.12292   0.19304  0.18730  0.49128  0.06798  0.16378 -0.15890
2023/07/11 06:10:35.000   35.159144145  136.886657761    40.9639   2   4   0.9647   0.8640   1.8272  -0.2778   0.9106  -0.9320   0.03    1.1   -0.13011    0.15885    0.29908   0.63147  0.39794  0.97852 -0.45216  0.57584 -0.70858
2023/07/11 06:10:39.000   35.159145577  136.886654075    41.1691   2   4   0.9656   0.8643   1.8278  -0.2797   0.9115  -0.9329   0.03    1.3   -0.05853    0.03560    0.25399   0.21944  0.21112  0.60927 -0.06853  0.27076 -0.22034
2023/07/11 06:10:41.000   35.159129798  136.886660828    41.4918   2   4   1.0444   0.8698   1.8287  -0.3421   0.9142  -0.9424   0.03    1.2    0.01411   -0.06798   -0.19767   0.21948  0.21119  0.60952 -0.06868  0.27095 -0.22046
2023/07/11 06:10:44.000   35.159124178  136.886661538    41.6129   2   4   1.0451   0.8700   1.8291  -0.3433   0.9148  -0.9430   0.03    1.1    0.24051   -0.13958   -0.26317   0.63236  0.39886  0.98024 -0.45317  0.57721 -0.70976
2023/07/11 06:10:46.000   35.159116427  136.886664470    42.7077   2   5   0.8392   0.6908   1.5307   0.4599   0.5547  -0.5150   0.03    2.3   -0.01469   -0.06571   -0.12216   0.18377  0.13292  0.43765  0.07867  0.06170 -0.14136
2023/07/11 06:10:47.000   35.159107803  136.886667516    45.0261   2   7   0.7224   0.6882   1.4940   0.4669   0.5363  -0.4816   0.03    1.5   -0.05391    0.05920    0.28956   0.20905  0.13053  0.43550  0.08649  0.07127 -0.14087
2023/07/11 06:10:51.000   35.159117758  136.886721118    57.0863   2  18   0.4433   0.5038   1.0451   0.3213  -0.2752  -0.3572   0.03    1.1    0.18667    0.74405   -0.10263   0.11849  0.13734  0.31866  0.07790 -0.08680 -0.09325
2023/07/11 06:10:54.000   35.159126831  136.886820831    49.7449   2  13   0.6936   0.9497   1.3333   0.6246   0.6011  -0.4263   0.03    1.6    1.84044    2.33649    0.26459   0.17446  0.22803  0.52131  0.11645  0.27119 -0.11028
2023/07/11 06:10:55.000   35.159170781  136.886842984    47.6206   2  18   0.4474   0.5032   1.0422   0.3363  -0.1297  -0.3422   0.03    1.1    2.02539    1.54070   -0.28754   0.12272  0.14337  0.32846  0.09134  0.08640 -0.06774
2023/07/11 06:10:57.000   35.159199779  136.886833008    42.8777   2  19   0.4308   0.5021   0.8805   0.3423  -0.1889  -0.2231   0.03    1.6    1.05923    0.37789   -0.22761   0.11819  0.14120  0.28712  0.09570  0.05921  0.02579
2023/07/11 06:10:59.000   35.159211301  136.886816860    44.1294   2  20   0.4238   0.4841   0.8689   0.3270  -0.2336  -0.2463   0.03    1.2    0.06353    0.00111   -0.02390   0.10411  0.12313  0.25851  0.07807 -0.04639  0.01586
2023/07/11 06:11:01.000   35.159209218  136.886828130    40.3965   1  20   0.0043   0.0049   0.0089   0.0033  -0.0023  -0.0024   0.03    3.3    0.85998    0.23264    0.12089   0.10411  0.12313  0.25856  0.07807 -0.04632  0.01574
2023/07/11 06:11:03.000   35.159215386  136.886829969    40.4012   1  20   0.0043   0.0049   0.0089   0.0033  -0.0023  -0.0024   0.03    4.2   -0.00457   -0.02559   -0.01138   0.10410  0.12313  0.25861  0.07807 -0.04624  0.01563
2023/07/11 06:11:07.000   35.159242412  136.886829541    40.3816   1  20   0.0043   0.0049   0.0089   0.0033  -0.0023  -0.0024   0.03    3.5    2.68284   -0.35793   -0.04550   0.11083  0.12330  0.27270  0.07959 -0.05167 -0.05517
2023/07/11 06:11:11.000   35.159431449  136.886785286    40.9580   2  19   0.4457   0.6152   0.9946   0.3991  -0.4873  -0.3570   0.03    1.1    7.07346   -1.36080   -0.16780   0.10773  0.16370  0.29061  0.09533 -0.12795 -0.05866
2023/07/11 06:11:13.000   35.159569555  136.886750053    41.6192   2  18   0.4570   0.9511   1.4281   0.4817  -0.9902  -0.4795   0.03    1.7    8.72501   -1.34812   -0.54157   0.10956  0.24553  0.37602  0.11285 -0.24499 -0.09056
2023/07/11 06:11:14.000   35.159646986  136.886732447    40.4261   1  18   0.0050   0.0109   0.0149   0.0058  -0.0107  -0.0053   0.03    3.9    8.91606   -2.03167    0.17372   0.10956  0.24551  0.37603  0.11286 -0.24496 -0.09057
2023/07/11 06:11:17.000   35.159908495  136.886658430    40.4353   2  19   0.4456   0.6153   0.9945   0.3991  -0.4870  -0.3570   0.03    1.6    9.94539   -1.92719    0.04262   0.10773  0.16367  0.29065  0.09535 -0.12776 -0.05879
2023/07/11 06:11:18.000   35.159996502  136.886641444    40.6272   2  19   0.4410   0.6115   0.9863   0.3916  -0.4743  -0.3454   0.03    1.1    9.95449   -2.12246   -0.16268   0.10899  0.16445  0.29530  0.09396 -0.12441 -0.06572
2023/07/11 06:11:19.000   35.160093469  136.886616774    40.8971   2  21   0.4135   0.4831   0.8525   0.3221  -0.2203  -0.2122   0.03    1.0   10.49940   -1.90884    0.07520   0.10407  0.12314  0.25900  0.07805 -0.04565  0.01463
2023/07/11 06:11:22.000   35.160381846  136.886544562    40.5574   1  18   0.0058   0.0091   0.0125   0.0060  -0.0065  -0.0043   0.03    4.2   10.86633   -2.33513   -0.01562   0.12737  0.16719  0.35702  0.10625 -0.15043 -0.13206
2023/07/11 06:11:30.000   35.161172400  136.886470147    18.8532   2   9   1.0873   1.7219   1.9764   0.8948  -1.1961   0.3735   0.03    1.8    7.67582    0.33054   -4.83727   0.89085  0.81315  1.58693 -0.74715 -1.07452  1.14387
2023/07/11 06:11:33.000   35.161490683  136.886263898    43.3287   2  18   0.4455   0.6156   0.9950   0.3989  -0.4854  -0.3572   0.03    1.2   11.67101   -2.41344    0.89833   0.10932  0.16371  0.29741  0.09599 -0.12871 -0.06818
2023/07/11 06:11:35.000   35.161703714  136.886218780    42.9343   2  19   0.4937   0.5516   0.8701   0.4166  -0.2146  -0.2319   0.03    1.2   11.51707   -2.39784    0.32768   0.11457  0.12895  0.26118  0.08900 -0.02930  0.04063
2023/07/11 06:11:36.000   35.161795467  136.886175197    41.7798   2  20   0.4232   0.4840   0.8697   0.3260  -0.2302  -0.2460   0.03    1.1   11.43137   -2.36304    0.10392   0.10404  0.12315  0.25941  0.07802 -0.04500  0.01342
2023/07/11 06:11:41.000   35.162317307  136.886039041    41.3584   2  20   0.4231   0.4840   0.8698   0.3258  -0.2298  -0.2460   0.03    1.4   11.76191   -2.53971    0.42034   0.10403  0.12316  0.25952  0.07802 -0.04480  0.01304
2023/07/11 06:11:42.000   35.162422120  136.886012529    41.0952   2  20   0.4231   0.4840   0.8698   0.3258  -0.2297  -0.2460   0.03    1.3   11.74095   -2.29832   -0.38492   0.10403  0.12316  0.25955  0.07801 -0.04476  0.01296
2023/07/11 06:11:44.000   35.162639310  136.885972348    41.0001   2  19   0.4454   0.6155   0.9942   0.3989  -0.4854  -0.3571   0.03    2.7   12.22404   -2.09997    0.10266   0.10776  0.16355  0.29083  0.09546 -0.12691 -0.05937
2023/07/11 06:11:46.000   35.162859173  136.885915945    40.3949   2  19   0.4234   0.5028   0.8936   0.3221  -0.2837  -0.2388   0.03    1.1   12.43610   -2.76418    0.03748   0.11071  0.13713  0.28806  0.07862 -0.08913 -0.05371
2023/07/11 06:11:47.000   35.162972447  136.885891598    41.8467   2  20   0.4230   0.4839   0.8699   0.3257  -0.2292  -0.2460   0.03    1.1   12.89820   -2.27140    0.65354   0.10402  0.12316  0.25967  0.07801 -0.04457  0.01256
2023/07/11 06:11:49.000   35.163204214  136.885816277    42.1317   2  20   0.4230   0.4839   0.8700   0.3256  -0.2291  -0.2460   0.03    1.3   13.30244   -2.85119    0.10346   0.11068  0.12330  0.27342  0.07941 -0.04979 -0.05550
2023/07/11 06:11:50.000   35.163323408  136.885792152    41.9563   2  19   0.4442   0.4851   0.9617   0.3290  -0.2338  -0.3358   0.03    2.0   13.32145   -2.67701    0.26251   0.11821  0.12359  0.30415  0.07716 -0.03668 -0.09279
2023/07/11 06:11:52.000   35.163558285  136.885727108    41.5921   2  20   0.4229   0.4839   0.8701   0.3256  -0.2288  -0.2459   0.03    1.6   13.18346   -2.90001    0.05272   0.11067  0.12330  0.27347  0.07940 -0.04966 -0.05552
2023/07/11 06:11:54.000   35.163805596  136.885670031    41.9927   2  20   0.4229   0.4839   0.8701   0.3255  -0.2286  -0.2459   0.03    2.6   13.38492   -2.59455    0.04521   0.11066  0.12330  0.27350  0.07939 -0.04956 -0.05554
2023/07/11 06:11:55.000   35.163928825  136.885646986    41.5522   2  18   0.4239   0.5892   0.8808   0.3244  -0.2126  -0.2537   0.03    1.1   13.65928   -2.17148    0.20941   0.10441  0.12773  0.26165  0.07732 -0.05110 -0.00196
2023/07/11 06:11:59.000   35.164404085  136.885562133    41.4472   1  18   0.0070   0.0109   0.0119   0.0077  -0.0058  -0.0032   0.03    3.1   11.96193   -0.81957    0.11827   0.12172  0.25919  0.42353  0.13159 -0.27591 -0.13641
2023/07/11 06:12:00.000   35.164502117  136.885560311    43.3422   2  16   0.5311   1.0130   1.6790   0.5726  -1.1300  -0.6709   0.03    1.2   10.37385   -0.72480    0.88955   0.15052  0.27684  0.52748  0.16058 -0.32664 -0.21378
2023/07/11 06:12:02.000   35.164646596  136.885504215    46.0864   2  12   0.6809   0.8261   1.7592   0.6089  -0.9202  -0.8987   0.03    1.0    6.74355   -0.69714    0.41167   0.18988  0.31200  0.64148  0.18765 -0.33342 -0.28458
2023/07/11 06:12:04.000   35.164593230  136.885645531    93.4936   2  15   0.4863   0.5308   1.0146   0.3308  -0.2587  -0.3873   0.03    1.1    2.90030   -0.28485    0.25961   0.12771  0.14103  0.30257  0.06752 -0.07463 -0.08426
2023/07/11 06:12:05.000   35.164711477  136.885525496    54.2047   2  11   0.5857   0.6540   1.2729   0.1761   0.2381  -0.5944   0.03    1.1    1.41296   -0.03752   -0.01953   0.17174  0.15253  0.39294 -0.03042  0.06746 -0.18796
2023/07/11 06:12:06.000   35.164784002  136.885488155    46.0487   2  13   0.5834   0.6421   1.2594   0.2197   0.2285  -0.6094   0.03    1.3    0.15377    0.01450   -0.00683   0.15190  0.14960  0.38207  0.03816  0.04269 -0.16723
2023/07/11 06:12:07.000   35.164775386  136.885490547    42.7364   2  13   0.5856   0.6474   1.2825   0.2098   0.1798  -0.5994   0.03    1.0    0.26455    0.00852    0.01750   0.15190  0.14960  0.38211  0.03812  0.04278 -0.16724
2023/07/11 06:12:09.000   35.164707805  136.885485916    61.0149   2  11   0.5857   0.6540   1.2732   0.1752   0.2391  -0.5943   0.03    1.1    0.02472   -0.00820    0.01712   0.17170  0.15254  0.39305 -0.03058  0.06766 -0.18794
2023/07/11 06:12:12.000   35.164762576  136.885469414    47.6924   2  11   0.6559   0.6583   1.4105   0.0911   0.3211  -0.7296   0.03    1.0    0.03593    0.00170   -0.07006   0.17167  0.15255  0.39312 -0.03070  0.06782 -0.18793
2023/07/11 06:12:13.000   35.164763193  136.885471918    47.4475   2  11   0.6559   0.6583   1.4105   0.0906   0.3213  -0.7296   0.03    1.0    0.02949    0.00783   -0.03942   0.17166  0.15256  0.39315 -0.03074  0.06787 -0.18792
2023/07/11 06:12:17.000   35.164793137  136.885448120    50.7513   2  15   0.4847   0.6375   1.1814   0.2682   0.1430  -0.4788   0.03    1.0   -0.00453    0.01374    0.07985   0.13122  0.14710  0.35511  0.05934 -0.04450 -0.13090
2023/07/11 06:12:23.000   35.164781244  136.885483673    44.2816   2  13   0.5159   0.6481   1.2827   0.2321   0.1928  -0.5422   0.03    1.0   -0.02153   -0.00861    0.02897   0.13957  0.14823  0.35702  0.05140 -0.03613 -0.13716
2023/07/11 06:12:24.000   35.164781260  136.885485371    44.5740   2  13   0.5159   0.6481   1.2827   0.2320   0.1931  -0.5422   0.03    1.3    0.04360   -0.02827   -0.03808   0.13956  0.14823  0.35704  0.05138 -0.03606 -0.13716
2023/07/11 06:12:26.000   35.164780541  136.885485824    44.7637   2  13   0.5159   0.6481   1.2829   0.2317   0.1938  -0.5421   0.03    1.1    0.01525   -0.01619   -0.03655   0.13955  0.14823  0.35709  0.05134 -0.03591 -0.13715
2023/07/11 06:12:29.000   35.164780884  136.885485961    44.5429   2  13   0.5158   0.6480   1.2831   0.2312   0.1948  -0.5421   0.03    1.0   -0.00001   -0.01570   -0.00368   0.13952  0.14823  0.35717  0.05129 -0.03570 -0.13714
2023/07/11 06:12:30.000   35.164781350  136.885487163    44.4909   2  13   0.5158   0.6480   1.2832   0.2311   0.1952  -0.5421   0.03    1.1    0.01557   -0.00870   -0.07134   0.13952  0.14824  0.35719  0.05128 -0.03562 -0.13713
2023/07/11 06:12:32.000   35.164781506  136.885487948    44.5171   2  13   0.5157   0.6480   1.2834   0.2308   0.1958  -0.5420   0.03    1.1    0.00592    0.02303    0.04164   0.13950  0.14824  0.35724  0.05124 -0.03548 -0.13712
2023/07/11 06:12:33.000   35.164775631  136.885492300    45.5293   2  11   0.6554   0.6583   1.4108   0.0792   0.3262  -0.7285   0.03    1.0    0.00885    0.01244    0.00070   0.17144  0.15262  0.39365 -0.03152  0.06889 -0.18782
2023/07/11 06:12:35.000   35.164777300  136.885493865    44.7845   2  11   0.6554   0.6583   1.4108   0.0780   0.3267  -0.7284   0.03    1.0   -0.01175   -0.04379   -0.04866   0.17142  0.15262  0.39370 -0.03160  0.06899 -0.18781
2023/07/11 06:12:37.000   35.164777118  136.885497022    44.5325   2  11   0.6553   0.6583   1.4109   0.0768   0.3272  -0.7283   0.03    1.1   -0.03278    0.03581    0.06756   0.17140  0.15263  0.39375 -0.03167  0.06909 -0.18780
2023/07/11 06:12:38.000   35.164776765  136.885498398    44.5177   2  11   0.6553   0.6583   1.4109   0.0761   0.3274  -0.7283   0.03    1.1    0.01527    0.02337   -0.02161   0.17139  0.15263  0.39377 -0.03171  0.06914 -0.18779
2023/07/11 06:12:40.000   35.164784952  136.885497186    42.5393   2  13   0.5861   0.6470   1.2849   0.2031   0.1915  -0.5995   0.03    1.1    0.04497    0.01872   -0.02211   0.15188  0.14967  0.38331  0.03696  0.04569 -0.16759
2023/07/11 06:12:42.000   35.164780974  136.885501596    43.3079   2  13   0.5861   0.6470   1.2850   0.2026   0.1922  -0.5995   0.03    1.3   -0.00632   -0.01197    0.02467   0.15188  0.14968  0.38338  0.03689  0.04586 -0.16761
2023/07/11 06:12:43.000   35.164779139  136.885504169    43.7574   2  13   0.5861   0.6470   1.2851   0.2024   0.1925  -0.5995   0.03    1.1    0.03297   -0.03015   -0.05377   0.15188  0.14968  0.38341  0.03685  0.04594 -0.16762
2023/07/11 06:12:46.000   35.164774025  136.885506795    44.5826   2  13   0.5862   0.6469   1.2853   0.2018   0.1935  -0.5995   0.03    1.1    0.00909   -0.00309   -0.08015   0.15188  0.14968  0.38352  0.03674  0.04620 -0.16765
2023/07/11 06:12:47.000   35.164773915  136.885506616    44.6971   2  13   0.5862   0.6469   1.2854   0.2016   0.1939  -0.5995   0.03    1.2   -0.01274    0.03428   -0.00524   0.15188  0.14969  0.38355  0.03671  0.04629 -0.16766
2023/07/11 06:12:48.000   35.164774534  136.885506472    44.6942   2  13   0.5862   0.6469   1.2854   0.2014   0.1942  -0.5995   0.03    1.1   -0.00406    0.00668   -0.00071   0.15188  0.14969  0.38359  0.03667  0.04637 -0.16767
2023/07/11 06:12:50.000   35.164738208  136.885517653    53.5063   2  13   0.5404   0.6451   1.1966   0.2265   0.1240  -0.5027   0.03    1.0   -0.00285   -0.04141    0.00389   0.15187  0.14969  0.38366  0.03660  0.04654 -0.16770
2023/07/11 06:12:51.000   35.164734902  136.885519617    54.3999   2  13   0.5405   0.6451   1.1967   0.2263   0.1244  -0.5027   0.03    1.1   -0.02963   -0.00798    0.01333   0.15187  0.14969  0.38370  0.03656  0.04662 -0.16771
2023/07/11 06:12:52.000   35.164738220  136.885519367    53.8128   2  13   0.5405   0.6451   1.1968   0.2262   0.1248  -0.5027   0.03    1.1    0.03094   -0.02563    0.01137   0.15187  0.14970  0.38373  0.03653  0.04671 -0.16772
2023/07/11 06:12:54.000   35.164731180  136.885522482    55.5957   2  11   0.5852   0.6537   1.2761   0.1649   0.2505  -0.5933   0.03    1.1    0.00215    0.01610   -0.05409   0.17122  0.15268  0.39416 -0.03232  0.06994 -0.18770
2023/07/11 06:12:55.000   35.164731450  136.885521378    55.5845   2  11   0.5852   0.6537   1.2762   0.1646   0.2508  -0.5933   0.03    1.2    0.00891    0.01290    0.02118   0.17121  0.15268  0.39418 -0.03236  0.06999 -0.18770
