% program   : RTKPOST ver.2.4.3 b34
% obs start : 2023/07/11 06:00:19.2 GPST (week2270 194419.2s)
% obs end   : 2023/07/11 06:26:42.4 GPST (week2270 196002.4s)
% pos mode  : Kinematic
% freqs     : L1+2
% solution  : Forward
% elev mask : 30.0 deg
% dynamics  : on
% tidecorr  : off
% ionos opt : Broadcast
% tropo opt : Saastamoinen
% ephemeris : Broadcast
% navi sys  : GPS GLONASS Galileo QZSS BDS
% amb res   : Instantaneous
% amb glo   : ON
% val thres : 2.5
% antenna1  :                       ( 0.0000  0.0000  0.0000)
% antenna2  :                       ( 0.0000  0.0000  0.0000)
% ref pos   : 35.134709483  136.977574275   104.7280
%
% (lat/lon/height=WGS84/ellipsoidal,Q=1:fix,2:float,3:sbas,4:dgps,5:single,6:ppp,ns=# of satellites)
%  GPST          latitude(deg) longitude(deg)  height(m)   Q  ns   sdn(m)   sde(m)   sdu(m)  sdne(m)  sdeu(m)  sdun(m) age(s)  ratio
2270 194670.000   35.165360868  136.881409540    41.4082   1  16   0.0049   0.0046   0.0102   0.0028   0.0018  -0.0033   0.03    6.4
2270 194670.200   35.165360869  136.881409516    41.4086   1  16   0.0049   0.0046   0.0103   0.0028   0.0018  -0.0033   0.22    6.1
2270 194670.400   35.165360869  136.881409532    41.4099   1  16   0.0049   0.0046   0.0103   0.0028   0.0018  -0.0033   0.43    5.5
2270 194670.600   35.165360880  136.881409537    41.4090   1  16   0.0049   0.0046   0.0103   0.0028   0.0019  -0.0033   0.63    6.1
2270 194670.800   35.165360866  136.881409541    41.4087   1  16   0.0049   0.0046   0.0104   0.0028   0.0019  -0.0033   0.82    5.5
2270 194671.000   35.165360859  136.881409537    41.4124   1  18   0.0046   0.0046   0.0099   0.0029   0.0017  -0.0026   0.03    6.1
2270 194671.200   35.165360856  136.881409536    41.4127   1  18   0.0046   0.0046   0.0099   0.0029   0.0017  -0.0026   0.22    5.6
2270 194671.400   35.165360852  136.881409547    41.4120   1  18   0.0046   0.0046   0.0099   0.0029   0.0017  -0.0026   0.43    5.5
2270 194671.600   35.165360838  136.881409527    41.4145   1  18   0.0047   0.0046   0.0100   0.0029   0.0018  -0.0026   0.63    5.4
2270 194671.800   35.165360840  136.881409544    41.4143   1  18   0.0047   0.0046   0.0100   0.0029   0.0018  -0.0026   0.82    5.6
2270 194672.000   35.165360858  136.881409537    41.4089   1  18   0.0046   0.0046   0.0099   0.0029   0.0017  -0.0026   0.03    6.0
2270 194672.200   35.165360855  136.881409534    41.4081   1  18   0.0046   0.0046   0.0099   0.0029   0.0017  -0.0026   0.22    6.0
2270 194672.400   35.165360855  136.881409549    41.4068   1  18   0.0046   0.0046   0.0099   0.0029   0.0017  -0.0026   0.43    6.6
2270 194672.600   35.165360848  136.881409533    41.4070   1  18   0.0047   0.0046   0.0100   0.0029   0.0018  -0.0026   0.63    6.4
2270 194672.800   35.165360843  136.881409538    41.4111   1  18   0.0047   0.0046   0.0100   0.0029   0.0018  -0.0026   0.82    6.0
2270 194673.000   35.165360850  136.881409527    41.4089   1  18   0.0046   0.0046   0.0099   0.0029   0.0017  -0.0026   0.03    6.5
2270 194673.200   35.165360850  136.881409541    41.4051   1  18   0.0046   0.0046   0.0099   0.0029   0.0017  -0.0026   0.22    6.5
2270 194673.400   35.165360841  136.881409536    41.4091   1  18   0.0046   0.0046   0.0099   0.0029   0.0017  -0.0026   0.43    6.5
2270 194673.600   35.165360851  136.881409536    41.4081   1  18   0.0047   0.0046   0.0100   0.0029   0.0018  -0.0026   0.63    6.6
2270 194673.800   35.165360877  136.881409534    41.4055   1  18   0.0047   0.0046   0.0100   0.0029   0.0018  -0.0026   0.82    6.7
2270 194674.000   35.165360860  136.881409533    41.4044   1  18   0.0046   0.0046   0.0099   0.0029   0.0017  -0.0026   0.03    5.9
2270 194674.200   35.165360878  136.881409542    41.4035   1  18   0.0046   0.0046   0.0099   0.0029   0.0017  -0.0026   0.22    6.5
2270 194674.400   35.165360870  136.881409533    41.4053   1  18   0.0046   0.0046   0.0099   0.0029   0.0017  -0.0026   0.43    5.6
2270 194674.600   35.165360881  136.881409538    41.4046   1  18   0.0047   0.0046   0.0100   0.0029   0.0018  -0.0026   0.63    5.8
2270 194674.800   35.165360881  136.881409533    41.4048   1  18   0.0047   0.0046   0.0100   0.0029   0.0018  -0.0026   0.82    5.5
2270 194675.000   35.165360847  136.881409535    41.4061   1  18   0.0046   0.0046   0.0099   0.0029   0.0017  -0.0026   0.03    6.1
2270 194675.200   35.165360874  136.881409535    41.4055   1  18   0.0046   0.0046   0.0099   0.0029   0.0017  -0.0026   0.22    6.0
2270 194675.400   35.165360863  136.881409534    41.4086   1  18   0.0046   0.0046   0.0099   0.0029   0.0017  -0.0026   0.43    5.4
2270 194675.600   35.165360870  136.881409556    41.4068   1  18   0.0047   0.0046   0.0100   0.0029   0.0018  -0.0026   0.63    5.9
2270 194675.800   35.165360875  136.881409558    41.4076   1  18   0.0047   0.0046   0.0100   0.0029   0.0018  -0.0026   0.82    5.4
2270 194676.000   35.165360863  136.881409540    41.4018   1  18   0.0046   0.0046   0.0099   0.0029   0.0017  -0.0026   0.03    6.2
2270 194676.200   35.165360861  136.881409555    41.4046   1  18   0.0046   0.0046   0.0099   0.0029   0.0017  -0.0026   0.22    6.9
2270 194676.400   35.165360873  136.881409547    41.4047   1  18   0.0046   0.0046   0.0099   0.0029   0.0017  -0.0026   0.43    6.1
2270 194676.600   35.165360873  136.881409554    41.4055   1  18   0.0047   0.0046   0.0100   0.0029   0.0018  -0.0026   0.63    6.2
2270 194676.800   35.165360866  136.881409548    41.4041   1  18   0.0047   0.0046   0.0100   0.0029   0.0018  -0.0026   0.82    6.1
2270 194677.000   35.165360858  136.881409532    41.4035   1  18   0.0046   0.0046   0.0099   0.0029   0.0017  -0.0026   0.03    6.3
2270 194677.200   35.165360858  136.881409534    41.4054   1  18   0.0046   0.0046   0.0099   0.0029   0.0017  -0.0026   0.22    5.9
2270 194677.400   35.165360865  136.881409534    41.4055   1  18   0.0046   0.0046   0.0099   0.0029   0.0018  -0.0026   0.43    6.1
2270 194677.600   35.165360862  136.881409524    41.4053   1  18   0.0047   0.0046   0.0100   0.0029   0.0018  -0.0026   0.63    6.1
2270 194677.800   35.165360860  136.881409533    41.4007   1  18   0.0047   0.0046   0.0100   0.0029   0.0018  -0.0026   0.82    6.6
2270 194678.000   35.165360858  136.881409562    41.4045   1  18   0.0046   0.0046   0.0099   0.0029   0.0017  -0.0026   0.03    7.0
2270 194678.200   35.165360860  136.881409551    41.4032   1  18   0.0046   0.0046   0.0099   0.0029   0.0017  -0.0026   0.22    6.8
2270 194678.400   35.165360850  136.881409543    41.4023   1  18   0.0046   0.0046   0.0099   0.0029   0.0018  -0.0026   0.43    6.5
2270 194678.600   35.165360843  136.881409537    41.4003   1  18   0.0047   0.0046   0.0100   0.0029   0.0018  -0.0026   0.63    6.6
2270 194678.800   35.165360855  136.881409534    41.4011   1  18   0.0047   0.0046   0.0100   0.0029   0.0018  -0.0026   0.82    6.7
2270 194679.000   35.165360861  136.881409529    41.4019   1  16   0.0049   0.0046   0.0102   0.0028   0.0018  -0.0033   0.03    6.2
2270 194679.200   35.165360863  136.881409535    41.4023   1  16   0.0049   0.0046   0.0103   0.0028   0.0018  -0.0033   0.22    6.7
2270 194679.400   35.165360853  136.881409538    41.4051   1  16   0.0049   0.0046   0.0103   0.0028   0.0019  -0.0033   0.43    6.7
2270 194679.600   35.165360846  136.881409525    41.4037   1  16   0.0049   0.0046   0.0103   0.0028   0.0019  -0.0033   0.63    6.1
2270 194679.800   35.165360850  136.881409533    41.4057   1  16   0.0049   0.0046   0.0104   0.0028   0.0019  -0.0033   0.82    6.0
2270 194680.000   35.165360859  136.881409534    41.3980   1  16   0.0049   0.0046   0.0102   0.0028   0.0018  -0.0033   0.03    6.4
2270 194680.200   35.165360863  136.881409528    41.4001   1  16   0.0049   0.0046   0.0103   0.0028   0.0018  -0.0033   0.22    5.8
2270 194680.400   35.165360864  136.881409547    41.4005   1  16   0.0049   0.0046   0.0103   0.0028   0.0019  -0.0033   0.43    5.9
2270 194680.600   35.165360865  136.881409558    41.3997   1  16   0.0049   0.0046   0.0103   0.0028   0.0019  -0.0033   0.63    6.2
2270 194680.800   35.165360868  136.881409551    41.3990   1  16   0.0049   0.0046   0.0104   0.0028   0.0019  -0.0033   0.82    5.5
2270 194681.000   35.165360876  136.881409551    41.4015   1  18   0.0046   0.0046   0.0099   0.0029   0.0017  -0.0026   0.03    6.0
2270 194681.200   35.165360867  136.881409551    41.4020   1  18   0.0046   0.0046   0.0099   0.0029   0.0017  -0.0026   0.22    5.5
2270 194681.400   35.165360868  136.881409559    41.4059   1  18   0.0046   0.0046   0.0100   0.0029   0.0018  -0.0026   0.43    5.6
2270 194681.600   35.165360872  136.881409559    41.4074   1  18   0.0047   0.0046   0.0100   0.0029   0.0018  -0.0026   0.63    5.1
2270 194681.800   35.165360865  136.881409595    41.4033   1  18   0.0047   0.0046   0.0100   0.0029   0.0018  -0.0026   0.82    5.2
2270 194682.000   35.165360844  136.881409530    41.4015   1  18   0.0046   0.0046   0.0099   0.0029   0.0017  -0.0026   0.03    5.4
2270 194682.200   35.165360852  136.881409541    41.4048   1  18   0.0046   0.0046   0.0099   0.0029   0.0017  -0.0026   0.22    5.2
2270 194682.400   35.165360862  136.881409554    41.4003   1  18   0.0046   0.0046   0.0100   0.0029   0.0018  -0.0026   0.43    5.3
2270 194682.600   35.165360864  136.881409553    41.4003   1  18   0.0047   0.0046   0.0100   0.0029   0.0018  -0.0026   0.63    5.3
2270 194682.800   35.165360868  136.881409545    41.4004   1  18   0.0047   0.0046   0.0100   0.0029   0.0018  -0.0026   0.82    5.3
2270 194683.000   35.165360846  136.881409527    41.4009   1  18   0.0046   0.0046   0.0099   0.0029   0.0017  -0.0026   0.03    5.0
2270 194683.200   35.165360858  136.881409548    41.4009   1  18   0.0046   0.0046   0.0099   0.0029   0.0018  -0.0026   0.22    5.2
2270 194683.400   35.165360859  136.881409533    41.4005   1  18   0.0046   0.0046   0.0100   0.0029   0.0018  -0.0026   0.43    5.1
2270 194683.600   35.165360856  136.881409524    41.4007   1  18   0.0047   0.0046   0.0100   0.0029   0.0018  -0.0026   0.63    4.9
2270 194683.800   35.165360849  136.881409540    41.4018   1  18   0.0047   0.0046   0.0100   0.0029   0.0018  -0.0026   0.82    4.8
2270 194684.000   35.165360849  136.881409541    41.3963   1  18   0.0046   0.0046   0.0099   0.0029   0.0017  -0.0026   0.03    5.9
2270 194684.200   35.165360856  136.881409525    41.3977   1  18   0.0046   0.0046   0.0099   0.0029   0.0018  -0.0026   0.22    6.6
2270 194684.400   35.165360858  136.881409535    41.3972   1  18   0.0046   0.0046   0.0100   0.0029   0.0018  -0.0026   0.43    6.0
2270 194684.600   35.165360849  136.881409539    41.3969   1  18   0.0047   0.0046   0.0100   0.0029   0.0018  -0.0026   0.63    5.8
2270 194684.800   35.165360850  136.881409521    41.3960   1  18   0.0047   0.0046   0.0100   0.0029   0.0018  -0.0026   0.82    5.1
2270 194685.000   35.165360858  136.881409562    41.3989   1  18   0.0046   0.0046   0.0099   0.0029   0.0017  -0.0026   0.03    6.0
2270 194685.200   35.165360857  136.881409544    41.3990   1  18   0.0046   0.0046   0.0099   0.0029   0.0018  -0.0026   0.22    5.9
2270 194685.400   35.165360855  136.881409548    41.3971   1  18   0.0046   0.0046   0.0100   0.0029   0.0018  -0.0026   0.43    5.8
2270 194685.600   35.165360864  136.881409555    41.3980   1  18   0.0047   0.0046   0.0100   0.0029   0.0018  -0.0026   0.63    5.8
2270 194685.800   35.165360864  136.881409554    41.3999   1  18   0.0047   0.0046   0.0100   0.0029   0.0018  -0.0026   0.82    5.2
2270 194686.000   35.165360864  136.881409542    41.3974   1  16   0.0048   0.0046   0.0102   0.0028   0.0019  -0.0033   0.03    5.8
2270 194686.200   35.165360859  136.881409531    41.3985   1  16   0.0049   0.0046   0.0103   0.0028   0.0019  -0.0033   0.22    5.8
2270 194686.400   35.165360857  136.881409511    41.3991   1  16   0.0049   0.0046   0.0103   0.0028   0.0019  -0.0033   0.43    5.0
2270 194686.600   35.165360860  136.881409529    41.3981   1  16   0.0049   0.0046   0.0103   0.0028   0.0019  -0.0033   0.63    5.3
2270 194686.800   35.165360864  136.881409528    41.3989   1  16   0.0049   0.0046   0.0104   0.0028   0.0019  -0.0033   0.82    5.5
2270 194687.000   35.165360864  136.881409557    41.3976   1  18   0.0046   0.0046   0.0099   0.0029   0.0018  -0.0026   0.03    5.5
2270 194687.200   35.165360868  136.881409538    41.3986   1  18   0.0046   0.0046   0.0099   0.0029   0.0018  -0.0026   0.22    5.2
2270 194687.400   35.165360870  136.881409541    41.3989   1  18   0.0046   0.0046   0.0100   0.0029   0.0018  -0.0026   0.43    5.0
2270 194687.600   35.165360865  136.881409525    41.4005   1  18   0.0047   0.0046   0.0100   0.0029   0.0018  -0.0026   0.63    4.9
2270 194687.800   35.165360871  136.881409529    41.3976   1  18   0.0047   0.0046   0.0100   0.0029   0.0018  -0.0026   0.82    5.8
2270 194688.000   35.165360869  136.881409518    41.3951   1  18   0.0046   0.0046   0.0099   0.0029   0.0018  -0.0026   0.03    6.3
2270 194688.200   35.165360862  136.881409534    41.3960   1  18   0.0046   0.0046   0.0099   0.0029   0.0018  -0.0026   0.22    6.2
2270 194688.400   35.165360875  136.881409534    41.3950   1  18   0.0046   0.0046   0.0100   0.0029   0.0018  -0.0026   0.43    6.0
2270 194688.600   35.165360877  136.881409537    41.3973   1  18   0.0047   0.0046   0.0100   0.0029   0.0018  -0.0026   0.63    6.1
2270 194688.800   35.165360865  136.881409520    41.3945   1  18   0.0047   0.0046   0.0100   0.0029   0.0018  -0.0026   0.82    6.0
2270 194689.000   35.165360863  136.881409546    41.3949   1  18   0.0046   0.0046   0.0099   0.0029   0.0018  -0.0026   0.03    5.5
2270 194689.200   35.165360874  136.881409538    41.3956   1  18   0.0046   0.0046   0.0099   0.0029   0.0018  -0.0026   0.22    5.3
2270 194689.400   35.165360864  136.881409558    41.3942   1  18   0.0046   0.0046   0.0100   0.0029   0.0018  -0.0026   0.43    5.6
2270 194689.600   35.165360864  136.881409543    41.3963   1  18   0.0047   0.0046   0.0100   0.0029   0.0018  -0.0026   0.63    4.7
2270 194689.800   35.165360867  136.881409558    41.3955   1  18   0.0047   0.0046   0.0100   0.0029   0.0018  -0.0026   0.82    5.4
2270 194690.000   35.165360860  136.881409529    41.3939   1  18   0.0046   0.0046   0.0099   0.0029   0.0018  -0.0026   0.03    4.8
2270 194690.200   35.165360855  136.881409542    41.3954   1  18   0.0046   0.0046   0.0099   0.0029   0.0018  -0.0026   0.22    5.2
2270 194690.400   35.165360849  136.881409542    41.3984   1  18   0.0046   0.0046   0.0100   0.0029   0.0018  -0.0026   0.43    4.7
2270 194690.600   35.165360854  136.881409560    41.3971   1  18   0.0047   0.0046   0.0100   0.0029   0.0018  -0.0026   0.63    5.0
2270 194690.800   35.165360858  136.881409552    41.3989   1  18   0.0047   0.0046   0.0100   0.0029   0.0018  -0.0026   0.82    4.8
2270 194691.000   35.165360860  136.881409535    41.3965   1  18   0.0046   0.0046   0.0099   0.0028   0.0018  -0.0026   0.03    5.1
2270 194691.200   35.165360851  136.881409527    41.3988   1  18   0.0046   0.0046   0.0099   0.0029   0.0018  -0.0026   0.22    5.1
2270 194691.400   35.165360860  136.881409535    41.3980   1  18   0.0046   0.0046   0.0100   0.0029   0.0018  -0.0026   0.43    5.2
2270 194691.600   35.165360843  136.881409538    41.4023   1  18   0.0047   0.0046   0.0100   0.0029   0.0018  -0.0026   0.63    5.4
2270 194691.800   35.165360837  136.881409542    41.4051   1  18   0.0047   0.0046   0.0100   0.0029   0.0018  -0.0026   0.82    5.3
2270 194692.000   35.165360864  136.881409504    41.3945   1  18   0.0046   0.0046   0.0099   0.0028   0.0018  -0.0026   0.03    4.8
2270 194692.200   35.165360863  136.881409521    41.3989   1  18   0.0046   0.0046   0.0099   0.0029   0.0018  -0.0026   0.22    4.8
2270 194692.400   35.165360857  136.881409518    41.3995   1  18   0.0046   0.0046   0.0100   0.0029   0.0018  -0.0026   0.43    4.8
2270 194692.600   35.165360853  136.881409531    41.3995   1  18   0.0047   0.0046   0.0100   0.0029   0.0018  -0.0026   0.63    4.9
2270 194692.800   35.165360853  136.881409528    41.4006   1  18   0.0047   0.0046   0.0100   0.0029   0.0018  -0.0026   0.82    5.1
2270 194693.000   35.165360859  136.881409545    41.3952   1  18   0.0046   0.0046   0.0099   0.0028   0.0018  -0.0026   0.03    4.8
2270 194693.200   35.165360851  136.881409555    41.3975   1  18   0.0046   0.0046   0.0099   0.0029   0.0018  -0.0026   0.22    5.1
2270 194693.400   35.165360852  136.881409542    41.3971   1  18   0.0046   0.0046   0.0100   0.0029   0.0018  -0.0026   0.43    4.6
2270 194693.600   35.165360848  136.881409553    41.3978   1  18   0.0047   0.0046   0.0100   0.0029   0.0018  -0.0026   0.63    4.8
2270 194693.800   35.165360858  136.881409556    41.3959   1  18   0.0047   0.0046   0.0100   0.0029   0.0018  -0.0026   0.82    4.7
2270 194694.000   35.165360854  136.881409533    41.3966   1  18   0.0046   0.0046   0.0099   0.0028   0.0018  -0.0026   0.03    4.7
2270 194694.200   35.165360851  136.881409532    41.3967   1  18   0.0046   0.0046   0.0099   0.0029   0.0018  -0.0026   0.22    4.4
2270 194694.400   35.165360862  136.881409552    41.3962   1  18   0.0046   0.0046   0.0100   0.0029   0.0018  -0.0026   0.43    4.3
2270 194694.600   35.165360860  136.881409557    41.3973   1  18   0.0047   0.0046   0.0100   0.0029   0.0018  -0.0026   0.63    4.0
2270 194694.800   35.165360857  136.881409553    41.3941   1  18   0.0047   0.0046   0.0100   0.0029   0.0018  -0.0026   0.82    4.0
2270 194695.000   35.165360868  136.881409538    41.3944   1  18   0.0046   0.0046   0.0099   0.0028   0.0018  -0.0026   0.03    5.3
2270 194695.200   35.165360869  136.881409529    41.3945   1  18   0.0046   0.0046   0.0099   0.0029   0.0018  -0.0026   0.22    4.9
2270 194695.400   35.165360870  136.881409525    41.3926   1  18   0.0046   0.0046   0.0100   0.0029   0.0018  -0.0026   0.43    4.3
2270 194695.600   35.165360869  136.881409547    41.3947   1  18   0.0047   0.0046   0.0100   0.0029   0.0018  -0.0026   0.63    4.8
2270 194695.800   35.165360866  136.881409564    41.3952   1  18   0.0047   0.0046   0.0100   0.0029   0.0018  -0.0026   0.82    5.3
2270 194696.000   35.165360847  136.881409528    41.3957   1  18   0.0046   0.0046   0.0099   0.0028   0.0018  -0.0026   0.03    4.8
2270 194696.200   35.165360838  136.881409538    41.3948   1  18   0.0046   0.0046   0.0099   0.0029   0.0018  -0.0026   0.22    5.0
2270 194696.400   35.165360839  136.881409526    41.3947   1  18   0.0046   0.0046   0.0100   0.0029   0.0018  -0.0026   0.43    5.2
2270 194696.600   35.165360849  136.881409535    41.3975   1  18   0.0047   0.0046   0.0100   0.0029   0.0018  -0.0026   0.63    5.2
2270 194696.800   35.165360837  136.881409528    41.3984   1  18   0.0047   0.0046   0.0100   0.0029   0.0018  -0.0026   0.82    4.8
2270 194697.000   35.165360858  136.881409524    41.3915   1  16   0.0048   0.0046   0.0102   0.0028   0.0019  -0.0032   0.03    4.9
2270 194697.200   35.165360848  136.881409524    41.3943   1  16   0.0048   0.0046   0.0103   0.0028   0.0019  -0.0032   0.22    5.2
2270 194697.400   35.165360852  136.881409520    41.3937   1  16   0.0049   0.0046   0.0103   0.0028   0.0019  -0.0033   0.43    5.1
2270 194697.600   35.165360838  136.881409515    41.3968   1  16   0.0049   0.0046   0.0103   0.0028   0.0019  -0.0033   0.63    4.8
2270 194697.800   35.165360836  136.881409517    41.3970   1  16   0.0049   0.0047   0.0104   0.0028   0.0019  -0.0033   0.82    4.9
2270 194698.000   35.165360855  136.881409532    41.3962   1  16   0.0048   0.0046   0.0102   0.0028   0.0019  -0.0032   0.03    4.9
2270 194698.200   35.165360842  136.881409533    41.3924   1  16   0.0048   0.0046   0.0103   0.0028   0.0019  -0.0032   0.22    4.7
2270 194698.400   35.165360831  136.881409527    41.3937   1  16   0.0049   0.0046   0.0103   0.0028   0.0019  -0.0033   0.43    4.4
2270 194698.600   35.165360841  136.881409544    41.3945   1  16   0.0049   0.0046   0.0103   0.0028   0.0019  -0.0033   0.63    4.6
2270 194698.800   35.165360833  136.881409550    41.3923   1  16   0.0049   0.0047   0.0104   0.0028   0.0019  -0.0033   0.82    4.5
2270 194699.000   35.165360856  136.881409524    41.3933   1  16   0.0048   0.0046   0.0102   0.0028   0.0019  -0.0032   0.03    4.6
2270 194699.200   35.165360851  136.881409512    41.3955   1  16   0.0048   0.0046   0.0103   0.0028   0.0019  -0.0032   0.22    4.5
2270 194699.400   35.165360841  136.881409512    41.3958   1  16   0.0049   0.0046   0.0103   0.0028   0.0019  -0.0033   0.43    3.9
2270 194699.600   35.165360845  136.881409544    41.3969   1  16   0.0049   0.0046   0.0103   0.0028   0.0019  -0.0033   0.63    4.0
2270 194699.800   35.165360845  136.881409534    41.3935   1  16   0.0049   0.0047   0.0104   0.0028   0.0019  -0.0033   0.82    3.7
2270 194700.000   35.165360848  136.881409498    41.3924   1  18   0.0046   0.0046   0.0099   0.0028   0.0018  -0.0026   0.03    4.6
2270 194700.200   35.165360852  136.881409492    41.3924   1  18   0.0046   0.0046   0.0099   0.0028   0.0018  -0.0026   0.22    4.7
2270 194700.400   35.165360850  136.881409512    41.3933   1  18   0.0046   0.0046   0.0100   0.0029   0.0018  -0.0026   0.43    4.3
2270 194700.600   35.165360862  136.881409505    41.3941   1  18   0.0047   0.0046   0.0100   0.0029   0.0018  -0.0026   0.63    4.4
2270 194700.800   35.165360871  136.881409515    41.3946   1  18   0.0047   0.0046   0.0101   0.0029   0.0018  -0.0026   0.82    4.6
2270 194701.000   35.165360853  136.881409514    41.3958   1  18   0.0046   0.0046   0.0099   0.0028   0.0018  -0.0026   0.03    4.7
2270 194701.200   35.165360854  136.881409515    41.3987   1  18   0.0046   0.0046   0.0099   0.0028   0.0018  -0.0026   0.22    4.6
2270 194701.400   35.165360856  136.881409522    41.3981   1  18   0.0046   0.0046   0.0100   0.0029   0.0018  -0.0026   0.43    4.6
2270 194701.600   35.165360873  136.881409512    41.3996   1  18   0.0047   0.0046   0.0100   0.0029   0.0018  -0.0026   0.63    4.5
2270 194701.800   35.165360871  136.881409521    41.3988   1  18   0.0047   0.0046   0.0101   0.0029   0.0018  -0.0026   0.82    4.5
2270 194702.000   35.165360849  136.881409518    41.3926   1  18   0.0046   0.0046   0.0099   0.0028   0.0018  -0.0026   0.03    4.7
2270 194702.200   35.165360852  136.881409533    41.3924   1  18   0.0046   0.0046   0.0099   0.0028   0.0018  -0.0026   0.22    5.1
2270 194702.400   35.165360850  136.881409533    41.3933   1  18   0.0046   0.0046   0.0100   0.0029   0.0018  -0.0026   0.43    4.6
2270 194702.600   35.165360859  136.881409536    41.3940   1  18   0.0047   0.0046   0.0100   0.0029   0.0018  -0.0026   0.63    4.6
2270 194702.800   35.165360853  136.881409551    41.3947   1  18   0.0047   0.0046   0.0101   0.0029   0.0018  -0.0026   0.82    4.3
2270 194703.000   35.165360841  136.881409512    41.3931   1  18   0.0046   0.0046   0.0099   0.0028   0.0018  -0.0026   0.03    4.7
2270 194703.200   35.165360842  136.881409529    41.3938   1  18   0.0046   0.0046   0.0099   0.0028   0.0018  -0.0026   0.22    4.1
2270 194703.400   35.165360847  136.881409519    41.3937   1  18   0.0046   0.0046   0.0100   0.0029   0.0018  -0.0026   0.43    4.2
2270 194703.600   35.165360844  136.881409508    41.3946   1  18   0.0047   0.0046   0.0100   0.0029   0.0018  -0.0026   0.63    3.6
2270 194703.800   35.165360836  136.881409518    41.3952   1  18   0.0047   0.0046   0.0101   0.0029   0.0018  -0.0026   0.82    3.6
2270 194704.000   35.165360843  136.881409510    41.3907   1  18   0.0046   0.0046   0.0099   0.0028   0.0018  -0.0026   0.03    4.8
2270 194704.200   35.165360843  136.881409518    41.3912   1  18   0.0046   0.0046   0.0099   0.0028   0.0018  -0.0026   0.22    4.7
2270 194704.400   35.165360848  136.881409376    41.3900   1  18   0.0046   0.0046   0.0100   0.0029   0.0018  -0.0026   0.43    4.5
2270 194704.600   35.165360856  136.881409084    41.3903   1  18   0.0047   0.0046   0.0100   0.0029   0.0018  -0.0026   0.63    4.7
2270 194704.800   35.165360855  136.881408671    41.3913   1  18   0.0047   0.0046   0.0101   0.0029   0.0018  -0.0026   0.82    4.1
2270 194705.000   35.165360878  136.881408148    41.3917   1  18   0.0046   0.0046   0.0099   0.0028   0.0018  -0.0026   0.03    3.8
2270 194705.200   35.165360904  136.881407547    41.3941   1  18   0.0046   0.0046   0.0099   0.0028   0.0018  -0.0026   0.22    4.1
2270 194705.400   35.165360927  136.881406838    41.3987   1  18   0.0046   0.0046   0.0100   0.0029   0.0018  -0.0026   0.43    3.9
2270 194705.600   35.165360895  136.881406057    41.4002   1  17   0.0047   0.0047   0.0100   0.0029   0.0018  -0.0027   0.63    5.1
2270 194705.800   35.165360866  136.881405247    41.4050   1  16   0.0048   0.0049   0.0102   0.0028   0.0012  -0.0025   0.82    4.0
2270 194706.000   35.165360812  136.881404341    41.4074   1  16   0.0047   0.0048   0.0100   0.0028   0.0011  -0.0025   0.03    4.2
2270 194706.200   35.165360755  136.881403490    41.4104   1  17   0.0047   0.0048   0.0100   0.0027   0.0012  -0.0025   0.22    3.6
2270 194706.400   35.165360700  136.881402531    41.4088   1  17   0.0047   0.0048   0.0101   0.0027   0.0012  -0.0025   0.43    4.1
2270 194706.600   35.165360620  136.881401593    41.4188   1  17   0.0047   0.0048   0.0101   0.0027   0.0012  -0.0025   0.63    4.2
2270 194706.800   35.165360479  136.881400558    41.4218   1  17   0.0047   0.0048   0.0101   0.0027   0.0013  -0.0025   0.82    4.6
2270 194707.000   35.165360349  136.881399493    41.4249   1  18   0.0046   0.0046   0.0099   0.0028   0.0018  -0.0026   0.03    3.8
2270 194707.200   35.165360150  136.881398343    41.4135   1  18   0.0046   0.0046   0.0099   0.0028   0.0018  -0.0026   0.22    3.3
2270 194707.400   35.165359944  136.881397165    41.4265   1  18   0.0046   0.0046   0.0100   0.0029   0.0018  -0.0026   0.43    4.4
2270 194707.600   35.165359778  136.881395936    41.4234   1  18   0.0047   0.0046   0.0100   0.0029   0.0018  -0.0026   0.63    3.7
2270 194707.800   35.165359404  136.881394545    41.4287   1  16   0.0049   0.0047   0.0104   0.0028   0.0020  -0.0033   0.82    3.8
2270 194708.000   35.165358967  136.881393026    41.4234   1  16   0.0048   0.0046   0.0102   0.0028   0.0019  -0.0032   0.03    5.6
2270 194708.200   35.165358505  136.881391508    41.4220   1  18   0.0046   0.0046   0.0099   0.0028   0.0018  -0.0026   0.22    4.1
2270 194708.400   35.165357978  136.881389842    41.4288   1  18   0.0046   0.0046   0.0100   0.0029   0.0018  -0.0026   0.43    4.5
2270 194708.600   35.165357374  136.881388151    41.4289   1  18   0.0047   0.0046   0.0100   0.0029   0.0018  -0.0026   0.63    4.4
2270 194708.800   35.165356594  136.881386302    41.4354   1  18   0.0047   0.0046   0.0101   0.0029   0.0019  -0.0026   0.82    3.6
2270 194709.000   35.165355806  136.881384454    41.4438   1  18   0.0046   0.0046   0.0099   0.0028   0.0018  -0.0026   0.03    3.8
2270 194709.200   35.165354902  136.881382618    41.4543   1  18   0.0046   0.0046   0.0099   0.0028   0.0018  -0.0026   0.22    4.0
2270 194709.400   35.165353843  136.881380853    41.4571   1  18   0.0046   0.0046   0.0100   0.0029   0.0018  -0.0026   0.43    4.2
2270 194709.600   35.165352668  136.881379232    41.4611   1  18   0.0047   0.0046   0.0100   0.0029   0.0018  -0.0026   0.63    4.6
2270 194709.800   35.165351399  136.881377564    41.4624   1  18   0.0047   0.0046   0.0101   0.0029   0.0019  -0.0026   0.82    4.7
2270 194710.000   35.165350062  136.881375833    41.4511   1  18   0.0046   0.0046   0.0099   0.0028   0.0018  -0.0026   0.03    5.4
2270 194710.200   35.165348521  136.881374081    41.4505   1  18   0.0046   0.0046   0.0099   0.0028   0.0018  -0.0026   0.22    4.7
2270 194710.400   35.165346890  136.881372336    41.4527   1  18   0.0046   0.0046   0.0100   0.0029   0.0018  -0.0026   0.43    4.9
2270 194710.600   35.165345147  136.881370497    41.4546   1  18   0.0047   0.0046   0.0100   0.0029   0.0018  -0.0026   0.63    3.8
2270 194710.800   35.165343268  136.881368699    41.4646   1  18   0.0047   0.0046   0.0101   0.0029   0.0019  -0.0026   0.82    5.1
2270 194711.000   35.165341276  136.881366852    41.4632   1  18   0.0046   0.0046   0.0099   0.0028   0.0018  -0.0026   0.03    4.3
2270 194711.200   35.165339070  136.881365197    41.4743   1  18   0.0046   0.0046   0.0099   0.0028   0.0018  -0.0026   0.22    4.5
2270 194711.400   35.165336679  136.881363561    41.4774   1  18   0.0046   0.0046   0.0100   0.0029   0.0018  -0.0026   0.43    4.9
2270 194711.600   35.165334213  136.881361839    41.4705   1  18   0.0047   0.0046   0.0100   0.0029   0.0018  -0.0026   0.63    5.1
2270 194711.800   35.165331565  136.881360144    41.4728   1  18   0.0047   0.0046   0.0101   0.0029   0.0019  -0.0026   0.82    5.0
2270 194712.000   35.165328813  136.881358375    41.4756   1  18   0.0046   0.0046   0.0099   0.0028   0.0018  -0.0026   0.03    5.1
2270 194712.200   35.165325919  136.881356534    41.4775   1  18   0.0046   0.0046   0.0099   0.0028   0.0018  -0.0026   0.22    5.9
2270 194712.400   35.165322873  136.881354763    41.4730   1  18   0.0046   0.0046   0.0100   0.0029   0.0018  -0.0026   0.43    6.9
2270 194712.600   35.165319726  136.881352968    41.4697   1  18   0.0047   0.0046   0.0100   0.0029   0.0018  -0.0026   0.63    4.7
2270 194712.800   35.165316510  136.881350981    41.4730   1  18   0.0047   0.0046   0.0101   0.0029   0.0019  -0.0026   0.82    5.7
2270 194713.000   35.165313193  136.881348850    41.4601   1  18   0.0046   0.0046   0.0099   0.0028   0.0018  -0.0026   0.03    5.5
2270 194713.200   35.165309883  136.881346661    41.4628   1  18   0.0046   0.0046   0.0099   0.0028   0.0018  -0.0026   0.22    5.1
2270 194713.400   35.165306572  136.881344209    41.4649   1  18   0.0046   0.0046   0.0100   0.0028   0.0018  -0.0026   0.43    4.2
2270 194713.600   35.165303258  136.881341633    41.4588   1  18   0.0047   0.0046   0.0100   0.0029   0.0018  -0.0026   0.63    4.7
2270 194713.800   35.165299899  136.881338971    41.4600   1  18   0.0047   0.0046   0.0101   0.0029   0.0019  -0.0026   0.82    4.8
2270 194714.000   35.165296646  136.881335978    41.4552   1  18   0.0046   0.0046   0.0099   0.0028   0.0018  -0.0026   0.03    4.6
2270 194714.200   35.165293564  136.881332763    41.4459   1  18   0.0046   0.0046   0.0099   0.0028   0.0018  -0.0026   0.22    4.2
2270 194714.400   35.165290625  136.881329112    41.4398   1  18   0.0046   0.0046   0.0100   0.0028   0.0018  -0.0026   0.43    4.2
2270 194714.600   35.165287687  136.881325220    41.4308   1  18   0.0047   0.0046   0.0100   0.0029   0.0018  -0.0026   0.63    4.5
2270 194714.800   35.165284936  136.881321069    41.4304   1  18   0.0047   0.0046   0.0101   0.0029   0.0019  -0.0026   0.82    4.6
2270 194715.000   35.165282396  136.881316525    41.4246   1  18   0.0046   0.0046   0.0099   0.0028   0.0018  -0.0026   0.03    5.3
2270 194715.200   35.165280015  136.881311766    41.4139   1  18   0.0046   0.0046   0.0099   0.0028   0.0018  -0.0026   0.22    4.9
2270 194715.400   35.165277852  136.881306750    41.4099   1  18   0.0046   0.0046   0.0100   0.0028   0.0018  -0.0026   0.43    4.5
2270 194715.600   35.165275898  136.881301554    41.4082   1  18   0.0047   0.0046   0.0100   0.0029   0.0018  -0.0026   0.63    4.4
2270 194715.800   35.165274285  136.881296392    41.4076   1  18   0.0047   0.0046   0.0101   0.0029   0.0019  -0.0026   0.82    4.1
2270 194716.000   35.165272876  136.881291158    41.4088   1  18   0.0046   0.0046   0.0099   0.0028   0.0018  -0.0026   0.03    6.2
2270 194716.200   35.165271791  136.881285812    41.4088   1  18   0.0046   0.0046   0.0099   0.0028   0.0018  -0.0026   0.22    4.6
2270 194716.400   35.165270895  136.881280577    41.4086   1  18   0.0046   0.0046   0.0100   0.0028   0.0018  -0.0026   0.43    3.9
2270 194716.600   35.165270158  136.881275354    41.4060   1  18   0.0047   0.0046   0.0100   0.0029   0.0018  -0.0026   0.63    4.3
2270 194716.800   35.165269570  136.881270111    41.4015   1  18   0.0047   0.0046   0.0101   0.0029   0.0019  -0.0026   0.82    3.3
2270 194717.000   35.165269118  136.881264896    41.4028   1  18   0.0046   0.0046   0.0099   0.0028   0.0018  -0.0026   0.03    4.0
2270 194717.200   35.165268734  136.881259788    41.4005   1  18   0.0046   0.0046   0.0099   0.0028   0.0018  -0.0026   0.22    3.8
2270 194717.400   35.165268398  136.881254677    41.4000   1  18   0.0046   0.0046   0.0100   0.0028   0.0018  -0.0026   0.43    4.1
2270 194717.600   35.165268114  136.881249660    41.3971   1  18   0.0047   0.0046   0.0100   0.0029   0.0018  -0.0026   0.63    4.1
2270 194717.800   35.165267949  136.881244671    41.4005   1  18   0.0047   0.0046   0.0101   0.0029   0.0019  -0.0026   0.82    4.2
2270 194718.000   35.165267858  136.881239778    41.4040   1  18   0.0046   0.0046   0.0099   0.0028   0.0018  -0.0026   0.03    4.1
2270 194718.200   35.165267821  136.881234940    41.3936   1  18   0.0046   0.0046   0.0099   0.0028   0.0018  -0.0026   0.22    4.4
2270 194718.400   35.165267880  136.881229984    41.3928   1  18   0.0046   0.0046   0.0100   0.0028   0.0018  -0.0026   0.43    4.3
2270 194718.600   35.165267906  136.881224890    41.3934   1  18   0.0047   0.0046   0.0100   0.0029   0.0018  -0.0026   0.63    4.0
2270 194718.800   35.165268037  136.881219685    41.3943   1  18   0.0047   0.0046   0.0101   0.0029   0.0019  -0.0026   0.82    4.4
2270 194719.000   35.165268312  136.881214391    41.4070   1  18   0.0046   0.0046   0.0099   0.0028   0.0018  -0.0026   0.03    4.8
2270 194719.200   35.165268673  136.881208984    41.4099   1  18   0.0046   0.0046   0.0099   0.0028   0.0018  -0.0026   0.22    5.3
2270 194719.400   35.165269115  136.881203548    41.4176   1  18   0.0046   0.0046   0.0100   0.0028   0.0018  -0.0026   0.43    4.4
2270 194719.600   35.165269615  136.881198175    41.4268   1  18   0.0047   0.0046   0.0100   0.0029   0.0018  -0.0026   0.63    4.0
2270 194719.800   35.165270211  136.881192843    41.4278   1  18   0.0047   0.0046   0.0101   0.0029   0.0019  -0.0026   0.82    3.9
2270 194720.000   35.165270871  136.881187584    41.4287   1  18   0.0046   0.0046   0.0099   0.0028   0.0018  -0.0026   0.03    4.3
2270 194720.200   35.165271598  136.881182455    41.4285   1  17   0.0052   0.0050   0.0108   0.0036  -0.0022  -0.0041   0.22    5.3
2270 194720.400   35.165272394  136.881177431    41.4369   1  17   0.0052   0.0050   0.0109   0.0036  -0.0022  -0.0041   0.43    4.8
2270 194720.600   35.165273217  136.881172496    41.4307   1  17   0.0053   0.0050   0.0109   0.0036  -0.0022  -0.0042   0.63    4.6
2270 194720.800   35.165273904  136.881167529    41.4306   1  17   0.0053   0.0050   0.0110   0.0036  -0.0022  -0.0042   0.82    4.5
2270 194721.000   35.165274598  136.881162668    41.4323   1  17   0.0052   0.0050   0.0108   0.0036  -0.0022  -0.0041   0.03    5.0
2270 194721.200   35.165275305  136.881157862    41.4335   1  17   0.0052   0.0050   0.0108   0.0036  -0.0022  -0.0041   0.22    6.1
2270 194721.400   35.165275911  136.881153105    41.4322   1  17   0.0052   0.0050   0.0109   0.0036  -0.0022  -0.0041   0.43    4.4
2270 194721.600   35.165276497  136.881148429    41.4357   1  17   0.0053   0.0050   0.0109   0.0036  -0.0022  -0.0042   0.63    4.7
2270 194721.800   35.165276954  136.881143896    41.4393   1  17   0.0053   0.0050   0.0110   0.0036  -0.0022  -0.0042   0.82    5.2
2270 194722.000   35.165277284  136.881139477    41.4355   1  17   0.0052   0.0050   0.0108   0.0036  -0.0022  -0.0041   0.03    4.9
2270 194722.200   35.165277614  136.881135114    41.4310   1  17   0.0052   0.0050   0.0108   0.0036  -0.0022  -0.0041   0.22    5.4
2270 194722.400   35.165277908  136.881130830    41.4355   1  17   0.0052   0.0050   0.0109   0.0036  -0.0022  -0.0041   0.43    5.6
2270 194722.600   35.165278192  136.881126571    41.4398   1  17   0.0052   0.0050   0.0109   0.0036  -0.0022  -0.0042   0.63    5.3
2270 194722.800   35.165278366  136.881122412    41.4439   1  17   0.0053   0.0050   0.0110   0.0036  -0.0022  -0.0042   0.82    4.8
2270 194723.000   35.165278373  136.881118361    41.4412   1  17   0.0052   0.0050   0.0108   0.0036  -0.0022  -0.0041   0.03    5.8
2270 194723.200   35.165278215  136.881114665    41.4308   1  16   0.0053   0.0056   0.0116   0.0039  -0.0038  -0.0046   0.22    5.7
2270 194723.400   35.165278041  136.881111030    41.4311   1  16   0.0053   0.0056   0.0116   0.0039  -0.0039  -0.0047   0.43    4.9
2270 194723.600   35.165277784  136.881107479    41.4477   1  17   0.0052   0.0050   0.0109   0.0036  -0.0022  -0.0042   0.63    4.6
2270 194723.800   35.165277429  136.881104194    41.4421   1  17   0.0053   0.0050   0.0110   0.0036  -0.0022  -0.0042   0.82    4.0
2270 194724.000   35.165277001  136.881100909    41.4386   1  17   0.0052   0.0050   0.0108   0.0036  -0.0022  -0.0041   0.03    5.4
2270 194724.200   35.165276426  136.881097740    41.4339   1  17   0.0052   0.0050   0.0108   0.0036  -0.0022  -0.0041   0.22    5.3
2270 194724.400   35.165275846  136.881094759    41.4262   1  17   0.0052   0.0050   0.0109   0.0036  -0.0022  -0.0041   0.43    5.4
2270 194724.600   35.165275104  136.881091799    41.4292   1  17   0.0052   0.0050   0.0109   0.0036  -0.0022  -0.0042   0.63    6.7
2270 194724.800   35.165274210  136.881088995    41.4221   1  17   0.0053   0.0050   0.0110   0.0036  -0.0022  -0.0042   0.82    5.1
2270 194725.000   35.165273312  136.881086299    41.4216   1  17   0.0052   0.0050   0.0108   0.0036  -0.0022  -0.0041   0.03    6.8
2270 194725.200   35.165272221  136.881083770    41.4111   1  17   0.0052   0.0050   0.0108   0.0036  -0.0022  -0.0041   0.22    5.3
2270 194725.400   35.165271038  136.881081458    41.4114   1  17   0.0052   0.0050   0.0109   0.0036  -0.0022  -0.0041   0.43    5.6
2270 194725.600   35.165269680  136.881079226    41.4054   1  16   0.0054   0.0056   0.0116   0.0040  -0.0039  -0.0047   0.63    5.5
2270 194725.800   35.165268418  136.881077140    41.4142   1  16   0.0054   0.0056   0.0117   0.0040  -0.0039  -0.0047   0.82    5.9
2270 194726.000   35.165267024  136.881075129    41.4028   1  17   0.0052   0.0050   0.0108   0.0036  -0.0022  -0.0041   0.03    5.7
2270 194726.200   35.165265534  136.881073239    41.3999   1  17   0.0052   0.0050   0.0108   0.0036  -0.0022  -0.0041   0.22    4.7
2270 194726.400   35.165264022  136.881071504    41.3909   1  17   0.0052   0.0050   0.0109   0.0036  -0.0022  -0.0041   0.43    5.2
2270 194726.600   35.165262435  136.881069773    41.3851   1  17   0.0052   0.0050   0.0109   0.0036  -0.0022  -0.0042   0.63    5.6
2270 194726.800   35.165260753  136.881068210    41.3884   1  17   0.0053   0.0050   0.0110   0.0036  -0.0022  -0.0042   0.82    5.6
2270 194727.000   35.165259024  136.881066626    41.3857   1  17   0.0052   0.0050   0.0108   0.0036  -0.0022  -0.0041   0.03    5.7
2270 194727.200   35.165257328  136.881065206    41.3783   1  17   0.0052   0.0050   0.0108   0.0036  -0.0022  -0.0041   0.22    4.8
2270 194727.400   35.165255568  136.881063859    41.3823   1  17   0.0052   0.0050   0.0109   0.0036  -0.0022  -0.0041   0.43    5.4
2270 194727.600   35.165253747  136.881062609    41.3901   1  17   0.0052   0.0050   0.0109   0.0036  -0.0022  -0.0042   0.63    4.7
2270 194727.800   35.165252036  136.881061588    41.3760   1  17   0.0053   0.0050   0.0110   0.0036  -0.0022  -0.0042   0.82    7.9
2270 194728.000   35.165250425  136.881060681    41.3722   1  16   0.0053   0.0056   0.0116   0.0039  -0.0038  -0.0046   0.03    5.6
2270 194728.200   35.165248839  136.881059774    41.3649   1  17   0.0052   0.0050   0.0108   0.0036  -0.0022  -0.0041   0.22    6.1
2270 194728.400   35.165247190  136.881059185    41.3577   1  17   0.0052   0.0050   0.0109   0.0036  -0.0022  -0.0041   0.43    5.7
2270 194728.600   35.165245769  136.881058653    41.3522   1  17   0.0052   0.0050   0.0109   0.0036  -0.0022  -0.0042   0.63    5.9
2270 194728.800   35.165244361  136.881058046    41.3512   1  17   0.0053   0.0050   0.0110   0.0036  -0.0022  -0.0042   0.82    5.6
2270 194729.000   35.165242999  136.881057327    41.3489   1  17   0.0052   0.0050   0.0108   0.0036  -0.0022  -0.0041   0.03    7.1
2270 194729.200   35.165241528  136.881056668    41.3430   1  17   0.0052   0.0050   0.0108   0.0036  -0.0022  -0.0041   0.22    6.7
2270 194729.400   35.165239857  136.881056172    41.3267   1  17   0.0052   0.0050   0.0109   0.0036  -0.0022  -0.0041   0.43    5.5
2270 194729.600   35.165238065  136.881055526    41.3336   1  17   0.0052   0.0050   0.0109   0.0036  -0.0022  -0.0042   0.63    6.2
2270 194729.800   35.165236246  136.881054986    41.3257   1  17   0.0053   0.0050   0.0110   0.0036  -0.0022  -0.0042   0.82    6.1
2270 194730.000   35.165234457  136.881054574    41.3178   1  17   0.0052   0.0050   0.0108   0.0036  -0.0022  -0.0041   0.03    6.3
2270 194730.200   35.165232682  136.881054028    41.3221   1  17   0.0052   0.0050   0.0108   0.0036  -0.0022  -0.0041   0.22    5.6
2270 194730.400   35.165231004  136.881053523    41.3214   1  17   0.0052   0.0050   0.0109   0.0036  -0.0022  -0.0041   0.43    5.9
2270 194730.600   35.165229414  136.881053173    41.3102   1  17   0.0052   0.0050   0.0109   0.0036  -0.0022  -0.0042   0.63    5.5
2270 194730.800   35.165227955  136.881052799    41.3124   1  17   0.0054   0.0054   0.0116   0.0039  -0.0036  -0.0046   0.82    5.2
2270 194731.000   35.165226566  136.881052339    41.3101   1  17   0.0052   0.0050   0.0108   0.0036  -0.0022  -0.0041   0.03    6.4
2270 194731.200   35.165225343  136.881051960    41.3037   1  17   0.0052   0.0050   0.0108   0.0036  -0.0022  -0.0041   0.22    6.3
2270 194731.400   35.165224162  136.881051774    41.2835   1  17   0.0052   0.0050   0.0109   0.0036  -0.0022  -0.0041   0.43    4.4
2270 194731.600   35.165223016  136.881051502    41.2864   1  17   0.0052   0.0050   0.0109   0.0036  -0.0022  -0.0042   0.63    5.3
2270 194731.800   35.165221923  136.881051172    41.2829   1  17   0.0053   0.0050   0.0110   0.0036  -0.0022  -0.0042   0.82    7.3
2270 194732.000   35.165220887  136.881050842    41.2590   1  17   0.0052   0.0050   0.0108   0.0036  -0.0022  -0.0041   0.03    5.8
2270 194732.200   35.165219747  136.881050576    41.2577   1  17   0.0052   0.0050   0.0108   0.0036  -0.0022  -0.0041   0.22    5.9
2270 194732.400   35.165218656  136.881050411    41.2641   1  17   0.0052   0.0050   0.0109   0.0036  -0.0022  -0.0041   0.43    4.6
2270 194732.600   35.165217611  136.881050118    41.2480   1  17   0.0052   0.0050   0.0109   0.0036  -0.0022  -0.0042   0.63    8.0
2270 194732.800   35.165216546  136.881049847    41.2347   1  17   0.0053   0.0050   0.0110   0.0036  -0.0022  -0.0042   0.82    5.1
2270 194733.000   35.165215566  136.881049734    41.2177   1  17   0.0052   0.0050   0.0108   0.0036  -0.0022  -0.0041   0.03    5.5
2270 194733.200   35.165214588  136.881049430    41.2212   1  17   0.0052   0.0050   0.0108   0.0036  -0.0022  -0.0041   0.22    7.8
2270 194733.400   35.165213776  136.881049319    41.2041   1  17   0.0052   0.0050   0.0109   0.0036  -0.0022  -0.0041   0.43    4.9
2270 194733.600   35.165213029  136.881049221    41.2086   1  17   0.0052   0.0050   0.0109   0.0036  -0.0022  -0.0042   0.63    4.5
2270 194733.800   35.165212446  136.881049093    41.1922   1  17   0.0053   0.0050   0.0110   0.0036  -0.0022  -0.0042   0.82    4.8
2270 194734.000   35.165212020  136.881048995    41.1880   1  17   0.0052   0.0050   0.0108   0.0036  -0.0022  -0.0041   0.03    6.2
2270 194734.200   35.165211705  136.881048951    41.1873   1  17   0.0052   0.0050   0.0108   0.0036  -0.0022  -0.0041   0.22    6.4
2270 194734.400   35.165211625  136.881048950    41.1876   1  16   0.0052   0.0052   0.0110   0.0035  -0.0028  -0.0041   0.43    6.7
2270 194734.600   35.165211667  136.881048951    41.1913   1  16   0.0053   0.0052   0.0111   0.0035  -0.0028  -0.0041   0.63    5.8
2270 194734.800   35.165211656  136.881048951    41.1915   1  16   0.0053   0.0053   0.0111   0.0035  -0.0028  -0.0041   0.82    5.4
2270 194735.000   35.165211668  136.881048958    41.1848   1  16   0.0052   0.0052   0.0110   0.0035  -0.0028  -0.0041   0.03    6.3
2270 194735.200   35.165211662  136.881048976    41.1898   1  16   0.0052   0.0052   0.0110   0.0035  -0.0028  -0.0041   0.22    6.2
2270 194735.400   35.165211662  136.881048943    41.1910   1  16   0.0052   0.0052   0.0110   0.0035  -0.0028  -0.0041   0.43    5.4
2270 194735.600   35.165211659  136.881048951    41.1937   1  16   0.0053   0.0052   0.0111   0.0035  -0.0028  -0.0041   0.63    6.0
2270 194735.800   35.165211644  136.881048955    41.1927   1  16   0.0053   0.0053   0.0111   0.0035  -0.0028  -0.0041   0.82    6.1
2270 194736.000   35.165211667  136.881048938    41.1920   1  16   0.0052   0.0052   0.0110   0.0035  -0.0028  -0.0041   0.03    6.1
2270 194736.200   35.165211674  136.881048964    41.1906   1  16   0.0052   0.0052   0.0110   0.0035  -0.0028  -0.0041   0.22    5.8
2270 194736.400   35.165211674  136.881048961    41.1923   1  16   0.0052   0.0052   0.0110   0.0035  -0.0028  -0.0041   0.43    6.1
2270 194736.600   35.165211676  136.881048952    41.1937   1  16   0.0053   0.0052   0.0111   0.0035  -0.0028  -0.0041   0.63    6.4
2270 194736.800   35.165211671  136.881048931    41.1931   1  16   0.0053   0.0053   0.0111   0.0035  -0.0028  -0.0041   0.82    6.1
2270 194737.000   35.165211655  136.881048949    41.1965   1  16   0.0052   0.0052   0.0110   0.0035  -0.0028  -0.0041   0.03    5.5
2270 194737.200   35.165211658  136.881048936    41.1952   1  16   0.0052   0.0052   0.0110   0.0035  -0.0028  -0.0041   0.22    5.6
2270 194737.400   35.165211627  136.881048908    41.1958   1  16   0.0052   0.0052   0.0110   0.0035  -0.0028  -0.0041   0.43    6.2
2270 194737.600   35.165211542  136.881048929    41.1902   1  16   0.0053   0.0052   0.0111   0.0035  -0.0028  -0.0041   0.63    6.2
2270 194737.800   35.165211526  136.881048935    41.1871   1  16   0.0053   0.0053   0.0111   0.0035  -0.0028  -0.0041   0.82    6.5
2270 194738.000   35.165211559  136.881048943    41.1828   1  16   0.0052   0.0052   0.0110   0.0035  -0.0027  -0.0041   0.03    5.7
2270 194738.200   35.165211543  136.881048932    41.1870   1  15   0.0053   0.0053   0.0110   0.0036  -0.0028  -0.0041   0.22    6.6
2270 194738.400   35.165211561  136.881048931    41.1839   1  15   0.0053   0.0053   0.0111   0.0036  -0.0029  -0.0042   0.43    6.5
2270 194738.600   35.165211550  136.881048928    41.1865   1  15   0.0053   0.0053   0.0111   0.0036  -0.0029  -0.0042   0.63    6.9
2270 194738.800   35.165211565  136.881048946    41.1842   1  15   0.0054   0.0053   0.0112   0.0036  -0.0029  -0.0042   0.82    6.2
2270 194739.000   35.165211542  136.881048919    41.1844   1  15   0.0053   0.0053   0.0110   0.0036  -0.0028  -0.0041   0.03    6.1
2270 194739.200   35.165211533  136.881048914    41.1847   1  16   0.0052   0.0052   0.0110   0.0035  -0.0027  -0.0041   0.22    6.1
2270 194739.400   35.165211538  136.881048940    41.1844   1  16   0.0052   0.0052   0.0110   0.0035  -0.0028  -0.0041   0.43    6.0
2270 194739.600   35.165211534  136.881048942    41.1826   1  16   0.0053   0.0052   0.0111   0.0035  -0.0028  -0.0041   0.63    6.7
2270 194739.800   35.165211531  136.881048942    41.1799   1  16   0.0053   0.0053   0.0111   0.0035  -0.0028  -0.0041   0.82    6.6
2270 194740.000   35.165211547  136.881048940    41.1819   1  16   0.0052   0.0052   0.0110   0.0035  -0.0027  -0.0041   0.03    6.3
2270 194740.200   35.165211548  136.881048952    41.1842   1  16   0.0052   0.0052   0.0110   0.0035  -0.0027  -0.0041   0.22    5.6
2270 194740.400   35.165211550  136.881048958    41.1831   1  15   0.0053   0.0053   0.0111   0.0036  -0.0029  -0.0042   0.43    5.5
2270 194740.600   35.165211528  136.881048919    41.1843   1  16   0.0053   0.0052   0.0111   0.0035  -0.0028  -0.0041   0.63    5.2
2270 194740.800   35.165211538  136.881048925    41.1848   1  15   0.0054   0.0053   0.0112   0.0036  -0.0029  -0.0042   0.82    5.4
2270 194741.000   35.165211543  136.881048908    41.1880   1  15   0.0053   0.0053   0.0110   0.0036  -0.0028  -0.0041   0.03    7.7
2270 194741.200   35.165211536  136.881048899    41.1890   1  15   0.0053   0.0053   0.0110   0.0036  -0.0028  -0.0041   0.22    7.3
2270 194741.400   35.165211557  136.881048882    41.1839   1  16   0.0052   0.0052   0.0110   0.0035  -0.0027  -0.0041   0.43    8.3
2270 194741.600   35.165211545  136.881048878    41.1896   1  16   0.0053   0.0052   0.0111   0.0035  -0.0028  -0.0041   0.63    6.9
2270 194741.800   35.165211546  136.881048896    41.1864   1  16   0.0053   0.0053   0.0111   0.0035  -0.0028  -0.0041   0.82    6.9
2270 194742.000   35.165211545  136.881048911    41.1836   1  16   0.0052   0.0052   0.0110   0.0035  -0.0027  -0.0041   0.03    6.2
2270 194742.200   35.165211555  136.881048905    41.1823   1  16   0.0052   0.0052   0.0110   0.0035  -0.0027  -0.0041   0.22    5.6
2270 194742.400   35.165211568  136.881048925    41.1842   1  16   0.0052   0.0052   0.0110   0.0035  -0.0027  -0.0041   0.43    5.8
2270 194742.600   35.165211556  136.881048926    41.1823   1  16   0.0053   0.0052   0.0111   0.0035  -0.0028  -0.0041   0.63    5.4
2270 194742.800   35.165211571  136.881048908    41.1803   1  16   0.0053   0.0053   0.0111   0.0035  -0.0028  -0.0041   0.82    5.6
2270 194743.000   35.165211549  136.881048922    41.1814   1  16   0.0052   0.0052   0.0110   0.0035  -0.0027  -0.0041   0.03    6.0
2270 194743.200   35.165211548  136.881048902    41.1802   1  16   0.0052   0.0052   0.0110   0.0035  -0.0027  -0.0041   0.22    5.9
2270 194743.400   35.165211544  136.881048913    41.1819   1  16   0.0052   0.0052   0.0110   0.0035  -0.0027  -0.0041   0.43    6.3
2270 194743.600   35.165211554  136.881048919    41.1807   1  16   0.0053   0.0052   0.0111   0.0035  -0.0028  -0.0041   0.63    5.9
2270 194743.800   35.165211537  136.881048935    41.1856   1  16   0.0053   0.0053   0.0111   0.0035  -0.0028  -0.0041   0.82    5.6
2270 194744.000   35.165211566  136.881048923    41.1817   1  16   0.0052   0.0052   0.0110   0.0035  -0.0027  -0.0041   0.03    6.2
2270 194744.200   35.165211547  136.881048919    41.1845   1  15   0.0053   0.0053   0.0110   0.0036  -0.0028  -0.0041   0.22    6.5
2270 194744.400   35.165211551  136.881048947    41.1849   1  15   0.0053   0.0053   0.0111   0.0036  -0.0028  -0.0042   0.43    5.9
2270 194744.600   35.165211542  136.881048970    41.1814   1  15   0.0053   0.0053   0.0111   0.0036  -0.0029  -0.0042   0.63    5.4
2270 194744.800   35.165211552  136.881048936    41.1811   1  15   0.0054   0.0053   0.0112   0.0036  -0.0029  -0.0042   0.82    5.3
2270 194745.000   35.165211544  136.881048960    41.1799   1  15   0.0053   0.0053   0.0110   0.0036  -0.0028  -0.0041   0.03    5.6
2270 194745.200   35.165211532  136.881048947    41.1843   1  15   0.0053   0.0053   0.0110   0.0036  -0.0028  -0.0041   0.22    5.6
2270 194745.400   35.165211541  136.881048966    41.1800   1  16   0.0052   0.0052   0.0110   0.0035  -0.0027  -0.0041   0.43    5.8
2270 194745.600   35.165211546  136.881048958    41.1817   1  16   0.0053   0.0052   0.0111   0.0035  -0.0027  -0.0041   0.63    5.0
2270 194745.800   35.165211547  136.881048944    41.1801   1  16   0.0053   0.0053   0.0111   0.0035  -0.0028  -0.0041   0.82    4.8
2270 194746.000   35.165211534  136.881048937    41.1850   1  14   0.0056   0.0052   0.0115   0.0035  -0.0028  -0.0048   0.03    6.6
2270 194746.200   35.165211558  136.881048970    41.1824   1  14   0.0056   0.0052   0.0115   0.0035  -0.0028  -0.0048   0.22    6.1
2270 194746.400   35.165211547  136.881048965    41.1856   1  14   0.0056   0.0052   0.0116   0.0036  -0.0028  -0.0048   0.43    5.7
2270 194746.600   35.165211557  136.881048956    41.1802   1  14   0.0056   0.0052   0.0116   0.0036  -0.0028  -0.0048   0.63    5.9
2270 194746.800   35.165211548  136.881048962    41.1814   1  14   0.0056   0.0053   0.0117   0.0036  -0.0029  -0.0049   0.82    5.6
2270 194747.000   35.165211490  136.881048921    41.1854   1  16   0.0052   0.0052   0.0110   0.0035  -0.0027  -0.0041   0.03    6.4
2270 194747.200   35.165211258  136.881048877    41.1893   1  16   0.0052   0.0052   0.0110   0.0035  -0.0027  -0.0041   0.22    7.4
2270 194747.400   35.165210765  136.881048815    41.1792   1  16   0.0052   0.0052   0.0110   0.0035  -0.0027  -0.0041   0.43    7.4
2270 194747.600   35.165209939  136.881048727    41.1693   1  16   0.0053   0.0052   0.0111   0.0035  -0.0027  -0.0041   0.63    4.2
2270 194747.800   35.165208822  136.881048611    41.1567   1  16   0.0053   0.0053   0.0111   0.0035  -0.0028  -0.0041   0.82    6.5
2270 194748.000   35.165207542  136.881048550    41.1496   1  16   0.0052   0.0052   0.0110   0.0035  -0.0027  -0.0041   0.03    5.9
2270 194748.200   35.165206121  136.881048481    41.1284   1  16   0.0052   0.0052   0.0110   0.0035  -0.0027  -0.0041   0.22    7.9
2270 194748.400   35.165204659  136.881048470    41.1268   1  16   0.0052   0.0052   0.0110   0.0035  -0.0027  -0.0041   0.43    5.6
2270 194748.600   35.165203109  136.881048435    41.0993   1  16   0.0052   0.0052   0.0111   0.0035  -0.0027  -0.0041   0.63    7.2
2270 194748.800   35.165201539  136.881048460    41.0706   1  15   0.0054   0.0063   0.0124   0.0040  -0.0051  -0.0048   0.82    5.4
2270 194749.000   35.165199837  136.881048362    41.0440   1  15   0.0053   0.0062   0.0122   0.0040  -0.0050  -0.0047   0.03   10.0
2270 194749.200   35.165198111  136.881048103    41.0568   1  16   0.0053   0.0056   0.0116   0.0039  -0.0038  -0.0046   0.22    5.4
2270 194749.400   35.165196472  136.881048004    41.0547   1  17   0.0052   0.0050   0.0109   0.0036  -0.0022  -0.0041   0.43    4.9
2270 194749.600   35.165194640  136.881048005    41.0281   1  17   0.0052   0.0050   0.0109   0.0036  -0.0022  -0.0042   0.63    6.9
2270 194749.800   35.165192834  136.881047915    41.0047   1  17   0.0053   0.0050   0.0110   0.0036  -0.0022  -0.0042   0.82    5.5
2270 194750.000   35.165190861  136.881047828    40.9773   1  16   0.0053   0.0056   0.0116   0.0039  -0.0038  -0.0046   0.03    7.1
2270 194750.200   35.165188850  136.881047887    40.9539   1  17   0.0052   0.0050   0.0108   0.0036  -0.0022  -0.0041   0.22    6.5
2270 194750.400   35.165186904  136.881047662    40.9596   1  17   0.0052   0.0050   0.0109   0.0036  -0.0022  -0.0041   0.43    5.6
2270 194750.600   35.165185024  136.881047410    40.9414   1  16   0.0053   0.0050   0.0112   0.0036  -0.0021  -0.0043   0.63    4.5
2270 194750.800   35.165183093  136.881047233    40.9163   1  17   0.0053   0.0050   0.0110   0.0036  -0.0022  -0.0042   0.82    4.8
2270 194751.000   35.165181074  136.881047020    40.9067   1  17   0.0052   0.0050   0.0108   0.0036  -0.0022  -0.0041   0.03    4.8
2270 194751.200   35.165179097  136.881046869    40.8958   1  16   0.0053   0.0056   0.0116   0.0039  -0.0038  -0.0046   0.22    5.4
2270 194751.400   35.165176882  136.881046608    40.8690   1  17   0.0052   0.0050   0.0109   0.0036  -0.0022  -0.0041   0.43    4.0
2270 194751.600   35.165174484  136.881046230    40.8448   1  17   0.0052   0.0050   0.0109   0.0036  -0.0022  -0.0041   0.63    4.9
2270 194751.800   35.165171904  136.881045603    40.8414   1  17   0.0053   0.0050   0.0110   0.0036  -0.0022  -0.0042   0.82    5.4
2270 194752.000   35.165169047  136.881045168    40.8169   1  17   0.0052   0.0050   0.0108   0.0036  -0.0022  -0.0041   0.03    4.9
2270 194752.200   35.165166542  136.881044205    40.7858   1  17   0.0052   0.0050   0.0108   0.0036  -0.0022  -0.0041   0.22    3.8
2270 194752.400   35.165163759  136.881042477    40.7814   1  17   0.0052   0.0050   0.0109   0.0036  -0.0022  -0.0041   0.43    4.5
2270 194752.600   35.165160883  136.881040917    40.7646   1  15   0.0056   0.0050   0.0115   0.0036  -0.0023  -0.0049   0.63    7.1
2270 194752.800   35.165157872  136.881039288    40.7621   1  17   0.0053   0.0050   0.0110   0.0036  -0.0022  -0.0042   0.82    3.9
2270 194753.000   35.165154921  136.881037179    40.7530   1  17   0.0052   0.0050   0.0108   0.0036  -0.0021  -0.0041   0.03    4.4
2270 194753.200   35.165151923  136.881034659    40.7405   1  17   0.0052   0.0050   0.0108   0.0036  -0.0021  -0.0041   0.22    4.4
2270 194753.400   35.165148919  136.881031872    40.7244   1  17   0.0052   0.0050   0.0109   0.0036  -0.0022  -0.0041   0.43    7.3
2270 194753.600   35.165145991  136.881028897    40.7100   1  16   0.0052   0.0052   0.0111   0.0035  -0.0027  -0.0041   0.63    5.6
2270 194753.800   35.165143407  136.881025064    40.7398   1  17   0.0053   0.0050   0.0110   0.0036  -0.0022  -0.0042   0.82    4.2
2270 194754.000   35.165140911  136.881021134    40.7463   1  14   0.0056   0.0052   0.0115   0.0035  -0.0028  -0.0048   0.03    2.9
2270 194754.200   35.165138653  136.881017019    40.7496   2  14   0.1958   0.1957   0.4346   0.1312  -0.1204  -0.1608   0.22    1.8
2270 194754.400   35.165136630  136.881012930    40.7387   1  12   0.0061   0.0070   0.0135   0.0034  -0.0062  -0.0051   0.43    3.4
2270 194754.600   35.165134875  136.881010803    40.4074   2  13   0.1972   0.2052   0.4464   0.1335  -0.1437  -0.1645   0.63    2.4
2270 194754.800   35.165132783  136.881003708    40.7736   1  12   0.0059   0.0068   0.0135   0.0038  -0.0062  -0.0053   0.82    3.7
2270 194755.000   35.165131099  136.880998590    40.7850   1  15   0.0054   0.0068   0.0129   0.0037  -0.0060  -0.0044   0.03    6.0
2270 194755.200   35.165129505  136.880993231    40.7901   1  13   0.0058   0.0068   0.0134   0.0038  -0.0061  -0.0052   0.22    3.1
2270 194755.400   35.165127954  136.880987919    40.7294   2  15   0.2001   0.2384   0.4897   0.1451  -0.2120  -0.1805   0.43    1.9
2270 194755.600   35.165126574  136.880982480    40.6314   2  13   0.2009   0.2437   0.4974   0.1478  -0.2219  -0.1844   0.63    1.2
2270 194755.800   35.165125483  136.880976398    40.5897   2  13   0.2018   0.2487   0.5050   0.1503  -0.2311  -0.1882   0.82    1.1
2270 194756.000   35.165124568  136.880968913    40.7995   1  13   0.0058   0.0068   0.0134   0.0038  -0.0061  -0.0052   0.03    4.7
2270 194756.200   35.165123856  136.880961664    40.8281   1  15   0.0054   0.0063   0.0123   0.0039  -0.0051  -0.0046   0.22    3.3
2270 194756.400   35.165123270  136.880954044    40.8683   2  15   0.2037   0.2613   0.5232   0.1569  -0.2534  -0.1972   0.43    1.6
2270 194756.600   35.165123148  136.880946315    40.8377   1  14   0.0055   0.0064   0.0124   0.0040  -0.0053  -0.0048   0.63    2.7
2270 194756.800   35.165123072  136.880938203    40.8303   1  13   0.0068   0.0069   0.0126   0.0051  -0.0050  -0.0042   0.82    4.6
2270 194757.000   35.165123330  136.880929744    40.8263   1  13   0.0067   0.0068   0.0124   0.0051  -0.0049  -0.0041   0.03    3.0
2270 194757.200   35.165123863  136.880921304    40.7694   1  15   0.0067   0.0082   0.0146   0.0056  -0.0077  -0.0053   0.22    8.7
2270 194757.400   35.165124632  136.880911998    40.8194   1  15   0.0066   0.0067   0.0124   0.0049  -0.0048  -0.0040   0.43    3.4
2270 194757.600   35.165125733  136.880902567    40.8615   2  14   0.2122   0.2704   0.5330   0.1689  -0.2648  -0.2056   0.63    2.1
2270 194757.800   35.165126890  136.880893380    40.8202   1  14   0.0068   0.0069   0.0126   0.0051  -0.0050  -0.0042   0.82    5.6
2270 194758.000   35.165128598  136.880883995    40.8210   1  14   0.0067   0.0068   0.0124   0.0051  -0.0049  -0.0041   0.03    4.7
2270 194758.200   35.165130056  136.880874712    40.8599   1  14   0.0066   0.0068   0.0123   0.0052  -0.0048  -0.0044   0.22    3.7
2270 194758.400   35.165131920  136.880865789    40.8580   1  14   0.0066   0.0068   0.0124   0.0052  -0.0048  -0.0044   0.43    3.6
2270 194758.600   35.165133880  136.880857024    40.8637   1  15   0.0065   0.0067   0.0124   0.0050  -0.0047  -0.0042   0.63    5.2
