% program   : RTKLIB MATLAB
% sol start : 2023/07/11 06:04:30.0 GPST
% sol end   : 2023/07/11 06:25:00.0 GPST
% pos mode  : Single
% elev mask : 30.0 deg
% ionos opt : Broadcast
% tropo opt : Saastamoinen
% ephemeris : Broadcast
% navi sys  : GPS GLONASS Galileo QZSS BDS
%
% (lat/lon/height=WGS84/ellipsoidal,Q=1:fix,2:float,3:sbas,4:dgps,5:single,6:ppp,ns=# of satellites)
%  GPST                  latitude(deg) longitude(deg)  height(m)   Q  ns   sdn(m)   sde(m)   sdu(m)  sdne(m)  sdeu(m)  sdun(m) age(s)  ratio    vn(m/s)    ve(m/s)    vu(m/s)      sdvn     sdve     sdvu    sdvne    sdveu    sdvun
2023/07/11 06:04:30.000   35.165393934  136.881442407    39.6452   5  20   3.4239   3.9531   8.3145   1.5390   1.6229  -1.1829   0.00    0.0    0.01294    0.04308    0.02656   0.09822  0.10782  0.25014  0.05434  0.05004  0.05026
2023/07/11 06:04:31.000   35.165393682  136.881442635    39.5607   5  20   3.4238   3.9532   8.3150   1.5387   1.6246  -1.1825   0.00    0.0    0.00027    0.01856   -0.00936   0.09822  0.10783  0.25016  0.05434  0.05010  0.05027
2023/07/11 06:04:32.000   35.165394228  136.881442726    39.4483   5  20   3.4237   3.9532   8.3155   1.5383   1.6264  -1.1821   0.00    0.0    0.01946   -0.02313    0.01343   0.09822  0.10783  0.25018  0.05434  0.05016  0.05029
2023/07/11 06:04:33.000   35.165393680  136.881442906    39.3624   5  20   3.4237   3.9532   8.3160   1.5380   1.6281  -1.1816   0.00    0.0    0.01080   -0.00406    0.03797   0.09822  0.10783  0.25020  0.05434  0.05022  0.05031
2023/07/11 06:04:34.000   35.165393771  136.881443343    39.4357   5  20   3.4236   3.9532   8.3166   1.5377   1.6298  -1.1812   0.00    0.0    0.02632   -0.00481   -0.01494   0.09823  0.10783  0.25021  0.05434  0.05028  0.05033
2023/07/11 06:04:35.000   35.165393773  136.881442727    39.2016   5  20   3.4235   3.9533   8.3171   1.5374   1.6316  -1.1808   0.00    0.0    0.01562    0.00944    0.01665   0.09823  0.10783  0.25023  0.05434  0.05034  0.05035
2023/07/11 06:04:36.000   35.165393898  136.881443326    39.2295   5  20   3.4234   3.9533   8.3176   1.5371   1.6333  -1.1804   0.00    0.0   -0.01606    0.03013   -0.00190   0.09823  0.10784  0.25025  0.05435  0.05040  0.05036
2023/07/11 06:04:37.000   35.165393421  136.881443466    39.2678   5  20   3.4234   3.9533   8.3182   1.5368   1.6351  -1.1800   0.00    0.0   -0.00303   -0.00837   -0.01775   0.09823  0.10784  0.25026  0.05435  0.05046  0.05038
2023/07/11 06:04:38.000   35.165392804  136.881443537    39.3533   5  20   3.4233   3.9534   8.3187   1.5365   1.6368  -1.1795   0.00    0.0    0.01142    0.00811    0.01811   0.09823  0.10784  0.25028  0.05435  0.05052  0.05040
2023/07/11 06:04:39.000   35.165392530  136.881443041    39.3566   5  20   3.4232   3.9534   8.3192   1.5362   1.6385  -1.1791   0.00    0.0    0.03034   -0.00937    0.02509   0.09823  0.10784  0.25030  0.05435  0.05058  0.05042
2023/07/11 06:04:40.000   35.165392452  136.881442460    39.4205   5  20   3.4231   3.9534   8.3197   1.5358   1.6403  -1.1787   0.00    0.0   -0.01433    0.00685   -0.03897   0.09823  0.10785  0.25032  0.05435  0.05064  0.05044
2023/07/11 06:04:41.000   35.165392053  136.881442441    39.5281   5  20   3.4231   3.9534   8.3203   1.5355   1.6420  -1.1783   0.00    0.0    0.00176   -0.00333   -0.00306   0.09823  0.10785  0.25033  0.05435  0.05070  0.05045
2023/07/11 06:04:42.000   35.165391467  136.881442381    39.5619   5  20   3.4230   3.9535   8.3208   1.5352   1.6437  -1.1779   0.00    0.0   -0.00906    0.02528   -0.03119   0.09823  0.10785  0.25035  0.05435  0.05076  0.05047
2023/07/11 06:04:43.000   35.165391827  136.881441458    39.4888   5  20   3.4229   3.9535   8.3213   1.5349   1.6454  -1.1774   0.00    0.0    0.00804   -0.01708    0.00185   0.09824  0.10785  0.25037  0.05435  0.05082  0.05049
2023/07/11 06:04:44.000   35.165391681  136.881441200    39.4852   5  20   3.4228   3.9535   8.3219   1.5346   1.6472  -1.1770   0.00    0.0    0.00384    0.00423    0.01481   0.09824  0.10786  0.25038  0.05435  0.05088  0.05051
2023/07/11 06:04:45.000   35.165391611  136.881441297    39.6056   5  20   3.4227   3.9536   8.3224   1.5343   1.6489  -1.1766   0.00    0.0   -0.01322    0.01752    0.06429   0.09824  0.10786  0.25040  0.05435  0.05094  0.05052
2023/07/11 06:04:46.000   35.165391656  136.881441585    39.6506   5  20   3.4227   3.9536   8.3229   1.5340   1.6506  -1.1762   0.00    0.0    0.00278    0.02757   -0.01865   0.09824  0.10786  0.25042  0.05435  0.05100  0.05054
2023/07/11 06:04:47.000   35.165391840  136.881441251    39.4946   5  20   3.4226   3.9536   8.3234   1.5336   1.6523  -1.1758   0.00    0.0    0.00967    0.01682   -0.01025   0.09824  0.10786  0.25043  0.05435  0.05106  0.05056
2023/07/11 06:04:48.000   35.165391657  136.881441045    39.4432   5  20   3.4225   3.9537   8.3240   1.5333   1.6541  -1.1753   0.00    0.0   -0.00079   -0.02063   -0.04611   0.09824  0.10786  0.25045  0.05435  0.05111  0.05058
2023/07/11 06:04:49.000   35.165392288  136.881440171    39.3343   5  20   3.4224   3.9537   8.3245   1.5330   1.6558  -1.1749   0.00    0.0   -0.00777   -0.00355    0.02799   0.09824  0.10787  0.25047  0.05435  0.05117  0.05059
2023/07/11 06:04:50.000   35.165392423  136.881440276    39.4113   5  20   3.4224   3.9537   8.3250   1.5327   1.6575  -1.1745   0.00    0.0    0.00744   -0.01517    0.01548   0.09824  0.10787  0.25048  0.05435  0.05123  0.05061
2023/07/11 06:04:51.000   35.165392527  136.881439272    39.1507   5  20   3.4223   3.9537   8.3256   1.5324   1.6592  -1.1741   0.00    0.0   -0.00127    0.00001    0.05571   0.09824  0.10787  0.25050  0.05435  0.05129  0.05063
2023/07/11 06:04:52.000   35.165392498  136.881438532    39.1758   5  20   3.4222   3.9538   8.3261   1.5321   1.6609  -1.1737   0.00    0.0    0.02165   -0.02870   -0.03584   0.09824  0.10787  0.25052  0.05435  0.05135  0.05065
2023/07/11 06:04:53.000   35.165391853  136.881437796    39.0200   5  20   3.4221   3.9538   8.3266   1.5318   1.6626  -1.1732   0.00    0.0   -0.01259   -0.00593   -0.00189   0.09825  0.10788  0.25053  0.05435  0.05141  0.05067
2023/07/11 06:04:54.000   35.165391270  136.881438291    39.2007   5  20   3.4221   3.9538   8.3271   1.5314   1.6644  -1.1728   0.00    0.0   -0.01419    0.02459    0.04805   0.09825  0.10788  0.25055  0.05435  0.05147  0.05068
2023/07/11 06:04:55.000   35.165390861  136.881438349    39.2035   5  20   3.4220   3.9539   8.3277   1.5311   1.6661  -1.1724   0.00    0.0   -0.00756    0.01309   -0.00564   0.09825  0.10788  0.25057  0.05435  0.05153  0.05070
2023/07/11 06:04:56.000   35.165391240  136.881438739    39.4474   5  20   3.4219   3.9539   8.3282   1.5308   1.6678  -1.1720   0.00    0.0    0.02587    0.00603   -0.03740   0.09825  0.10788  0.25058  0.05435  0.05158  0.05072
2023/07/11 06:04:57.000   35.165390875  136.881438300    39.3639   5  20   3.4218   3.9539   8.3287   1.5305   1.6695  -1.1716   0.00    0.0   -0.01435   -0.02654    0.01494   0.09825  0.10789  0.25060  0.05435  0.05164  0.05074
2023/07/11 06:04:58.000   35.165390344  136.881437490    39.2679   5  20   3.4217   3.9540   8.3293   1.5302   1.6712  -1.1712   0.00    0.0    0.01157   -0.00238    0.04314   0.09825  0.10789  0.25062  0.05435  0.05170  0.05075
2023/07/11 06:04:59.000   35.165391060  136.881437278    39.0989   5  20   3.4217   3.9540   8.3298   1.5299   1.6729  -1.1707   0.00    0.0   -0.00319    0.02597   -0.02972   0.09825  0.10789  0.25063  0.05435  0.05176  0.05077
2023/07/11 06:05:00.000   35.165390700  136.881437346    39.0572   5  20   3.4216   3.9540   8.3303   1.5295   1.6746  -1.1703   0.00    0.0    0.00749    0.00088   -0.04985   0.09825  0.10789  0.25065  0.05435  0.05182  0.05079
2023/07/11 06:05:01.000   35.165390594  136.881437078    39.1958   5  20   3.4215   3.9540   8.3309   1.5292   1.6763  -1.1699   0.00    0.0    0.01293   -0.01344   -0.00826   0.09825  0.10790  0.25067  0.05435  0.05188  0.05081
2023/07/11 06:05:02.000   35.165390703  136.881436616    39.1696   5  20   3.4214   3.9541   8.3314   1.5289   1.6780  -1.1695   0.00    0.0    0.00908   -0.01312    0.05455   0.09826  0.10790  0.25068  0.05435  0.05193  0.05082
2023/07/11 06:05:03.000   35.165390109  136.881436673    39.1047   5  20   3.4214   3.9541   8.3319   1.5286   1.6797  -1.1691   0.00    0.0   -0.02180    0.03810    0.00384   0.09826  0.10790  0.25070  0.05435  0.05199  0.05084
2023/07/11 06:05:04.000   35.165390241  136.881437013    39.1199   5  20   3.4213   3.9541   8.3325   1.5283   1.6814  -1.1687   0.00    0.0    0.02211    0.01046    0.03584   0.09826  0.10790  0.25072  0.05435  0.05205  0.05086
2023/07/11 06:05:05.000   35.165387067  136.881438329    40.2583   5  19   3.5742   3.9944   8.7567   1.3227   2.0869  -2.0368   0.00    0.0    0.03180   -0.26500    0.05979   0.10371  0.10867  0.26798  0.05026  0.06273 -0.02346
2023/07/11 06:05:06.000   35.165391262  136.881432554    39.2109   5  20   3.4211   3.9542   8.3335   1.5276   1.6848  -1.1678   0.00    0.0   -0.04488   -0.38273    0.00525   0.09826  0.10791  0.25075  0.05435  0.05217  0.05089
2023/07/11 06:05:07.000   35.165391191  136.881428205    39.4622   5  20   3.4211   3.9542   8.3340   1.5273   1.6865  -1.1674   0.00    0.0   -0.05912   -0.46451    0.12643   0.09826  0.10791  0.25077  0.05435  0.05222  0.05091
2023/07/11 06:05:08.000   35.165389499  136.881421609    39.7586   5  20   3.4210   3.9543   8.3346   1.5270   1.6882  -1.1670   0.00    0.0   -0.26866   -0.66919   -0.12362   0.09826  0.10791  0.25078  0.05436  0.05228  0.05093
2023/07/11 06:05:09.000   35.165385937  136.881412970    39.8234   5  20   3.4209   3.9543   8.3351   1.5267   1.6899  -1.1666   0.00    0.0   -0.44407   -0.79104    0.06467   0.09826  0.10791  0.25080  0.05436  0.05234  0.05094
2023/07/11 06:05:10.000   35.165380121  136.881403598    39.8629   5  20   3.4208   3.9543   8.3356   1.5264   1.6916  -1.1662   0.00    0.0   -0.76263   -0.83406   -0.02563   0.09826  0.10792  0.25082  0.05436  0.05240  0.05096
2023/07/11 06:05:11.000   35.165371755  136.881393131    39.4810   5  20   3.4207   3.9544   8.3362   1.5261   1.6933  -1.1657   0.00    0.0   -1.11119   -0.81938    0.00839   0.09826  0.10792  0.25083  0.05436  0.05246  0.05098
2023/07/11 06:05:12.000   35.165358276  136.881384404    39.5554   5  20   3.4207   3.9544   8.3367   1.5257   1.6950  -1.1653   0.00    0.0   -1.58322   -0.82145    0.04357   0.09827  0.10792  0.25085  0.05436  0.05251  0.05100
2023/07/11 06:05:13.000   35.165341864  136.881374725    39.8299   5  20   3.4206   3.9544   8.3372   1.5254   1.6966  -1.1649   0.00    0.0   -1.88411   -0.98267   -0.16790   0.09827  0.10792  0.25087  0.05436  0.05257  0.05101
2023/07/11 06:05:14.000   35.165324616  136.881361895    40.0599   5  20   3.4205   3.9545   8.3378   1.5251   1.6983  -1.1645   0.00    0.0   -1.77534   -1.38227   -0.02220   0.09827  0.10793  0.25088  0.05436  0.05263  0.05103
2023/07/11 06:05:15.000   35.165310381  136.881342260    39.9952   5  20   3.4204   3.9545   8.3383   1.5248   1.7000  -1.1641   0.00    0.0   -1.32151   -2.10677   -0.06602   0.09827  0.10793  0.25090  0.05436  0.05269  0.05105
2023/07/11 06:05:16.000   35.165301861  136.881316104    39.6342   5  20   3.4204   3.9545   8.3388   1.5245   1.7017  -1.1636   0.00    0.0   -0.64155   -2.38360   -0.03624   0.09827  0.10793  0.25092  0.05436  0.05274  0.05106
2023/07/11 06:05:17.000   35.165298835  136.881289202    39.5005   5  20   3.4203   3.9546   8.3394   1.5241   1.7034  -1.1632   0.00    0.0   -0.26178   -2.36960   -0.01850   0.09827  0.10793  0.25093  0.05436  0.05280  0.05108
2023/07/11 06:05:18.000   35.165297940  136.881263464    39.3089   5  20   3.4202   3.9546   8.3399   1.5238   1.7051  -1.1628   0.00    0.0   -0.03863   -2.22934    0.08218   0.09827  0.10794  0.25095  0.05436  0.05286  0.05110
2023/07/11 06:05:19.000   35.165298562  136.881238597    39.3714   5  20   3.4201   3.9546   8.3404   1.5235   1.7068  -1.1624   0.00    0.0    0.19255   -2.40789    0.06729   0.09827  0.10794  0.25096  0.05436  0.05292  0.05112
2023/07/11 06:05:20.000   35.165299639  136.881211115    39.5913   5  20   3.4201   3.9547   8.3410   1.5232   1.7084  -1.1620   0.00    0.0    0.35779   -2.40126    0.01923   0.09827  0.10794  0.25098  0.05436  0.05297  0.05113
2023/07/11 06:05:21.000   35.165294247  136.881172096    41.3424   5  19   3.7054   4.3120   8.7209   2.1841  -1.2033  -2.2311   0.00    0.0    0.35789   -2.26092   -0.00630   0.11268  0.12354  0.26751  0.07916 -0.05242 -0.04983
2023/07/11 06:05:22.000   35.165297000  136.881148878    41.2482   5  19   3.7053   4.3119   8.7216   2.1837  -1.2011  -2.2310   0.00    0.0    0.21762   -2.00234   -0.03987   0.11268  0.12354  0.26754  0.07917 -0.05238 -0.04984
2023/07/11 06:05:23.000   35.165299044  136.881128668    41.2097   5  19   3.7052   4.3119   8.7223   2.1833  -1.1989  -2.2309   0.00    0.0   -0.04534   -1.77894    0.03120   0.11268  0.12355  0.26756  0.07917 -0.05234 -0.04985
2023/07/11 06:05:24.000   35.165297775  136.881111427    41.2327   5  19   3.7050   4.3118   8.7230   2.1829  -1.1967  -2.2307   0.00    0.0   -0.29121   -1.47875    0.04305   0.11268  0.12355  0.26759  0.07917 -0.05231 -0.04985
2023/07/11 06:05:25.000   35.165282815  136.881096210    44.0098   5  18   4.0486   4.3119   9.5168   2.1940  -1.2423  -3.3445   0.00    0.0   -0.52492   -1.22815    0.00544   0.12617  0.12389  0.30045  0.08240 -0.06315 -0.10118
2023/07/11 06:05:26.000   35.165286688  136.881085267    41.2702   5  19   3.7047   4.3117   8.7243   2.1822  -1.1922  -2.2304   0.00    0.0   -0.83867   -0.88889   -0.23643   0.11269  0.12355  0.26765  0.07917 -0.05223 -0.04987
2023/07/11 06:05:27.000   35.165279437  136.881077332    41.2142   5  19   3.7046   4.3116   8.7250   2.1818  -1.1900  -2.2303   0.00    0.0   -0.96978   -0.66826   -0.09484   0.11269  0.12355  0.26768  0.07917 -0.05220 -0.04987
2023/07/11 06:05:28.000   35.165269921  136.881071370    41.4020   5  19   3.7044   4.3116   8.7257   2.1815  -1.1878  -2.2301   0.00    0.0   -0.82175   -0.37385   -0.01776   0.11269  0.12355  0.26771  0.07917 -0.05216 -0.04988
2023/07/11 06:05:29.000   35.165263018  136.881067380    41.4770   5  19   3.7043   4.3115   8.7264   2.1811  -1.1856  -2.2300   0.00    0.0   -0.79233   -0.34262    0.02864   0.11269  0.12355  0.26774  0.07917 -0.05212 -0.04989
2023/07/11 06:05:30.000   35.165254412  136.881064876    41.3434   5  19   3.7041   4.3115   8.7270   2.1807  -1.1833  -2.2299   0.00    0.0   -1.01904   -0.20245    0.05046   0.11269  0.12356  0.26777  0.07917 -0.05209 -0.04989
2023/07/11 06:05:31.000   35.165246452  136.881063103    41.4233   5  19   3.7040   4.3114   8.7277   2.1804  -1.1811  -2.2297   0.00    0.0   -0.68501   -0.10395   -0.09588   0.11269  0.12356  0.26780  0.07917 -0.05205 -0.04990
2023/07/11 06:05:32.000   35.165240821  136.881061390    41.4299   5  19   3.7038   4.3114   8.7284   2.1800  -1.1788  -2.2296   0.00    0.0   -0.63465   -0.08218   -0.16694   0.11270  0.12356  0.26783  0.07917 -0.05201 -0.04991
2023/07/11 06:05:33.000   35.165235626  136.881059937    41.0540   5  19   3.7037   4.3113   8.7291   2.1796  -1.1766  -2.2294   0.00    0.0   -0.51894   -0.12929   -0.06677   0.11270  0.12356  0.26785  0.07917 -0.05197 -0.04991
2023/07/11 06:05:34.000   35.165234500  136.881059792    40.5939   5  19   3.7035   4.3113   8.7298   2.1792  -1.1743  -2.2293   0.00    0.0   -0.18841   -0.02235   -0.07150   0.11270  0.12356  0.26788  0.07917 -0.05194 -0.04992
2023/07/11 06:05:35.000   35.165232090  136.881060326    40.7375   5  19   3.7034   4.3112   8.7304   2.1789  -1.1721  -2.2291   0.00    0.0   -0.01021    0.00439    0.00796   0.11270  0.12356  0.26791  0.07917 -0.05190 -0.04992
2023/07/11 06:05:36.000   35.165231618  136.881061109    40.7733   5  19   3.7033   4.3112   8.7311   2.1785  -1.1698  -2.2290   0.00    0.0   -0.00803    0.00598    0.05942   0.11270  0.12356  0.26794  0.07917 -0.05186 -0.04993
2023/07/11 06:05:37.000   35.165231087  136.881061583    40.7977   5  19   3.7031   4.3111   8.7318   2.1781  -1.1675  -2.2289   0.00    0.0   -0.03900   -0.03953    0.02463   0.11270  0.12357  0.26797  0.07917 -0.05183 -0.04994
2023/07/11 06:05:38.000   35.165230899  136.881061489    40.8775   5  19   3.7030   4.3111   8.7325   2.1778  -1.1652  -2.2287   0.00    0.0    0.00448   -0.04459    0.00763   0.11271  0.12357  0.26800  0.07917 -0.05179 -0.04994
2023/07/11 06:05:39.000   35.165230739  136.881061994    41.0385   5  19   3.7028   4.3110   8.7332   2.1774  -1.1629  -2.2286   0.00    0.0   -0.00402   -0.04516    0.06805   0.11271  0.12357  0.26803  0.07917 -0.05175 -0.04995
2023/07/11 06:05:40.000   35.165231347  136.881062218    40.9001   5  19   3.7027   4.3110   8.7338   2.1770  -1.1607  -2.2284   0.00    0.0   -0.00115   -0.00494    0.00847   0.11271  0.12357  0.26806  0.07917 -0.05171 -0.04996
2023/07/11 06:05:41.000   35.165231324  136.881062257    41.0717   5  19   3.7025   4.3109   8.7345   2.1766  -1.1584  -2.2283   0.00    0.0   -0.01576    0.01182    0.03333   0.11271  0.12357  0.26808  0.07917 -0.05168 -0.04996
2023/07/11 06:05:42.000   35.165231679  136.881062586    40.9547   5  19   3.7024   4.3109   8.7352   2.1763  -1.1561  -2.2282   0.00    0.0   -0.01298    0.01860   -0.00801   0.11271  0.12357  0.26811  0.07917 -0.05164 -0.04997
2023/07/11 06:05:43.000   35.165232062  136.881063400    40.8359   5  19   3.7022   4.3108   8.7359   2.1759  -1.1538  -2.2280   0.00    0.0    0.03943    0.01190   -0.00143   0.11272  0.12357  0.26814  0.07917 -0.05160 -0.04998
2023/07/11 06:05:44.000   35.165231848  136.881063896    41.0415   5  19   3.7021   4.3108   8.7366   2.1755  -1.1514  -2.2279   0.00    0.0    0.01350    0.00846   -0.01016   0.11272  0.12357  0.26817  0.07917 -0.05156 -0.04998
2023/07/11 06:05:45.000   35.165232612  136.881063721    41.0379   5  19   3.7019   4.3107   8.7373   2.1752  -1.1491  -2.2277   0.00    0.0    0.00672    0.02125   -0.04351   0.11272  0.12358  0.26820  0.07917 -0.05153 -0.04999
2023/07/11 06:05:46.000   35.165232913  136.881063960    40.9448   5  19   3.7018   4.3107   8.7379   2.1748  -1.1468  -2.2276   0.00    0.0    0.01186   -0.02120    0.02041   0.11272  0.12358  0.26823  0.07917 -0.05149 -0.05000
2023/07/11 06:05:47.000   35.165232095  136.881063420    41.1454   5  19   3.7016   4.3106   8.7386   2.1744  -1.1445  -2.2275   0.00    0.0   -0.08486   -0.05449    0.07428   0.11272  0.12358  0.26826  0.07917 -0.05145 -0.05000
2023/07/11 06:05:48.000   35.165229257  136.881063485    40.8108   5  19   3.7015   4.3106   8.7393   2.1740  -1.1421  -2.2273   0.00    0.0   -0.72371    0.03034   -0.07490   0.11272  0.12358  0.26829  0.07917 -0.05141 -0.05001
2023/07/11 06:05:49.000   35.165221540  136.881062937    40.6929   5  19   3.7013   4.3105   8.7400   2.1737  -1.1398  -2.2272   0.00    0.0   -0.95975   -0.11917   -0.23014   0.11273  0.12358  0.26831  0.07917 -0.05138 -0.05002
2023/07/11 06:05:50.000   35.165211395  136.881061489    40.7667   5  19   3.7012   4.3105   8.7407   2.1733  -1.1375  -2.2270   0.00    0.0   -1.16009   -0.01250   -0.27269   0.11273  0.12358  0.26834  0.07917 -0.05134 -0.05002
2023/07/11 06:05:51.000   35.165201691  136.881059939    40.6573   5  19   3.7011   4.3104   8.7414   2.1729  -1.1351  -2.2269   0.00    0.0   -1.11439   -0.14234    0.01453   0.11273  0.12358  0.26837  0.07917 -0.05130 -0.05003
2023/07/11 06:05:52.000   35.165179916  136.881057781    42.9785   5  18   4.0423   4.3104   9.5256   2.1798  -1.1648  -3.3331   0.00    0.0   -1.57372   -0.34662    0.05578   0.12611  0.12390  0.30085  0.08227 -0.06187 -0.10093
2023/07/11 06:05:53.000   35.165174880  136.881049273    40.5693   5  19   3.7008   4.3103   8.7427   2.1722  -1.1304  -2.2266   0.00    0.0   -1.65356   -1.00067   -0.09504   0.11273  0.12359  0.26843  0.07917 -0.05122 -0.05004
2023/07/11 06:05:54.000   35.165151424  136.881031759    43.0982   5  18   4.0418   4.3103   9.5262   2.1787  -1.1588  -3.3322   0.00    0.0   -1.40065   -1.93954    0.18550   0.12610  0.12390  0.30088  0.08226 -0.06178 -0.10091
2023/07/11 06:05:55.000   35.165151367  136.881009259    40.8847   5  19   3.7005   4.3102   8.7441   2.1714  -1.1256  -2.2263   0.00    0.0   -0.87643   -2.34408    0.13152   0.11274  0.12359  0.26849  0.07917 -0.05115 -0.05006
2023/07/11 06:05:56.000   35.165144421  136.880977977    40.9919   5  18   3.7037   4.7822   9.1724   2.0945  -2.6450  -2.1259   0.00    0.0   -0.34617   -3.01693   -0.26801   0.11283  0.13750  0.27818  0.07746 -0.08362 -0.04671
2023/07/11 06:05:57.000   35.165135660  136.880941142    43.1351   5  16   4.4249   9.4624  16.7517   4.3851 -10.8312  -5.9201   0.00    0.0    0.08720   -4.12873    0.45050   0.14804  0.29981  0.54029  0.16556 -0.35527 -0.21066
2023/07/11 06:05:58.000   35.165149083  136.880890206    41.8524   5  19   3.7000   4.3101   8.7462   2.1703  -1.1185  -2.2259   0.00    0.0    1.09186   -4.29456   -0.01785   0.11274  0.12359  0.26857  0.07917 -0.05103 -0.05008
2023/07/11 06:05:59.000   35.165157243  136.880854592    40.9255   5  19   3.6999   4.3100   8.7468   2.1699  -1.1160  -2.2258   0.00    0.0    1.03860   -3.79140   -0.19017   0.11274  0.12360  0.26860  0.07917 -0.05099 -0.05008
2023/07/11 06:06:00.000   35.165155751  136.880812520    43.6318   5  18   4.0404   4.3100   9.5282   2.1756  -1.1406  -3.3297   0.00    0.0    0.68159   -3.39373    0.14586   0.12609  0.12390  0.30097  0.08223 -0.06149 -0.10085
2023/07/11 06:06:01.000   35.165169768  136.880774822    41.5690   5  19   3.6996   4.3099   8.7482   2.1692  -1.1112  -2.2255   0.00    0.0    0.34994   -3.03239   -0.02455   0.11275  0.12360  0.26866  0.07918 -0.05092 -0.05010
2023/07/11 06:06:02.000   35.165173840  136.880741065    41.1788   5  19   3.6994   4.3098   8.7489   2.1688  -1.1088  -2.2254   0.00    0.0   -0.04538   -3.15798   -0.04436   0.11275  0.12360  0.26869  0.07918 -0.05088 -0.05011
2023/07/11 06:06:03.000   35.165171004  136.880712280    41.0120   5  19   3.6993   4.3098   8.7496   2.1684  -1.1064  -2.2252   0.00    0.0   -0.54052   -2.74463    0.01323   0.11275  0.12360  0.26872  0.07918 -0.05084 -0.05011
2023/07/11 06:06:04.000   35.165155354  136.880683944    42.4006   5  17   4.0787   4.7248  10.2373   2.4119   2.4433  -2.9939   0.00    0.0   -0.92322   -1.89134   -0.08651   0.13293  0.14427  0.32486  0.09936  0.07259 -0.07083
2023/07/11 06:06:05.000   35.165151068  136.880662444    40.0808   5  18   3.8357   4.6923   9.0933   2.5655   1.8366  -1.5628   0.00    0.0   -1.43039   -1.55779   -0.12010   0.12337  0.14425  0.28695  0.09996  0.06999  0.05021
2023/07/11 06:06:06.000   35.165131611  136.880646847    40.3627   5  18   3.8354   4.6922   9.0940   2.5651   1.8383  -1.5628   0.00    0.0   -2.61611   -1.21667    0.15310   0.12337  0.14426  0.28698  0.09996  0.07003  0.05019
2023/07/11 06:06:07.000   35.165113784  136.880661848    43.1694   5  18   3.7022   4.7795   9.1828   2.0884  -2.6353  -2.1213   0.00    0.0   -4.05406   -0.96678    0.22878   0.11285  0.13749  0.27860  0.07743 -0.08350 -0.04670
2023/07/11 06:06:08.000   35.165059456  136.880628472    39.9346   5  17   3.9690   6.1080  10.4360   3.2520  -4.0765  -2.7708   0.00    0.0   -5.32997   -0.67610   -0.35123   0.12886  0.19080  0.31966  0.12100 -0.11249 -0.05216
2023/07/11 06:06:09.000   35.165031058  136.880716605    36.6025   5  17   3.8569   8.9398  14.4262   3.5402  -9.5385  -4.0664   0.00    0.0   -6.28977   -0.94179   -0.06770   0.11817  0.25643  0.40556  0.11655 -0.26599 -0.11186
2023/07/11 06:06:10.000   35.164974076  136.880717047    36.3723   5  17   3.8567   8.9386  14.4264   3.5393  -9.5374  -4.0656   0.00    0.0   -6.98366   -1.15771    0.04024   0.11818  0.25641  0.40558  0.11655 -0.26597 -0.11187
2023/07/11 06:06:11.000   35.164881279  136.880595126    38.7586   5  16   4.1062  10.0416  14.4792   4.3561  -9.8276  -4.2732   0.00    0.0   -7.51980   -1.31697   -0.01258   0.13383  0.29532  0.40579  0.15095 -0.26260 -0.10843
2023/07/11 06:06:12.000   35.164826791  136.880645369    37.2317   5  17   3.8562   8.9361  14.4269   3.5375  -9.5350  -4.0640   0.00    0.0   -8.03337   -1.02978   -0.15198   0.11818  0.25637  0.40563  0.11655 -0.26593 -0.11188
2023/07/11 06:06:13.000   35.164734899  136.880566981    39.2361   5  17   3.9680   6.1079  10.4374   3.2505  -4.0712  -2.7705   0.00    0.0   -8.52680   -0.77882   -0.16134   0.12886  0.19081  0.31971  0.12101 -0.11228 -0.05226
2023/07/11 06:06:14.000   35.164655743  136.880573513    37.8785   5  16   3.9856   6.1080  10.7743   3.2482  -4.0589  -2.9464   0.00    0.0   -9.10922   -0.93291   -0.09496   0.12945  0.19415  0.33241  0.11917 -0.09663 -0.06213
2023/07/11 06:06:15.000   35.164570793  136.880550478    40.1727   5  17   3.7825   6.0692  11.5822   3.4924  -4.3945  -3.3688   0.00    0.0   -9.54892   -0.74890   -0.29669   0.13581  0.19250  0.37812  0.12543 -0.13900 -0.12005
2023/07/11 06:06:16.000   35.164481509  136.880534845    40.2432   5  18   3.4954   4.6802   9.3140   2.6888   1.9262  -1.1790   0.00    0.0   -9.85229   -0.70409   -0.00445   0.11727  0.14695  0.30155  0.09316  0.09100  0.03922
2023/07/11 06:06:17.000   35.164392138  136.880527557    40.1161   5  18   3.4952   4.6802   9.3150   2.6884   1.9279  -1.1798   0.00    0.0  -10.18046   -0.49795   -0.23638   0.11726  0.14695  0.30159  0.09315  0.09104  0.03917
2023/07/11 06:06:18.000   35.164293059  136.880517123    42.7935   5  18   3.5513   4.6746   9.8692   2.6755   2.0468  -1.8619   0.00    0.0  -10.65034   -0.10850    0.19203   0.12508  0.14275  0.32452  0.09436  0.07598 -0.06445
2023/07/11 06:06:19.000   35.164200784  136.880517750    40.5371   5  18   3.4947   4.6801   9.3169   2.6877   1.9313  -1.1814   0.00    0.0  -10.64849   -0.03221   -0.12411   0.11725  0.14696  0.30167  0.09314  0.09111  0.03907
2023/07/11 06:06:20.000   35.164112933  136.880538015    43.8686   5  19   3.3562   4.2853   8.9352   2.3216  -1.1116  -1.9925   0.00    0.0  -10.89656    0.10709   -0.21859   0.10997  0.12458  0.27685  0.07418 -0.03232 -0.05791
2023/07/11 06:06:21.000   35.164009645  136.880526936    41.9251   5  19   3.3561   4.2852   8.9361   2.3213  -1.1090  -1.9928   0.00    0.0  -10.89988    0.28966   -0.11321   0.10997  0.12458  0.27689  0.07418 -0.03225 -0.05793
2023/07/11 06:06:22.000   35.163909829  136.880529030    42.0431   5  19   3.3560   4.2851   8.9370   2.3210  -1.1063  -1.9931   0.00    0.0  -11.07960    0.15978   -0.01008   0.10997  0.12458  0.27692  0.07418 -0.03218 -0.05795
2023/07/11 06:06:23.000   35.163809015  136.880527801    41.4642   5  19   3.3558   4.2851   8.9379   2.3207  -1.1037  -1.9934   0.00    0.0  -11.18684    0.09347    0.00647   0.10997  0.12458  0.27696  0.07418 -0.03211 -0.05797
2023/07/11 06:06:24.000   35.163702902  136.880524473    42.3240   5  19   3.4731   4.2765   9.2246   2.3997  -1.5513  -2.4604   0.00    0.0  -11.29100   -0.10755   -0.17468   0.11963  0.12337  0.29926  0.07925 -0.05683 -0.09345
2023/07/11 06:06:25.000   35.163604119  136.880527784    40.9933   5  20   3.2877   4.2738   8.6382   2.3643  -1.3849  -1.5589   0.00    0.0  -11.61893    0.08105   -0.22052   0.10776  0.12317  0.26864  0.07689 -0.04786 -0.04336
2023/07/11 06:06:26.000   35.163490570  136.880526522    42.6509   5  19   3.4727   4.2763   9.2258   2.3989  -1.5469  -2.4602   0.00    0.0  -12.02505   -0.06623   -0.16764   0.11963  0.12337  0.29930  0.07924 -0.05673 -0.09344
2023/07/11 06:06:27.000   35.163387723  136.880530447    39.8731   5  20   3.2874   4.2736   8.6398   2.3637  -1.3808  -1.5592   0.00    0.0  -12.32528    0.11823   -0.48710   0.10776  0.12317  0.26870  0.07689 -0.04778 -0.04339
2023/07/11 06:06:28.000   35.163275862  136.880532559    39.4383   5  20   3.2873   4.2736   8.6407   2.3634  -1.3788  -1.5594   0.00    0.0  -12.53096    0.20920   -0.50125   0.10776  0.12317  0.26873  0.07689 -0.04774 -0.04340
2023/07/11 06:06:29.000   35.163162869  136.880536958    38.2693   5  19   3.4187   5.5417  10.2455   2.9830  -4.6168  -2.7572   0.00    0.0  -12.65540    0.18978   -0.91181   0.11153  0.16516  0.31060  0.09525 -0.13931 -0.07974
2023/07/11 06:06:30.000   35.163050104  136.880539147    37.3275   5  19   3.4185   5.5415  10.2459   2.9828  -4.6158  -2.7573   0.00    0.0  -12.68562    0.03475   -0.54451   0.11153  0.16516  0.31062  0.09526 -0.13928 -0.07975
2023/07/11 06:06:31.000   35.162940124  136.880563244    34.1441   5  18   3.5771   8.5857  14.3738   3.9757  -9.3491  -4.2691   0.00    0.0  -12.27753    0.89809   -0.77214   0.11450  0.25531  0.40557  0.11882 -0.26488 -0.11453
2023/07/11 06:06:32.000   35.162832519  136.880582304    33.1014   5  17   3.7574   8.5874  14.5820   4.0082  -9.3173  -3.9237   0.00    0.0  -11.99058    1.79703   -0.45729   0.12136  0.25533  0.40695  0.11961 -0.26456 -0.10853
2023/07/11 06:06:33.000   35.162726871  136.880612448    32.0661   5  15   4.9771   8.9675  15.7345   3.8581  -9.2395   1.8399   0.00    0.0  -11.87529    3.00974   -0.83571   0.14856  0.25798  0.41388  0.12695 -0.26112 -0.07321
2023/07/11 06:06:34.000   35.162609059  136.880626356    35.5538   5  17   4.0126   9.2125  16.6744   4.6782 -10.7537  -5.7957   0.00    0.0  -11.96653    3.79123   -0.61442   0.14323  0.29676  0.53673  0.16475 -0.35119 -0.20825
2023/07/11 06:06:49.000   35.161149865  136.881582029    23.6490   5   5  80.9013  22.8637  78.2159 -41.4880  40.4280 -77.8149   0.00    0.0   -0.34647    0.32434    0.38860   1.21335  0.36619  1.36911 -0.55950  0.58778 -1.15159
2023/07/11 06:06:50.000   35.161253980  136.881565770    37.1916   5   5  80.9049  22.8615  78.2176 -41.4862  40.4267 -77.8170   0.00    0.0   -0.01608   -0.02865    0.12166   1.21334  0.36621  1.36935 -0.55946  0.58793 -1.15168
2023/07/11 06:06:51.000   35.161169249  136.881580205    52.1371   5   5  80.9080  22.8591  78.2193 -41.4842  40.4253 -77.8188   0.00    0.0   -0.00023   -0.01058    0.10952   1.21333  0.36622  1.36960 -0.55943  0.58807 -1.15177
2023/07/11 06:06:52.000   35.161170457  136.881580777    49.7354   5   5  80.9113  22.8568  78.2211 -41.4822  40.4239 -77.8208   0.00    0.0    0.04249   -0.03072   -0.01552   1.21332  0.36624  1.36985 -0.55939  0.58822 -1.15186
2023/07/11 06:06:53.000   35.161163938  136.881583980    49.9543   5   5  80.9146  22.8545  78.2228 -41.4803  40.4225 -77.8227   0.00    0.0    0.00576   -0.03232   -0.10081   1.21331  0.36625  1.37009 -0.55935  0.58837 -1.15196
2023/07/11 06:06:54.000   35.161189253  136.881572199    47.1820   5   5  80.9179  22.8523  78.2245 -41.4784  40.4212 -77.8246   0.00    0.0   -0.04934   -0.00327    0.03239   1.21329  0.36627  1.37034 -0.55932  0.58852 -1.15205
2023/07/11 06:06:55.000   35.161223299  136.881558355    43.2772   5   5  80.9213  22.8500  78.2262 -41.4765  40.4198 -77.8266   0.00    0.0   -0.10002    0.03502    0.07241   1.21328  0.36628  1.37059 -0.55928  0.58866 -1.15214
2023/07/11 06:06:56.000   35.161229307  136.881554787    42.2716   5   5  80.9245  22.8477  78.2279 -41.4745  40.4184 -77.8284   0.00    0.0   -0.12644    0.01585    0.06351   1.21327  0.36630  1.37084 -0.55924  0.58881 -1.15224
2023/07/11 06:06:57.000   35.161243376  136.881547929    40.4428   5   5  80.9278  22.8454  78.2295 -41.4725  40.4170 -77.8303   0.00    0.0   -0.08768   -0.03044   -0.11086   1.21326  0.36632  1.37109 -0.55921  0.58896 -1.15233
2023/07/11 06:06:58.000   35.161253700  136.881542301    39.2616   5   5  80.9310  22.8431  78.2311 -41.4705  40.4156 -77.8321   0.00    0.0   -0.35232    0.04236    0.21020   1.21325  0.36633  1.37134 -0.55917  0.58911 -1.15242
2023/07/11 06:06:59.000   35.161268934  136.881537874    37.6048   5   6  80.9342  22.8408  78.2327 -41.4685  40.4141 -77.8339   0.00    0.0  168.84849  -29.57499 -229.17609   1.14261  0.35931  1.25503 -0.53243  0.55469 -1.05004
2023/07/11 06:07:00.000   35.161278660  136.881533589    36.0419   5   5  80.9374  22.8385  78.2343 -41.4665  40.4127 -77.8357   0.00    0.0    0.02593    0.00634    0.07031   1.21323  0.36637  1.37184 -0.55910  0.58941 -1.15261
2023/07/11 06:07:01.000   35.161298431  136.881526407    33.7395   5   5  80.9406  22.8361  78.2358 -41.4645  40.4112 -77.8375   0.00    0.0    0.08241   -0.06144   -0.08320   1.21322  0.36639  1.37208 -0.55907  0.58956 -1.15271
2023/07/11 06:07:02.000   35.161317961  136.881519523    31.5477   5   5  80.9438  22.8338  78.2373 -41.4625  40.4098 -77.8392   0.00    0.0    0.15234   -0.02332   -0.03232   1.21321  0.36640  1.37233 -0.55903  0.58971 -1.15280
2023/07/11 06:07:03.000   35.161322620  136.881518149    30.6970   5   6  80.9469  22.8315  78.2388 -41.4604  40.4083 -77.8409   0.00    0.0    0.06892    0.01564   -0.01960   1.14222  0.35933  1.25589 -0.53212  0.55516 -1.05010
2023/07/11 06:07:04.000   35.161332431  136.881513535    29.7634   5   6  80.9499  22.8291  78.2403 -41.4584  40.4068 -77.8426   0.00    0.0    0.01912   -0.01181    0.04209   1.14212  0.35934  1.25611 -0.53204  0.55527 -1.05011
2023/07/11 06:07:05.000   35.161347413  136.881508657    28.2431   5   6  80.9530  22.8268  78.2417 -41.4563  40.4053 -77.8442   0.00    0.0   -0.04133    0.02541    0.09144   1.14202  0.35934  1.25632 -0.53196  0.55539 -1.05013
2023/07/11 06:07:06.000   35.161346606  136.881508778    28.2434   5   6  80.9560  22.8244  78.2431 -41.4542  40.4037 -77.8458   0.00    0.0   -0.18945    0.02759    0.11491   1.14192  0.35935  1.25654 -0.53188  0.55551 -1.05014
2023/07/11 06:07:07.000   35.161364987  136.881500879    26.2562   5   6  80.9591  22.8221  78.2445 -41.4521  40.4022 -77.8474   0.00    0.0   -0.00967   -0.09579    0.00333   1.14183  0.35935  1.25676 -0.53180  0.55563 -1.05015
2023/07/11 06:07:08.000   35.161376091  136.881497402    25.1178   5   6  80.9621  22.8197  78.2458 -41.4500  40.4007 -77.8490   0.00    0.0    0.02033    0.03522   -0.07143   1.14173  0.35936  1.25697 -0.53172  0.55575 -1.05017
2023/07/11 06:07:09.000   35.161378603  136.881496424    24.9198   5   6  80.9650  22.8173  78.2472 -41.4478  40.3991 -77.8506   0.00    0.0   -0.16555    0.01998    0.01950   1.14163  0.35936  1.25719 -0.53165  0.55586 -1.05018
2023/07/11 06:07:10.000   35.161388032  136.881492220    23.8181   5   6  80.9680  22.8150  78.2485 -41.4457  40.3975 -77.8521   0.00    0.0    0.09052   -0.02271   -0.05934   1.14153  0.35937  1.25741 -0.53157  0.55598 -1.05020
2023/07/11 06:07:11.000   35.161388325  136.881491772    23.6863   5   6  80.9709  22.8126  78.2498 -41.4435  40.3959 -77.8536   0.00    0.0   -0.04988   -0.00694    0.09822   1.14144  0.35938  1.25763 -0.53149  0.55610 -1.05021
2023/07/11 06:07:12.000   35.161388503  136.881491681    23.8403   5   6  80.9738  22.8102  78.2510 -41.4414  40.3943 -77.8550   0.00    0.0   -0.11882   -0.00851    0.14625   1.14134  0.35938  1.25784 -0.53141  0.55622 -1.05023
2023/07/11 06:07:13.000   35.161390855  136.881491492    23.8289   5   6  80.9766  22.8078  78.2522 -41.4392  40.3927 -77.8565   0.00    0.0    0.03485    0.02088   -0.12208   1.14124  0.35939  1.25806 -0.53134  0.55634 -1.05025
2023/07/11 06:07:14.000   35.161392934  136.881491993    23.6925   5   6  80.9795  22.8054  78.2534 -41.4369  40.3910 -77.8579   0.00    0.0   -0.41948    0.27375   -0.53800   1.14114  0.35940  1.25828 -0.53126  0.55646 -1.05026
2023/07/11 06:07:15.000   35.161305923  136.881522011    31.4145   5   9  23.0750  11.5604  40.5900 -13.9581  18.1018 -29.6391   0.00    0.0   -1.76307    0.41006    0.36784   0.61271  0.31502  1.15147 -0.34494  0.48440 -0.80341
2023/07/11 06:07:16.000   35.161088024  136.881905041    37.5399   5   8  16.8973  16.1955  50.7662  13.3442 -26.4188 -26.8926   0.00    0.0   -1.15291    1.05203    1.24335   0.45975  0.39556  0.94808  0.34495 -0.55443 -0.59660
2023/07/11 06:07:17.000   35.161229460  136.881628403    41.4063   5   9  16.6060  15.6328  49.7108  13.8379 -25.5780 -27.5067   0.00    0.0   -2.13459    1.72880    0.81822   0.32284  0.37584  0.84549  0.28050 -0.50448 -0.46428
2023/07/11 06:07:18.000   35.161309705  136.881819241    24.6333   5   8   9.1546  24.0689  30.8918  13.9144  -7.2035   4.3275   0.00    0.0   -4.22992    2.87634   -0.15616   0.27319  0.58067  0.76787  0.36911 -0.48796 -0.29442
2023/07/11 06:07:19.000   35.161080750  136.881610528    47.1757   5  10   6.6790   6.4181  17.0467   2.9650  -3.7337  -7.8486   0.00    0.0   -3.51154    3.19660   -1.54573   0.23064  0.18188  0.48077  0.10293 -0.16245 -0.25911
2023/07/11 06:07:20.000   35.161117781  136.881629194    33.1638   5  14   4.2218   5.9493  12.2393   3.6345  -5.4411  -3.7798   0.00    0.0   -6.15092    3.41154    0.02303   0.14761  0.17882  0.39157  0.11890 -0.17823 -0.15394
2023/07/11 06:07:21.000   35.161041241  136.881634151    44.9730   5  13   6.1084  10.7131  20.7410   5.9529 -12.8003  -6.6631   0.00    0.0   -6.94356    5.02098   -2.46886   0.18031  0.32110  0.55781  0.18612 -0.37073 -0.20862
2023/07/11 06:07:24.000   35.160829999  136.881740007    46.2522   5  10   7.3197  13.9768  23.5413   8.8801 -14.1460  -8.1815   0.00    0.0   -8.68464    5.30844   -1.51171   0.27537  0.48376  0.62320  0.33015 -0.39952 -0.27125
2023/07/11 06:07:25.000   35.160745875  136.881787256    46.3502   5  13   5.7380  12.1579  20.5565   6.9835 -11.8943  -4.5673   0.00    0.0   -9.79430    4.29727   -0.27795   0.22355  0.42435  0.55794  0.27407 -0.38023 -0.21901
2023/07/11 06:07:26.000   35.160655364  136.881836504    40.5490   5  13   5.7374  12.1568  20.5541   6.9831 -11.8917  -4.5679   0.00    0.0  -10.21301    4.72148    0.09106   0.22352  0.42432  0.55783  0.27405 -0.38016 -0.21901
2023/07/11 06:07:27.000   35.160571128  136.881899984    43.9823   5  14   4.8738  11.8168  19.7005   6.3349 -12.5714  -6.2114   0.00    0.0  -10.67264    4.67722    0.47149   0.18521  0.39381  0.55773  0.23524 -0.37976 -0.21856
2023/07/11 06:07:28.000   35.160474106  136.881983766    35.7040   5  15   4.5742  11.2623  16.5981   5.8408 -10.9581  -4.5541   0.00    0.0  -11.06713    5.03907    0.35730   0.15885  0.35344  0.42683  0.19697 -0.28611 -0.11660
2023/07/11 06:07:29.000   35.160370284  136.882037816    35.8128   5  15   4.5739  11.2619  16.5986   5.8407 -10.9577  -4.5550   0.00    0.0  -11.38895    5.34243    0.29331   0.15885  0.35346  0.42684  0.19699 -0.28613 -0.11667
2023/07/11 06:07:30.000   35.160250950  136.882092787    29.1603   5  11   7.1856  22.5515  24.3119  10.1224 -15.9917   4.5031   0.00    0.0  -11.54079    5.01212    0.62296   0.22127  0.66270  0.64698  0.29192 -0.52282 -0.05262
2023/07/11 06:07:31.000   35.160234057  136.882189304    48.5056   5  13   5.5038   8.9870  16.4354   4.0525  -9.3933   1.9005   0.00    0.0  -12.17212    5.97662   -0.92181   0.15744  0.25764  0.42475  0.12719 -0.25780 -0.09950
2023/07/11 06:07:32.000   35.160063777  136.882138024    94.0410   5  10   9.5889   9.4696  21.1252   8.0427  -4.3527  -9.4468   0.00    0.0  -10.40561    5.48171   -1.40088   0.28010  0.29274  0.53465  0.26028 -0.13769 -0.19441
2023/07/11 06:07:33.000   35.160056120  136.882238704   -39.1603   5  10   4.8455   5.9410  27.9235   4.0606   8.9955   6.0192   0.00    0.0  -10.74088    5.82765    5.15433   0.15180  0.17329  0.62444  0.12086  0.20521  0.03419
2023/07/11 06:07:34.000   35.159826621  136.882419624    51.0198   5   9   5.8658   5.3266  17.7216  -1.7072   5.9480  -6.7418   0.00    0.0   -9.64374    4.88920    0.60684   0.20255  0.13965  0.49420 -0.03593  0.11044 -0.16636
2023/07/11 06:07:35.000   35.159742053  136.882439227    48.8379   5  12   9.2804   5.4657  15.2373  -4.2855   5.8647 -10.1041   0.00    0.0  -10.27781    5.26194    0.39907   0.25062  0.13834  0.39309 -0.06187  0.10217 -0.23746
2023/07/11 06:07:36.000   35.159660049  136.882485903    44.1010   5  16   4.2034   4.7081  10.8801   1.7897   2.4278  -4.3594   0.00    0.0  -10.86936    6.17454    1.27692   0.14867  0.12898  0.35861  0.05767  0.06227 -0.16025
2023/07/11 06:07:37.000   35.159589563  136.882533744    39.8016   5  18   3.6525   4.2901   9.3502   2.4702  -1.5492  -2.7318   0.00    0.0  -10.35055    5.86015   -0.04857   0.12677  0.12342  0.30647  0.07827 -0.05192 -0.10606
2023/07/11 06:07:38.000   35.159494365  136.882590007    41.4294   5  19   3.4588   4.2705   9.2704   2.3709  -1.3760  -2.4550   0.00    0.0   -9.87037    5.65396   -0.25242   0.11934  0.12341  0.30057  0.07882 -0.05305 -0.09319
2023/07/11 06:07:39.000   35.159418895  136.882644291    38.6504   5  20   3.2760   4.2688   8.6993   2.3423  -1.2255  -1.5721   0.00    0.0   -9.18148    5.23315   -0.50461   0.10772  0.12325  0.27084  0.07680 -0.04486 -0.04459
2023/07/11 06:07:40.000   35.159338810  136.882692181    38.6132   5  20   3.2758   4.2687   8.7001   2.3420  -1.2232  -1.5723   0.00    0.0   -8.59365    4.75126   -0.15941   0.10772  0.12326  0.27087  0.07680 -0.04482 -0.04461
2023/07/11 06:07:41.000   35.159259780  136.882738936    41.0541   5  19   3.4583   4.2703   9.2723   2.3697  -1.3684  -2.4548   0.00    0.0   -7.80966    4.26520    0.02369   0.11932  0.12341  0.30062  0.07881 -0.05289 -0.09318
2023/07/11 06:07:42.000   35.159197874  136.882780936    39.2859   5  20   3.2755   4.2686   8.7017   2.3414  -1.2185  -1.5726   0.00    0.0   -6.74847    3.89853    0.15111   0.10771  0.12326  0.27092  0.07680 -0.04473 -0.04464
2023/07/11 06:07:43.000   35.159144038  136.882838297    37.4435   5  18   3.5597   8.4820  14.3754   3.9225  -9.2382  -4.2344   0.00    0.0   -5.58912    3.47163    0.00406   0.11463  0.25369  0.40679  0.11879 -0.26319 -0.11528
2023/07/11 06:07:44.000   35.159095617  136.882873185    37.1154   5  18   3.5595   8.4805  14.3754   3.9218  -9.2366  -4.2339   0.00    0.0   -4.95864    3.02262   -0.03623   0.11463  0.25367  0.40681  0.11879 -0.26317 -0.11529
2023/07/11 06:07:45.000   35.159052616  136.882899051    37.4611   5  18   3.5592   8.4790  14.3754   3.9210  -9.2350  -4.2334   0.00    0.0   -4.35531    2.08054   -0.14231   0.11463  0.25364  0.40682  0.11879 -0.26314 -0.11530
2023/07/11 06:07:46.000   35.159016149  136.882915570    37.6582   5  18   3.5590   8.4776  14.3754   3.9203  -9.2334  -4.2329   0.00    0.0   -3.78466    1.16491   -0.06303   0.11464  0.25362  0.40684  0.11879 -0.26312 -0.11531
2023/07/11 06:07:47.000   35.158984860  136.882925228    37.7641   5  18   3.5587   8.4761  14.3754   3.9195  -9.2318  -4.2324   0.00    0.0   -3.02248    0.65863    0.12067   0.11464  0.25360  0.40685  0.11878 -0.26309 -0.11532
2023/07/11 06:07:48.000   35.158960561  136.882933525    37.4174   5  18   3.5585   8.4746  14.3754   3.9188  -9.2302  -4.2319   0.00    0.0   -2.06750    0.85638   -0.38317   0.11464  0.25357  0.40687  0.11878 -0.26306 -0.11533
2023/07/11 06:07:49.000   35.158943748  136.882931003    38.3997   5  19   3.4090   5.5256  10.2772   2.9666  -4.5390  -2.7668   0.00    0.0   -1.28906    0.24267    0.17706   0.11169  0.16476  0.31145  0.09553 -0.13686 -0.08083
2023/07/11 06:07:50.000   35.158934471  136.882927644    39.4528   5  18   3.6410   5.6492  10.3275   3.2099  -4.4047  -2.5217   0.00    0.0   -0.62201    0.12407    0.01953   0.11958  0.16664  0.31153  0.10097 -0.13624 -0.07913
2023/07/11 06:07:51.000   35.158933727  136.882942757    37.5384   5  18   3.6408   5.6490  10.3279   3.2097  -4.4036  -2.5218   0.00    0.0    0.06645   -0.00586    0.01844   0.11958  0.16664  0.31154  0.10098 -0.13621 -0.07915
2023/07/11 06:07:52.000   35.158934537  136.882946677    37.2976   5  18   3.6406   5.6488  10.3283   3.2095  -4.4025  -2.5219   0.00    0.0   -0.01071    0.01543   -0.06252   0.11959  0.16663  0.31155  0.10098 -0.13618 -0.07917
2023/07/11 06:07:53.000   35.158934359  136.882943634    37.9702   5  18   3.6405   5.6486  10.3288   3.2093  -4.4014  -2.5219   0.00    0.0    0.03908   -0.00282    0.08232   0.11959  0.16663  0.31156  0.10099 -0.13614 -0.07918
2023/07/11 06:07:54.000   35.158934209  136.882945110    37.9178   5  18   3.6403   5.6484  10.3292   3.2091  -4.4003  -2.5220   0.00    0.0   -0.00676    0.00946    0.06303   0.11959  0.16662  0.31157  0.10099 -0.13611 -0.07920
2023/07/11 06:07:55.000   35.158934382  136.882944735    38.0469   5  18   3.6402   5.6483  10.3296   3.2089  -4.3992  -2.5221   0.00    0.0    0.01906   -0.00262   -0.08361   0.11959  0.16662  0.31158  0.10100 -0.13608 -0.07921
2023/07/11 06:07:56.000   35.158934444  136.882944125    38.2977   5  18   3.6400   5.6481  10.3301   3.2087  -4.3981  -2.5222   0.00    0.0   -0.00003    0.00244   -0.01331   0.11959  0.16662  0.31159  0.10100 -0.13605 -0.07923
2023/07/11 06:07:57.000   35.158933611  136.882943233    38.8068   5  18   3.6398   5.6479  10.3305   3.2085  -4.3970  -2.5223   0.00    0.0    0.04588    0.05947   -0.02558   0.11960  0.16661  0.31159  0.10101 -0.13602 -0.07924
2023/07/11 06:07:58.000   35.158934286  136.882944009    38.8962   5  18   3.6397   5.6477  10.3309   3.2083  -4.3959  -2.5223   0.00    0.0    0.01354   -0.00920    0.02079   0.11960  0.16661  0.31160  0.10101 -0.13599 -0.07926
2023/07/11 06:07:59.000   35.158934209  136.882943221    39.1246   5  18   3.6395   5.6475  10.3313   3.2080  -4.3948  -2.5224   0.00    0.0    0.00048   -0.03239   -0.05358   0.11960  0.16661  0.31161  0.10102 -0.13595 -0.07928
2023/07/11 06:08:00.000   35.158933625  136.882941700    39.4992   5  18   3.6394   5.6474  10.3318   3.2078  -4.3936  -2.5225   0.00    0.0   -0.00222    0.00892   -0.03134   0.11960  0.16660  0.31162  0.10102 -0.13592 -0.07929
2023/07/11 06:08:01.000   35.158933760  136.882941306    39.7624   5  18   3.6392   5.6472  10.3322   3.2076  -4.3925  -2.5226   0.00    0.0   -0.01021    0.00250   -0.02171   0.11960  0.16660  0.31163  0.10103 -0.13589 -0.07931
2023/07/11 06:08:02.000   35.158933444  136.882941476    39.8837   5  18   3.6390   5.6470  10.3326   3.2074  -4.3914  -2.5226   0.00    0.0   -0.00803    0.00392    0.00092   0.11961  0.16659  0.31164  0.10103 -0.13586 -0.07932
2023/07/11 06:08:03.000   35.158933382  136.882940986    40.1758   5  18   3.6389   5.6468  10.3330   3.2072  -4.3903  -2.5227   0.00    0.0   -0.02083    0.00752   -0.02079   0.11961  0.16659  0.31165  0.10104 -0.13583 -0.07934
2023/07/11 06:08:04.000   35.158933660  136.882940798    40.2772   5  18   3.6387   5.6466  10.3335   3.2070  -4.3892  -2.5228   0.00    0.0    0.00608    0.02114   -0.00336   0.11961  0.16659  0.31166  0.10104 -0.13579 -0.07935
2023/07/11 06:08:05.000   35.158933320  136.882939515    40.6804   5  18   3.6386   5.6465  10.3339   3.2068  -4.3881  -2.5229   0.00    0.0    0.03441    0.01101   -0.06805   0.11961  0.16658  0.31167  0.10105 -0.13576 -0.07937
2023/07/11 06:08:06.000   35.158933571  136.882938477    40.8242   5  18   3.6384   5.6463  10.3343   3.2066  -4.3870  -2.5229   0.00    0.0    0.01362    0.03009   -0.03747   0.11961  0.16658  0.31168  0.10105 -0.13573 -0.07939
2023/07/11 06:08:07.000   35.158930575  136.882935142    40.7043   5  19   3.4068   5.5220  10.2843   2.9627  -4.5207  -2.7692   0.00    0.0    0.00952    0.00658   -0.05942   0.11172  0.16467  0.31162  0.09559 -0.13628 -0.08109
2023/07/11 06:08:08.000   35.158932963  136.882938279    41.0783   5  18   3.6381   5.6459  10.3352   3.2062  -4.3848  -2.5231   0.00    0.0   -0.01473   -0.01681    0.05397   0.11962  0.16657  0.31170  0.10106 -0.13567 -0.07942
2023/07/11 06:08:09.000   35.158932753  136.882938503    41.0701   5  18   3.6379   5.6457  10.3356   3.2060  -4.3836  -2.5232   0.00    0.0    0.00516   -0.03560   -0.00425   0.11962  0.16657  0.31171  0.10107 -0.13563 -0.07943
2023/07/11 06:08:10.000   35.158933219  136.882938624    41.0398   5  19   3.5798   5.6434   9.2406   3.1902  -4.3001  -1.8361   0.00    0.0    0.01576    0.01369    0.02072   0.11537  0.16640  0.28923  0.09989 -0.13236 -0.05135
2023/07/11 06:08:11.000   35.158933390  136.882938696    41.0079   5  19   3.5796   5.6433   9.2408   3.1900  -4.2993  -1.8362   0.00    0.0    0.01294    0.01384    0.03177   0.11537  0.16639  0.28924  0.09990 -0.13233 -0.05137
2023/07/11 06:08:12.000   35.158933600  136.882938620    40.8978   5  19   3.5795   5.6431   9.2410   3.1899  -4.2984  -1.8363   0.00    0.0    0.00303    0.02125   -0.00094   0.11537  0.16639  0.28925  0.09991 -0.13230 -0.05139
2023/07/11 06:08:13.000   35.158930688  136.882935252    40.5396   5  20   3.3382   5.5178   9.1959   2.9408  -4.4215  -2.1338   0.00    0.0   -0.00747    0.01389   -0.02887   0.10750  0.16450  0.28910  0.09453 -0.13316 -0.05514
2023/07/11 06:08:14.000   35.158931061  136.882936540    40.4649   5  20   3.3381   5.5176   9.1961   2.9406  -4.4208  -2.1340   0.00    0.0    0.02160    0.00094   -0.01381   0.10750  0.16449  0.28911  0.09453 -0.13314 -0.05516
2023/07/11 06:08:15.000   35.158935005  136.882939966    40.8343   5  19   3.5790   5.6426   9.2417   3.1894  -4.2960  -1.8367   0.00    0.0    0.00789   -0.07975    0.14420   0.11538  0.16638  0.28928  0.09993 -0.13222 -0.05146
2023/07/11 06:08:16.000   35.158935148  136.882939533    40.8148   5  19   3.5789   5.6424   9.2419   3.1893  -4.2951  -1.8368   0.00    0.0    0.03006   -0.02071   -0.01323   0.11538  0.16638  0.28929  0.09993 -0.13219 -0.05148
2023/07/11 06:08:17.000   35.158935399  136.882939337    40.9297   5  19   3.5787   5.6423   9.2421   3.1891  -4.2943  -1.8369   0.00    0.0    0.03623    0.04330   -0.07555   0.11538  0.16637  0.28930  0.09994 -0.13216 -0.05151
2023/07/11 06:08:18.000   35.158936127  136.882939896    41.0529   5  19   3.5786   5.6421   9.2423   3.1890  -4.2935  -1.8370   0.00    0.0   -0.00957   -0.01753    0.04183   0.11538  0.16637  0.28931  0.09995 -0.13213 -0.05153
2023/07/11 06:08:19.000   35.158931852  136.882935731    40.7747   5  20   3.3375   5.5167   9.1971   2.9398  -4.4169  -2.1346   0.00    0.0    0.02205    0.01761    0.02324   0.10751  0.16447  0.28916  0.09456 -0.13300 -0.05525
2023/07/11 06:08:20.000   35.158936309  136.882940101    41.1329   5  19   3.5783   5.6418   9.2428   3.1887  -4.2918  -1.8372   0.00    0.0    0.00256   -0.00716    0.00519   0.11539  0.16636  0.28933  0.09996 -0.13208 -0.05158
2023/07/11 06:08:21.000   35.158936795  136.882941319    40.9299   5  19   3.5781   5.6416   9.2430   3.1886  -4.2910  -1.8374   0.00    0.0   -0.03016   -0.03960    0.01546   0.11539  0.16636  0.28934  0.09997 -0.13205 -0.05160
2023/07/11 06:08:22.000   35.158936469  136.882941372    40.9633   5  19   3.5780   5.6415   9.2432   3.1884  -4.2901  -1.8375   0.00    0.0    0.02378    0.04447   -0.02293   0.11539  0.16636  0.28935  0.09997 -0.13202 -0.05162
2023/07/11 06:08:23.000   35.158936494  136.882941908    40.9088   5  19   3.5778   5.6413   9.2434   3.1883  -4.2893  -1.8376   0.00    0.0   -0.03604   -0.05596   -0.00196   0.11539  0.16635  0.28936  0.09998 -0.13199 -0.05164
2023/07/11 06:08:24.000   35.158936779  136.882942279    40.8687   5  19   3.5777   5.6411   9.2436   3.1881  -4.2884  -1.8377   0.00    0.0    0.01524    0.01178   -0.06190   0.11539  0.16635  0.28937  0.09999 -0.13197 -0.05167
2023/07/11 06:08:25.000   35.158936351  136.882941667    40.9277   5  19   3.5775   5.6410   9.2439   3.1880  -4.2876  -1.8378   0.00    0.0    0.01179   -0.00797   -0.01694   0.11539  0.16635  0.28938  0.09999 -0.13194 -0.05169
2023/07/11 06:08:26.000   35.158936655  136.882940999    41.0178   5  19   3.5774   5.6408   9.2441   3.1878  -4.2868  -1.8379   0.00    0.0    0.02705    0.03575   -0.06369   0.11540  0.16634  0.28939  0.10000 -0.13191 -0.05171
2023/07/11 06:08:27.000   35.158936735  136.882939861    41.0469   5  19   3.5772   5.6406   9.2443   3.1877  -4.2859  -1.8380   0.00    0.0   -0.01079   -0.00927   -0.01159   0.11540  0.16634  0.28939  0.10001 -0.13188 -0.05173
2023/07/11 06:08:28.000   35.158936945  136.882939167    40.8464   5  19   3.5771   5.6405   9.2445   3.1875  -4.2851  -1.8381   0.00    0.0    0.01093    0.01914   -0.03148   0.11540  0.16634  0.28940  0.10001 -0.13185 -0.05176
2023/07/11 06:08:29.000   35.158936904  136.882939140    40.8506   5  19   3.5769   5.6403   9.2447   3.1874  -4.2842  -1.8382   0.00    0.0    0.04783    0.03600    0.01289   0.11540  0.16633  0.28941  0.10002 -0.13183 -0.05178
2023/07/11 06:08:30.000   35.158936669  136.882938959    40.8640   5  19   3.5768   5.6401   9.2449   3.1872  -4.2834  -1.8384   0.00    0.0   -0.01360    0.01777   -0.01288   0.11540  0.16633  0.28942  0.10002 -0.13180 -0.05180
2023/07/11 06:08:31.000   35.158937402  136.882940384    40.8989   5  19   3.5766   5.6400   9.2452   3.1871  -4.2826  -1.8385   0.00    0.0   -0.02246    0.03035   -0.00577   0.11540  0.16633  0.28943  0.10003 -0.13177 -0.05183
2023/07/11 06:08:32.000   35.158937947  136.882941251    40.9418   5  19   3.5765   5.6398   9.2454   3.1869  -4.2817  -1.8386   0.00    0.0   -0.02761   -0.03437    0.03903   0.11541  0.16632  0.28944  0.10004 -0.13174 -0.05185
2023/07/11 06:08:33.000   35.158934010  136.882937461    40.4741   5  20   3.3359   5.5140   9.1999   2.9377  -4.4060  -2.1366   0.00    0.0    0.00986   -0.02215    0.03310   0.10753  0.16441  0.28930  0.09463 -0.13260 -0.05553
2023/07/11 06:08:34.000   35.158934178  136.882938213    40.4686   5  20   3.3358   5.5139   9.2001   2.9375  -4.4052  -2.1367   0.00    0.0   -0.03068   -0.00858    0.04292   0.10753  0.16440  0.28931  0.09463 -0.13258 -0.05555
2023/07/11 06:08:35.000   35.158939283  136.882943333    40.9202   5  19   3.5760   5.6393   9.2460   3.1865  -4.2792  -1.8389   0.00    0.0    0.04314    0.00693    0.01592   0.11541  0.16631  0.28947  0.10006 -0.13166 -0.05192
2023/07/11 06:08:36.000   35.158939473  136.882944766    41.0470   5  19   3.5759   5.6391   9.2463   3.1863  -4.2784  -1.8390   0.00    0.0   -0.01298   -0.01173   -0.01326   0.11541  0.16631  0.28948  0.10006 -0.13163 -0.05194
2023/07/11 06:08:37.000   35.158935309  136.882942173    42.1652   5  18   3.7775   5.7051   9.7503   3.3477  -4.5801  -2.6742   0.00    0.0    0.00629    0.02052   -0.04654   0.12558  0.17018  0.31467  0.10863 -0.14755 -0.09383
2023/07/11 06:08:38.000   35.158934924  136.882942509    42.2509   5  18   3.7773   5.7049   9.7502   3.3474  -4.5790  -2.6739   0.00    0.0    0.00291   -0.01657    0.00746   0.12558  0.17017  0.31467  0.10863 -0.14751 -0.09383
2023/07/11 06:08:39.000   35.158935224  136.882942368    42.1208   5  18   3.7771   5.7046   9.7501   3.3471  -4.5779  -2.6736   0.00    0.0   -0.00408   -0.00653    0.01815   0.12557  0.17016  0.31466  0.10863 -0.14747 -0.09383
2023/07/11 06:08:40.000   35.158935243  136.882941803    42.2318   5  18   3.7769   5.7043   9.7500   3.3468  -4.5768  -2.6733   0.00    0.0    0.01949    0.02022   -0.00066   0.12557  0.17015  0.31465  0.10863 -0.14743 -0.09382
2023/07/11 06:08:41.000   35.158934167  136.882940090    42.3693   5  18   3.7767   5.7041   9.7498   3.3465  -4.5757  -2.6731   0.00    0.0    0.01734   -0.02177    0.04954   0.12557  0.17014  0.31464  0.10862 -0.14739 -0.09382
2023/07/11 06:08:42.000   35.158934396  136.882938749    42.0878   5  18   3.7765   5.7038   9.7497   3.3462  -4.5746  -2.6728   0.00    0.0    0.00250   -0.01157    0.06517   0.12557  0.17013  0.31464  0.10862 -0.14735 -0.09382
2023/07/11 06:08:43.000   35.158933892  136.882937721    42.0552   5  18   3.7763   5.7035   9.7496   3.3460  -4.5734  -2.6725   0.00    0.0    0.00997   -0.01710    0.00288   0.12557  0.17013  0.31463  0.10862 -0.14731 -0.09382
2023/07/11 06:08:44.000   35.158933424  136.882936957    41.8740   5  18   3.7761   5.7033   9.7495   3.3457  -4.5723  -2.6722   0.00    0.0   -0.00719   -0.02245    0.03657   0.12557  0.17012  0.31462  0.10862 -0.14726 -0.09381
2023/07/11 06:08:45.000   35.158938697  136.882940930    40.4468   5  19   3.5745   5.6376   9.2482   3.1850  -4.2707  -1.8400   0.00    0.0    0.01430   -0.00044   -0.00316   0.11543  0.16628  0.28957  0.10012 -0.13137 -0.05215
2023/07/11 06:08:46.000   35.158939109  136.882941752    40.1225   5  19   3.5744   5.6375   9.2484   3.1848  -4.2699  -1.8401   0.00    0.0   -0.00011   -0.00820   -0.00192   0.11543  0.16628  0.28957  0.10013 -0.13134 -0.05217
2023/07/11 06:08:47.000   35.158933715  136.882937126    41.4849   5  18   3.7755   5.7025   9.7491   3.3448  -4.5690  -2.6714   0.00    0.0   -0.01091   -0.03610   -0.00486   0.12556  0.17009  0.31460  0.10862 -0.14714 -0.09381
2023/07/11 06:08:48.000   35.158933420  136.882936024    41.4841   5  18   3.7753   5.7022   9.7490   3.3445  -4.5679  -2.6711   0.00    0.0   -0.01933   -0.01622    0.00463   0.12556  0.17008  0.31459  0.10862 -0.14710 -0.09380
2023/07/11 06:08:49.000   35.158938236  136.882940869    40.0013   5  19   3.5739   5.6369   9.2491   3.1843  -4.2673  -1.8404   0.00    0.0    0.04049    0.05014   -0.08824   0.11543  0.16627  0.28960  0.10015 -0.13126 -0.05224
2023/07/11 06:08:50.000   35.158937820  136.882940938    39.8266   5  19   3.5738   5.6368   9.2493   3.1842  -4.2665  -1.8405   0.00    0.0    0.01982    0.01923   -0.03809   0.11544  0.16626  0.28961  0.10015 -0.13123 -0.05226
2023/07/11 06:08:51.000   35.158937540  136.882940779    39.6213   5  19   3.5736   5.6366   9.2495   3.1840  -4.2656  -1.8407   0.00    0.0   -0.02086   -0.02946    0.04741   0.11544  0.16626  0.28962  0.10016 -0.13120 -0.05228
2023/07/11 06:08:52.000   35.158936845  136.882940778    39.0212   5  19   3.5735   5.6364   9.2497   3.1839  -4.2648  -1.8408   0.00    0.0   -0.41196    0.22400   -0.01235   0.11544  0.16626  0.28963  0.10016 -0.13117 -0.05231
2023/07/11 06:08:53.000   35.158929088  136.882945918    39.2215   5  18   4.3343   6.3232   9.5187   4.1433  -3.4269   1.4563   0.00    0.0   -1.62931    0.29017   -0.18899   0.13225  0.17461  0.29132  0.11610 -0.12462 -0.02683
2023/07/11 06:08:54.000   35.158902541  136.882941542    38.9490   5  20   3.3335   5.5101   9.2040   2.9343  -4.3895  -2.1394   0.00    0.0   -2.76284    0.15836   -0.27210   0.10756  0.16431  0.28950  0.09473 -0.13201 -0.05594
2023/07/11 06:08:55.000   35.158877035  136.882947558    39.0416   5  20   3.3334   5.5099   9.2042   2.9341  -4.3888  -2.1395   0.00    0.0   -2.80248    0.67110    0.15915   0.10756  0.16431  0.28951  0.09474 -0.13198 -0.05596
2023/07/11 06:08:56.000   35.158841046  136.882947573    42.7291   5  18   3.6503   5.5744  11.1990   3.1334  -4.8614  -3.6774   0.00    0.0   -2.88836    0.79336    0.37138   0.12808  0.16897  0.36095  0.10770 -0.15876 -0.13424
2023/07/11 06:08:57.000   35.158816598  136.882957463    40.1247   5  19   3.5169   5.5629   9.7221   3.0773  -4.6533  -2.8443   0.00    0.0   -2.98790    1.66273   -0.40341   0.11698  0.16769  0.31453  0.10256 -0.14672 -0.09373
2023/07/11 06:08:58.000   35.158800388  136.882979532    39.5148   5  20   3.3330   5.5093   9.2048   2.9337  -4.3864  -2.1399   0.00    0.0   -2.94974    1.02260    0.44868   0.10757  0.16429  0.28954  0.09475 -0.13189 -0.05602
2023/07/11 06:08:59.000   35.158774678  136.882993854    40.5627   5  21   3.2207   4.2431   7.9002   2.3648  -1.6228  -0.7269   0.00    0.0   -2.32354    1.42587   -0.17687   0.10430  0.12304  0.25546  0.07819 -0.05049  0.02115
2023/07/11 06:09:00.000   35.158755094  136.883012089    40.6438   5  21   3.2206   4.2430   7.9007   2.3645  -1.6215  -0.7272   0.00    0.0   -2.23627    1.73739   -0.13370   0.10430  0.12304  0.25548  0.07819 -0.05046  0.02112
2023/07/11 06:09:01.000   35.158736387  136.883031261    40.1870   5  21   3.2204   4.2429   7.9013   2.3643  -1.6203  -0.7275   0.00    0.0   -2.19474    2.24461    0.07336   0.10429  0.12304  0.25551  0.07819 -0.05043  0.02108
2023/07/11 06:09:02.000   35.158720516  136.883064007    38.1810   5  21   3.2203   4.2428   7.9019   2.3640  -1.6190  -0.7278   0.00    0.0   -2.02617    3.02094    0.04665   0.10429  0.12304  0.25554  0.07818 -0.05040  0.02105
2023/07/11 06:09:03.000   35.158702749  136.883102363    38.2643   5  21   3.2201   4.2427   7.9024   2.3637  -1.6177  -0.7280   0.00    0.0   -1.74194    3.75616   -0.04494   0.10429  0.12304  0.25556  0.07818 -0.05036  0.02102
2023/07/11 06:09:04.000   35.158686984  136.883142417    39.1239   5  21   3.2199   4.2426   7.9030   2.3635  -1.6165  -0.7283   0.00    0.0   -1.15018    4.64811    0.15124   0.10429  0.12304  0.25559  0.07818 -0.05033  0.02098
