% program   : RTKLIB MATLAB
% sol start : 2023/07/11 06:04:30.0 GPST
% sol end   : 2023/07/11 06:25:00.0 GPST
% pos mode  : Kinematic
% freqs     : L1+2
% solution  : Forward
% elev mask : 30.0 deg
% dynamics  : off
% tidecorr  : off
% ionos opt : Broadcast
% tropo opt : Saastamoinen
% ephemeris : Broadcast
% navi sys  : GPS GLONASS Galileo QZSS BDS
% amb res   : Instantaneous
% amb glo   : ON
% val thres : 3.0
% antenna1  :                       ( 0.0000  0.0000  0.0000)
% antenna2  :                       ( 0.0000  0.0000  0.0000)
% ref pos   : 35.134709483  136.977574275   104.7280
%
% (lat/lon/height=WGS84/ellipsoidal,Q=1:fix,2:float,3:sbas,4:dgps,5:single,6:ppp,ns=# of satellites)
%  GPST                  latitude(deg) longitude(deg)  height(m)   Q  ns   sdn(m)   sde(m)   sdu(m)  sdne(m)  sdeu(m)  sdun(m) age(s)  ratio    vn(m/s)    ve(m/s)    vu(m/s)      sdvn     sdve     sdvu    sdvne    sdveu    sdvun
2023/07/11 06:04:32.000   35.165360854  136.881409534    41.4069   1  19   0.0045   0.0045   0.0097   0.0027   0.0011  -0.0030   0.03    5.9    0.01946   -0.02313    0.01343   0.09822  0.10783  0.25018  0.05434  0.05016  0.05029
2023/07/11 06:04:36.000   35.165360855  136.881409532    41.3986   1  19   0.0045   0.0045   0.0097   0.0027   0.0011  -0.0030   0.03    5.8   -0.01606    0.03013   -0.00190   0.09823  0.10784  0.25025  0.05435  0.05040  0.05036
2023/07/11 06:04:40.000   35.165360848  136.881409528    41.3961   1  19   0.0045   0.0045   0.0097   0.0027   0.0011  -0.0030   0.03    6.2   -0.01433    0.00685   -0.03897   0.09823  0.10785  0.25032  0.05435  0.05064  0.05044
2023/07/11 06:04:42.000   35.165360843  136.881409529    41.4003   1  19   0.0045   0.0045   0.0097   0.0027   0.0011  -0.0030   0.03    5.3   -0.00906    0.02528   -0.03119   0.09823  0.10785  0.25035  0.05435  0.05076  0.05047
2023/07/11 06:04:45.000   35.165360860  136.881409564    41.3985   1  19   0.0045   0.0045   0.0097   0.0027   0.0011  -0.0030   0.03    5.8   -0.01322    0.01752    0.06429   0.09824  0.10786  0.25040  0.05435  0.05094  0.05052
2023/07/11 06:04:46.000   35.165360861  136.881409542    41.3964   1  19   0.0045   0.0045   0.0097   0.0027   0.0011  -0.0030   0.03    5.8    0.00278    0.02757   -0.01865   0.09824  0.10786  0.25042  0.05435  0.05100  0.05054
2023/07/11 06:04:47.000   35.165360862  136.881409556    41.3961   1  19   0.0045   0.0045   0.0097   0.0027   0.0011  -0.0030   0.03    5.4    0.00967    0.01682   -0.01025   0.09824  0.10786  0.25043  0.05435  0.05106  0.05056
2023/07/11 06:04:49.000   35.165360863  136.881409546    41.3938   1  19   0.0045   0.0045   0.0097   0.0027   0.0011  -0.0030   0.03    5.5   -0.00777   -0.00355    0.02799   0.09824  0.10787  0.25047  0.05435  0.05117  0.05060
2023/07/11 06:04:51.000   35.165360855  136.881409531    41.3943   1  19   0.0045   0.0045   0.0097   0.0027   0.0012  -0.0030   0.03    5.0   -0.00127    0.00001    0.05571   0.09824  0.10787  0.25050  0.05435  0.05129  0.05063
2023/07/11 06:04:54.000   35.165360851  136.881409530    41.3947   1  19   0.0045   0.0045   0.0097   0.0027   0.0012  -0.0030   0.03    4.7   -0.01419    0.02459    0.04805   0.09825  0.10788  0.25055  0.05435  0.05147  0.05068
2023/07/11 06:04:56.000   35.165360849  136.881409531    41.3955   1  19   0.0045   0.0045   0.0097   0.0027   0.0012  -0.0030   0.03    4.8    0.02587    0.00603   -0.03740   0.09825  0.10788  0.25058  0.05435  0.05158  0.05072
2023/07/11 06:04:57.000   35.165360858  136.881409524    41.3903   1  19   0.0045   0.0045   0.0097   0.0027   0.0012  -0.0030   0.03    4.9   -0.01435   -0.02654    0.01494   0.09825  0.10789  0.25060  0.05435  0.05164  0.05074
2023/07/11 06:04:59.000   35.165360850  136.881409520    41.3914   1  19   0.0045   0.0045   0.0097   0.0027   0.0012  -0.0030   0.03    4.5   -0.00319    0.02597   -0.02972   0.09825  0.10789  0.25063  0.05435  0.05176  0.05077
2023/07/11 06:05:01.000   35.165360850  136.881409511    41.3942   1  19   0.0045   0.0045   0.0097   0.0027   0.0012  -0.0030   0.03    4.6    0.01293   -0.01344   -0.00826   0.09825  0.10790  0.25067  0.05435  0.05188  0.05081
2023/07/11 06:05:02.000   35.165360853  136.881409522    41.3926   1  19   0.0045   0.0045   0.0097   0.0027   0.0012  -0.0030   0.03    4.5    0.00908   -0.01312    0.05455   0.09826  0.10790  0.25068  0.05435  0.05193  0.05082
2023/07/11 06:05:04.000   35.165360839  136.881409508    41.3889   1  19   0.0045   0.0045   0.0097   0.0027   0.0012  -0.0030   0.03    4.6    0.02211    0.01046    0.03584   0.09826  0.10790  0.25072  0.05435  0.05205  0.05086
2023/07/11 06:05:08.000   35.165358979  136.881393016    41.4166   1  19   0.0045   0.0045   0.0097   0.0027   0.0012  -0.0030   0.03    5.0   -0.26866   -0.66919   -0.12362   0.09826  0.10791  0.25078  0.05436  0.05228  0.05093
2023/07/11 06:05:09.000   35.165355796  136.881384444    41.4405   1  19   0.0045   0.0045   0.0097   0.0027   0.0012  -0.0030   0.03    3.7   -0.44407   -0.79104    0.06467   0.09826  0.10791  0.25080  0.05436  0.05234  0.05094
2023/07/11 06:05:10.000   35.165350058  136.881375829    41.4493   1  19   0.0045   0.0045   0.0097   0.0027   0.0012  -0.0030   0.03    5.3   -0.76263   -0.83406   -0.02563   0.09826  0.10792  0.25082  0.05436  0.05240  0.05096
2023/07/11 06:05:11.000   35.165341264  136.881366839    41.4591   1  19   0.0045   0.0045   0.0097   0.0027   0.0012  -0.0030   0.03    4.1   -1.11119   -0.81938    0.00839   0.09826  0.10792  0.25083  0.05436  0.05246  0.05098
2023/07/11 06:05:12.000   35.165328801  136.881358364    41.4717   1  19   0.0045   0.0045   0.0097   0.0027   0.0012  -0.0030   0.03    4.8   -1.58322   -0.82145    0.04357   0.09827  0.10792  0.25085  0.05436  0.05251  0.05100
2023/07/11 06:05:16.000   35.165272875  136.881291157    41.4077   1  19   0.0045   0.0045   0.0097   0.0027   0.0012  -0.0030   0.03    6.0   -0.64156   -2.38360   -0.03623   0.09827  0.10793  0.25092  0.05436  0.05274  0.05106
2023/07/11 06:05:19.000   35.165268304  136.881214384    41.4043   1  19   0.0045   0.0045   0.0097   0.0027   0.0012  -0.0030   0.03    4.5    0.19255   -2.40789    0.06729   0.09827  0.10794  0.25096  0.05436  0.05292  0.05112
2023/07/11 06:05:20.000   35.165270857  136.881187570    41.4244   1  19   0.0045   0.0045   0.0097   0.0027   0.0012  -0.0030   0.03    3.9    0.35779   -2.40126    0.01923   0.09827  0.10794  0.25098  0.05436  0.05297  0.05113
2023/07/11 06:05:21.000   35.165274584  136.881162655    41.4293   1  18   0.0051   0.0049   0.0106   0.0034  -0.0026  -0.0044   0.03    4.6    0.35789   -2.26092   -0.00630   0.11268  0.12354  0.26751  0.07916 -0.05242 -0.04983
2023/07/11 06:05:26.000   35.165267006  136.881075112    41.3991   1  18   0.0051   0.0049   0.0106   0.0034  -0.0026  -0.0044   0.03    5.0   -0.83867   -0.88889   -0.23643   0.11269  0.12355  0.26765  0.07917 -0.05223 -0.04987
2023/07/11 06:05:27.000   35.165259011  136.881066613    41.3830   1  18   0.0051   0.0049   0.0106   0.0034  -0.0026  -0.0044   0.03    5.2   -0.96978   -0.66826   -0.09484   0.11269  0.12355  0.26768  0.07917 -0.05220 -0.04987
2023/07/11 06:05:28.000   35.165250407  136.881060658    41.3702   1  18   0.0051   0.0049   0.0106   0.0034  -0.0026  -0.0044   0.03    5.0   -0.82175   -0.37385   -0.01776   0.11269  0.12355  0.26771  0.07917 -0.05216 -0.04988
2023/07/11 06:05:29.000   35.165242978  136.881057307    41.3446   1  18   0.0051   0.0049   0.0106   0.0034  -0.0026  -0.0044   0.03    5.7   -0.79233   -0.34262    0.02864   0.11269  0.12355  0.26774  0.07917 -0.05212 -0.04989
2023/07/11 06:05:31.000   35.165226560  136.881052333    41.3089   1  18   0.0051   0.0049   0.0106   0.0034  -0.0026  -0.0044   0.03    6.2   -0.68501   -0.10395   -0.09588   0.11269  0.12356  0.26780  0.07917 -0.05205 -0.04990
2023/07/11 06:05:32.000   35.165220878  136.881050833    41.2572   1  18   0.0051   0.0049   0.0106   0.0034  -0.0026  -0.0044   0.03    5.6   -0.63465   -0.08218   -0.16694   0.11270  0.12356  0.26783  0.07917 -0.05201 -0.04990
2023/07/11 06:05:35.000   35.165211671  136.881048964    41.1848   1  18   0.0051   0.0049   0.0106   0.0034  -0.0026  -0.0044   0.03    6.0   -0.01021    0.00439    0.00796   0.11270  0.12356  0.26791  0.07917 -0.05190 -0.04992
2023/07/11 06:05:37.000   35.165211644  136.881048946    41.1934   1  18   0.0051   0.0049   0.0106   0.0034  -0.0026  -0.0044   0.03    5.2   -0.03900   -0.03953    0.02463   0.11270  0.12357  0.26797  0.07917 -0.05183 -0.04994
2023/07/11 06:05:38.000   35.165211555  136.881048943    41.1817   1  18   0.0051   0.0049   0.0106   0.0034  -0.0026  -0.0044   0.03    5.5    0.00448   -0.04459    0.00763   0.11271  0.12357  0.26800  0.07917 -0.05179 -0.04994
2023/07/11 06:05:41.000   35.165211537  136.881048911    41.1856   1  18   0.0051   0.0049   0.0106   0.0034  -0.0026  -0.0044   0.03    7.4   -0.01576    0.01182    0.03333   0.11271  0.12357  0.26809  0.07917 -0.05168 -0.04996
2023/07/11 06:05:45.000   35.165211546  136.881048961    41.1796   1  18   0.0051   0.0049   0.0106   0.0034  -0.0026  -0.0044   0.03    5.6    0.00672    0.02125   -0.04351   0.11272  0.12358  0.26820  0.07917 -0.05153 -0.04999
2023/07/11 06:05:46.000   35.165211552  136.881048932    41.1819   1  18   0.0051   0.0049   0.0106   0.0034  -0.0026  -0.0044   0.03    6.2    0.01186   -0.02120    0.02041   0.11272  0.12358  0.26823  0.07917 -0.05149 -0.05000
2023/07/11 06:05:47.000   35.165211477  136.881048912    41.1821   1  18   0.0051   0.0049   0.0106   0.0034  -0.0025  -0.0044   0.03    6.1   -0.08486   -0.05449    0.07428   0.11272  0.12358  0.26826  0.07917 -0.05145 -0.05000
2023/07/11 06:05:48.000   35.165207528  136.881048533    41.1468   1  18   0.0051   0.0049   0.0106   0.0034  -0.0025  -0.0044   0.03    5.2   -0.72371    0.03034   -0.07490   0.11272  0.12358  0.26829  0.07917 -0.05141 -0.05001
2023/07/11 06:05:50.000   35.165190818  136.881047748    40.9820   1  18   0.0051   0.0049   0.0106   0.0034  -0.0025  -0.0044   0.03    5.5   -1.16009   -0.01250   -0.27269   0.11273  0.12358  0.26834  0.07917 -0.05134 -0.05002
2023/07/11 06:05:51.000   35.165181052  136.881046999    40.9020   1  18   0.0051   0.0049   0.0106   0.0034  -0.0025  -0.0044   0.03    4.2   -1.11439   -0.14234    0.01453   0.11273  0.12358  0.26837  0.07917 -0.05130 -0.05003
2023/07/11 06:05:52.000   35.165169045  136.881045165    40.8174   1  18   0.0051   0.0049   0.0106   0.0034  -0.0025  -0.0044   0.03    4.9   -1.57372   -0.34662    0.05578   0.12611  0.12390  0.30085  0.08227 -0.06187 -0.10093
2023/07/11 06:05:53.000   35.165154892  136.881037150    40.7466   1  18   0.0051   0.0049   0.0106   0.0034  -0.0025  -0.0044   0.03    3.6   -1.65356   -1.00067   -0.09504   0.11273  0.12359  0.26843  0.07917 -0.05122 -0.05004
2023/07/11 06:05:54.000   35.165141133  136.881020671    40.5430   2  18   0.5039   0.4855   1.0432   0.3372  -0.2618  -0.4378   0.03    2.4   -1.40065   -1.93954    0.18551   0.12610  0.12390  0.30088  0.08226 -0.06178 -0.10091
2023/07/11 06:05:56.000   35.165124541  136.880968758    40.8140   1  17   0.0052   0.0054   0.0110   0.0031  -0.0035  -0.0041   0.03    3.1   -0.34617   -3.01693   -0.26801   0.11283  0.13750  0.27818  0.07746 -0.08362 -0.04671
2023/07/11 06:05:59.000   35.165137779  136.880839888    40.8854   1  18   0.0052   0.0061   0.0120   0.0039  -0.0052  -0.0050   0.03    5.9    1.03860   -3.79140   -0.19017   0.11274  0.12360  0.26860  0.07917 -0.05099 -0.05008
2023/07/11 06:06:00.000   35.165145673  136.880800171    40.9366   1  18   0.0052   0.0061   0.0120   0.0039  -0.0052  -0.0050   0.03    8.5    0.68159   -3.39373    0.14586   0.12609  0.12390  0.30097  0.08223 -0.06149 -0.10085
2023/07/11 06:06:01.000   35.165150634  136.880765799    40.9716   1  18   0.0051   0.0049   0.0106   0.0034  -0.0025  -0.0044   0.03    7.3    0.34994   -3.03239   -0.02455   0.11275  0.12360  0.26866  0.07918 -0.05092 -0.05010
2023/07/11 06:06:02.000   35.165153388  136.880731737    40.9999   1  18   0.0051   0.0049   0.0106   0.0034  -0.0025  -0.0044   0.03    3.8   -0.04538   -3.15798   -0.04436   0.11275  0.12360  0.26869  0.07918 -0.05088 -0.05011
2023/07/11 06:06:03.000   35.165152519  136.880704317    41.2071   2  18   0.5037   0.4854   1.0433   0.3369  -0.2605  -0.4375   0.03    1.8   -0.54052   -2.74463    0.01323   0.11275  0.12360  0.26872  0.07918 -0.05084 -0.05011
2023/07/11 06:06:04.000   35.165145203  136.880676058    40.9548   1  17   0.0052   0.0053   0.0109   0.0037  -0.0013  -0.0040   0.03    8.3   -0.92322   -1.89134   -0.08651   0.13293  0.14427  0.32486  0.09936  0.07259 -0.07083
2023/07/11 06:06:05.000   35.165134753  136.880657252    40.9352   1  17   0.0052   0.0053   0.0109   0.0037  -0.0013  -0.0040   0.03    7.6   -1.43039   -1.55779   -0.12010   0.12337  0.14425  0.28695  0.09996  0.06999  0.05021
2023/07/11 06:06:06.000   35.165116630  136.880641790    40.9289   1  17   0.0052   0.0053   0.0109   0.0037  -0.0012  -0.0040   0.03    6.9   -2.61611   -1.21667    0.15310   0.12337  0.14426  0.28698  0.09996  0.07003  0.05019
2023/07/11 06:06:08.000   35.165044092  136.880618760    40.7913   1  16   0.0057   0.0082   0.0141   0.0052  -0.0075  -0.0059   0.03    3.1   -5.32997   -0.67610   -0.35123   0.12886  0.19080  0.31966  0.12100 -0.11249 -0.05216
2023/07/11 06:06:11.000   35.164865549  136.880580126    40.7749   1  15   0.0057   0.0082   0.0141   0.0052  -0.0075  -0.0059   0.03    3.1   -7.51980   -1.31697   -0.01258   0.13383  0.29532  0.40579  0.15095 -0.26260 -0.10843
2023/07/11 06:06:14.000   35.164639973  136.880545500    40.6481   1  15   0.0057   0.0082   0.0145   0.0052  -0.0077  -0.0062   0.03    7.7   -9.10922   -0.93291   -0.09496   0.12945  0.19415  0.33241  0.11917 -0.09663 -0.06213
2023/07/11 06:06:15.000   35.164555460  136.880536043    40.6467   1  17   0.0054   0.0066   0.0121   0.0043  -0.0047  -0.0047   0.03    4.6   -9.54892   -0.74890   -0.29669   0.13581  0.19250  0.37812  0.12543 -0.13900 -0.12005
2023/07/11 06:06:17.000   35.164377233  136.880521756    40.5594   1  17   0.0054   0.0066   0.0124   0.0043  -0.0048  -0.0049   0.03    4.2  -10.18046   -0.49795   -0.23638   0.11726  0.14695  0.30159  0.09315  0.09104  0.03917
2023/07/11 06:06:20.000   35.164097974  136.880524748    42.4706   2  18   0.4610   0.4853   1.0460   0.3331  -0.2538  -0.4002   0.03    1.1  -10.89656    0.10710   -0.21858   0.10997  0.12458  0.27685  0.07418 -0.03232 -0.05791
2023/07/11 06:06:22.000   35.163895810  136.880518404    41.0324   2  18   0.4610   0.4853   1.0460   0.3330  -0.2535  -0.4002   0.03    1.2  -11.07960    0.15978   -0.01008   0.10997  0.12458  0.27692  0.07418 -0.03218 -0.05795
2023/07/11 06:06:23.000   35.163798339  136.880521617    40.6729   2  18   0.4610   0.4853   1.0461   0.3330  -0.2534  -0.4002   0.03    1.0  -11.18684    0.09347    0.00647   0.10997  0.12458  0.27696  0.07418 -0.03211 -0.05797
2023/07/11 06:06:28.000   35.163261527  136.880526852    38.4932   1  19   0.0045   0.0049   0.0103   0.0034  -0.0024  -0.0036   0.03    4.8  -12.53096    0.20921   -0.50125   0.10776  0.12317  0.26873  0.07689 -0.04774 -0.04340
2023/07/11 06:06:29.000   35.163148159  136.880522641    38.4981   2  18   0.4608   0.5434   1.0818   0.3695  -0.3971  -0.4150   0.03    1.4  -12.65540    0.18978   -0.91181   0.11153  0.16516  0.31060  0.09525 -0.13931 -0.07974
2023/07/11 06:06:33.000   35.162705794  136.880578095    34.6152   2  14   0.7027   1.0854   1.9471   0.6213  -1.2077  -0.5475   0.03    1.2  -11.87529    3.00974   -0.83571   0.14856  0.25798  0.41388  0.12695 -0.26112 -0.07321
2023/07/11 06:06:34.000   35.162600419  136.880609195    33.9644   2  17   0.5103   1.0515   1.8097   0.5715  -1.2093  -0.6929   0.03    1.5  -11.96653    3.79123   -0.61442   0.14323  0.29676  0.53673  0.16475 -0.35119 -0.20825
2023/07/11 06:06:50.000   35.161213181  136.881561024    33.8125   2   4  18.1594   4.5863  23.6446  -8.9885  10.1463 -20.5126   0.03    3.3   -0.01608   -0.02865    0.12166   1.21334  0.36621  1.36935 -0.55946  0.58793 -1.15168
2023/07/11 06:06:52.000   35.160912069  136.881647015    73.3533   2   4   9.9679   2.4214  16.2164  -4.6553   5.9949 -12.6326   0.03    2.5    0.04249   -0.03072   -0.01552   1.21331  0.36623  1.36985 -0.55939  0.58822 -1.15186
2023/07/11 06:06:59.000   35.161118128  136.881568453    48.4481   2   4   9.9908   2.4333  16.2324  -4.6740   6.0152 -12.6535   0.03    2.5  168.84790  -29.57484 -229.17655   1.14261  0.35931  1.25503 -0.53243  0.55469 -1.05004
2023/07/11 06:07:00.000   35.161133503  136.881563996    46.4593   2   4   9.9941   2.4350  16.2347  -4.6766   6.0181 -12.6565   0.03    1.3    0.02593    0.00634    0.07031   1.21323  0.36637  1.37184 -0.55910  0.58941 -1.15261
2023/07/11 06:07:01.000   35.161126867  136.881564515    47.4013   2   4   9.9973   2.4367  16.2370  -4.6793   6.0210 -12.6595   0.03    1.4    0.08241   -0.06144   -0.08320   1.21322  0.36639  1.37209 -0.55907  0.58956 -1.15271
2023/07/11 06:07:03.000   35.161122428  136.881562709    47.7888   1   4   0.1305   0.0308   0.2124  -0.0614   0.0788  -0.1659   0.03    3.5    0.06892    0.01564   -0.01960   1.14222  0.35933  1.25589 -0.53211  0.55516 -1.05010
2023/07/11 06:07:04.000   35.161114732  136.881565264    49.2383   2   4  10.0072   2.4418  16.2440  -4.6873   6.0297 -12.6685   0.03    2.4    0.01912   -0.01181    0.04209   1.14212  0.35934  1.25611 -0.53203  0.55527 -1.05011
2023/07/11 06:07:05.000   35.161125920  136.881560920    47.9483   2   4  10.0105   2.4435  16.2463  -4.6900   6.0326 -12.6715   0.03    1.1   -0.04133    0.02541    0.09144   1.14202  0.35934  1.25633 -0.53196  0.55539 -1.05013
2023/07/11 06:07:06.000   35.161121165  136.881561341    49.0982   1   4   0.1307   0.0309   0.2126  -0.0615   0.0789  -0.1661   0.03    9.9   -0.18945    0.02759    0.11491   1.14192  0.35935  1.25654 -0.53188  0.55551 -1.05014
2023/07/11 06:07:09.000   35.161139655  136.881555612    46.9433   2   4  10.0237   2.4503  16.2557  -4.7007   6.0442 -12.6836   0.03    1.6   -0.16555    0.01998    0.01950   1.14163  0.35936  1.25719 -0.53164  0.55586 -1.05018
2023/07/11 06:07:11.000   35.161351504  136.881486953    20.6402   2   4  18.1793   4.6011  23.6259  -9.0089  10.1644 -20.5159   0.03    1.1   -0.04988   -0.00694    0.09822   1.14144  0.35938  1.25763 -0.53149  0.55610 -1.05021
2023/07/11 06:07:13.000   35.161355317  136.881486691    20.8911   2   4  18.1812   4.6025  23.6241  -9.0108  10.1661 -20.5162   0.03    1.3    0.03485    0.02088   -0.12208   1.14124  0.35939  1.25806 -0.53134  0.55634 -1.05025
2023/07/11 06:07:17.000   35.161215655  136.881533322    54.8372   2   7   0.9111   0.9941   2.1210   0.6366  -0.9851  -1.1937   0.03    1.9   -2.13459    1.72880    0.81822   0.32284  0.37583  0.84549  0.28050 -0.50448 -0.46428
2023/07/11 06:07:20.000   35.161120791  136.881631612    35.9243   2  14   0.5444   0.6500   1.3531   0.4692  -0.6180  -0.5730   0.03    1.0   -6.15093    3.41154    0.02303   0.14761  0.17882  0.39157  0.11890 -0.17823 -0.15394
2023/07/11 06:07:25.000   35.160758279  136.881846175    36.6656   2  13   0.7038   1.3652   2.0500   0.8402  -1.3976  -0.7682   0.03    1.1   -9.79430    4.29726   -0.27795   0.22355  0.42435  0.55794  0.27407 -0.38023 -0.21901
2023/07/11 06:07:27.000   35.160576249  136.881951633    37.1253   2  14   0.6779   1.3592   2.0004   0.8256  -1.4184  -0.8220   0.03    1.1  -10.67265    4.67722    0.47150   0.18521  0.39381  0.55773  0.23524 -0.37976 -0.21856
2023/07/11 06:07:28.000   35.160461747  136.881984961    35.5096   2  14   0.6779   1.3593   2.0005   0.8257  -1.4185  -0.8222   0.03    1.4  -11.06713    5.03907    0.35730   0.15885  0.35344  0.42683  0.19697 -0.28611 -0.11660
2023/07/11 06:07:31.000   35.160205921  136.882051259    70.6934   2  11   0.6900   0.8084   1.4513   0.5583  -0.7635  -0.5571   0.03    1.1  -12.17212    5.97664   -0.92181   0.15744  0.25764  0.42475  0.12719 -0.25780 -0.09950
2023/07/11 06:07:32.000   35.160116000  136.882149851    72.5813   2   9   1.1642   1.1018   1.8113   0.9948  -0.7650  -0.7681   0.03    1.6  -10.40561    5.48170   -1.40089   0.28010  0.29274  0.53465  0.26028 -0.13769 -0.19441
2023/07/11 06:07:33.000   35.160051899  136.882247990   -12.3244   2   9   0.6135   0.6733   3.1761   0.4956   1.0462   0.5243   0.03    1.0  -10.74088    5.82765    5.15433   0.15180  0.17329  0.62444  0.12086  0.20521  0.03419
2023/07/11 06:07:35.000   35.159749528  136.882413641    39.3812   2  10   0.7984   0.6388   1.4339  -0.1274   0.4243  -0.8497   0.03    1.1  -10.27781    5.26194    0.39907   0.25062  0.13834  0.39309 -0.06187  0.10217 -0.23746
2023/07/11 06:07:38.000   35.159484182  136.882571240    40.0825   2  19   0.4471   0.4850   1.0136   0.3303  -0.2424  -0.3620   0.03    1.1   -9.87036    5.65397   -0.25242   0.11934  0.12341  0.30057  0.07882 -0.05305 -0.09319
2023/07/11 06:07:39.000   35.159401038  136.882626658    39.0805   2  19   0.4471   0.4850   1.0136   0.3303  -0.2423  -0.3620   0.03    1.0   -9.18147    5.23316   -0.50460   0.10772  0.12325  0.27084  0.07680 -0.04486 -0.04459
2023/07/11 06:07:40.000   35.159320742  136.882671406    39.7260   2  19   0.4470   0.4850   1.0137   0.3303  -0.2422  -0.3620   0.03    1.1   -8.59365    4.75126   -0.15941   0.10772  0.12326  0.27087  0.07680 -0.04482 -0.04461
2023/07/11 06:07:41.000   35.159246781  136.882721128    39.7472   2  19   0.4470   0.4850   1.0137   0.3302  -0.2420  -0.3620   0.03    1.0   -7.80966    4.26520    0.02369   0.11932  0.12341  0.30062  0.07881 -0.05289 -0.09318
2023/07/11 06:07:44.000   35.159072153  136.882846332    41.1587   1  17   0.0053   0.0117   0.0205   0.0063  -0.0139  -0.0078   0.03    6.8   -4.95863    3.02262   -0.03623   0.11463  0.25367  0.40681  0.11879 -0.26317 -0.11528
2023/07/11 06:07:46.000   35.158992326  136.882889649    41.1996   1  17   0.0051   0.0106   0.0186   0.0057  -0.0123  -0.0070   0.03    6.1   -3.78466    1.16491   -0.06303   0.11464  0.25362  0.40684  0.11879 -0.26312 -0.11531
2023/07/11 06:07:49.000   35.158921923  136.882905507    40.8433   2  18   0.4765   0.6179   1.1930   0.4150  -0.5463  -0.4846   0.03    1.7   -1.28906    0.24268    0.17706   0.11169  0.16476  0.31145  0.09553 -0.13686 -0.08083
2023/07/11 06:07:51.000   35.158915620  136.882925066    38.6758   2  17   0.4844   0.6226   1.2144   0.4229  -0.5301  -0.4636   0.03    1.1    0.06645   -0.00586    0.01844   0.11958  0.16664  0.31154  0.10098 -0.13621 -0.07915
2023/07/11 06:07:55.000   35.158918795  136.882924681    39.6579   2  17   0.4844   0.6226   1.2143   0.4229  -0.5297  -0.4636   0.03    1.1    0.01906   -0.00262   -0.08361   0.11959  0.16662  0.31158  0.10100 -0.13608 -0.07921
2023/07/11 06:07:57.000   35.158919288  136.882927364    39.9305   2  17   0.4844   0.6226   1.2143   0.4228  -0.5295  -0.4636   0.03    1.8    0.04588    0.05947   -0.02558   0.11960  0.16661  0.31159  0.10101 -0.13602 -0.07924
2023/07/11 06:07:59.000   35.158921254  136.882931149    39.4919   2  17   0.4844   0.6226   1.2143   0.4228  -0.5293  -0.4636   0.03    1.7    0.00048   -0.03239   -0.05358   0.11960  0.16661  0.31161  0.10102 -0.13595 -0.07928
2023/07/11 06:08:01.000   35.158921227  136.882930660    39.4633   2  17   0.4843   0.6226   1.2143   0.4228  -0.5291  -0.4636   0.03    1.8   -0.01021    0.00250   -0.02171   0.11960  0.16660  0.31163  0.10103 -0.13589 -0.07931
2023/07/11 06:08:02.000   35.158920590  136.882931571    39.3819   2  17   0.4843   0.6226   1.2143   0.4228  -0.5290  -0.4636   0.03    1.7   -0.00803    0.00392    0.00092   0.11961  0.16659  0.31164  0.10103 -0.13586 -0.07932
2023/07/11 06:08:04.000   35.158921840  136.882933374    39.4204   2  17   0.4843   0.6226   1.2142   0.4227  -0.5289  -0.4636   0.03    1.7    0.00608    0.02114   -0.00336   0.11961  0.16659  0.31166  0.10104 -0.13579 -0.07935
2023/07/11 06:08:06.000   35.158922492  136.882934539    39.4657   2  17   0.4843   0.6226   1.2142   0.4227  -0.5287  -0.4636   0.03    1.7    0.01362    0.03009   -0.03747   0.11961  0.16658  0.31168  0.10105 -0.13573 -0.07939
2023/07/11 06:08:08.000   35.158922591  136.882935495    39.6846   2  17   0.4842   0.6226   1.2142   0.4227  -0.5285  -0.4636   0.03    1.7   -0.01473   -0.01681    0.05397   0.11962  0.16657  0.31170  0.10106 -0.13567 -0.07942
2023/07/11 06:08:10.000   35.158923545  136.882936551    39.7041   2  17   0.4842   0.6226   1.2142   0.4227  -0.5283  -0.4636   0.03    1.6    0.01576    0.01369    0.02072   0.11537  0.16640  0.28923  0.09989 -0.13236 -0.05135
2023/07/11 06:08:11.000   35.158924152  136.882937200    39.5055   2  17   0.4842   0.6226   1.2142   0.4227  -0.5282  -0.4636   0.03    1.5    0.01294    0.01384    0.03177   0.11537  0.16639  0.28924  0.09990 -0.13233 -0.05137
2023/07/11 06:08:13.000   35.158923568  136.882936263    39.2893   2  18   0.4762   0.6179   1.1928   0.4146  -0.5442  -0.4845   0.03    1.4   -0.00747    0.01389   -0.02887   0.10750  0.16450  0.28910  0.09453 -0.13316 -0.05514
2023/07/11 06:08:14.000   35.158924148  136.882938100    39.2168   2  18   0.4762   0.6179   1.1928   0.4146  -0.5441  -0.4845   0.03    1.4    0.02160    0.00094   -0.01381   0.10750  0.16449  0.28911  0.09453 -0.13314 -0.05516
2023/07/11 06:08:15.000   35.158925360  136.882938453    39.5836   2  17   0.4842   0.6227   1.2141   0.4226  -0.5278  -0.4636   0.03    1.5    0.00789   -0.07975    0.14420   0.11538  0.16638  0.28928  0.09993 -0.13222 -0.05146
2023/07/11 06:08:18.000   35.158926872  136.882939829    39.4261   2  17   0.4841   0.6227   1.2141   0.4226  -0.5275  -0.4635   0.03    1.5   -0.00957   -0.01753    0.04183   0.11538  0.16637  0.28931  0.09995 -0.13213 -0.05153
2023/07/11 06:08:19.000   35.158924712  136.882938059    38.9212   2  18   0.4762   0.6179   1.1927   0.4146  -0.5437  -0.4844   0.03    1.3    0.02205    0.01761    0.02324   0.10751  0.16447  0.28916  0.09456 -0.13300 -0.05525
2023/07/11 06:08:23.000   35.158926849  136.882941239    39.3186   2  17   0.4841   0.6227   1.2141   0.4225  -0.5270  -0.4635   0.03    1.6   -0.03604   -0.05596   -0.00196   0.11539  0.16635  0.28936  0.09998 -0.13199 -0.05164
2023/07/11 06:08:26.000   35.158925780  136.882939168    40.4080   2  18   0.4581   0.6190   1.0112   0.4098  -0.4818  -0.3316   0.03    1.9    0.02705    0.03575   -0.06369   0.11540  0.16634  0.28939  0.10000 -0.13191 -0.05171
2023/07/11 06:08:27.000   35.158925536  136.882939908    40.4380   2  18   0.4581   0.6191   1.0112   0.4098  -0.4818  -0.3316   0.03    1.8   -0.01079   -0.00927   -0.01159   0.11540  0.16634  0.28939  0.10001 -0.13188 -0.05173
2023/07/11 06:08:29.000   35.158925986  136.882939389    40.1569   2  18   0.4581   0.6191   1.0111   0.4098  -0.4816  -0.3316   0.03    1.8    0.04783    0.03600    0.01289   0.11540  0.16633  0.28941  0.10002 -0.13183 -0.05178
2023/07/11 06:08:30.000   35.158926237  136.882939892    40.2176   2  18   0.4581   0.6191   1.0111   0.4098  -0.4816  -0.3316   0.03    2.0   -0.01360    0.01777   -0.01288   0.11540  0.16633  0.28942  0.10002 -0.13180 -0.05180
2023/07/11 06:08:32.000   35.158926502  136.882940676    40.3075   2  18   0.4581   0.6191   1.0111   0.4098  -0.4815  -0.3316   0.03    1.9   -0.02761   -0.03437    0.03903   0.11541  0.16632  0.28944  0.10004 -0.13174 -0.05185
2023/07/11 06:08:33.000   35.158924915  136.882939569    39.9266   2  19   0.4469   0.6136   0.9966   0.3995  -0.4959  -0.3566   0.03    1.6    0.00986   -0.02215    0.03310   0.10753  0.16441  0.28930  0.09463 -0.13260 -0.05553
2023/07/11 06:08:34.000   35.158924100  136.882939125    39.8336   2  19   0.4469   0.6136   0.9965   0.3995  -0.4958  -0.3566   0.03    1.8   -0.03068   -0.00858    0.04292   0.10753  0.16440  0.28931  0.09463 -0.13258 -0.05555
2023/07/11 06:08:35.000   35.158926174  136.882939653    40.3029   2  18   0.4581   0.6192   1.0111   0.4098  -0.4813  -0.3316   0.03    1.8    0.04314    0.00693    0.01592   0.11541  0.16631  0.28947  0.10006 -0.13166 -0.05192
2023/07/11 06:08:39.000   35.158924869  136.882938681    40.6028   2  18   0.4580   0.6192   1.0110   0.4098  -0.4811  -0.3317   0.03    2.0   -0.00408   -0.00653    0.01815   0.12557  0.17016  0.31466  0.10863 -0.14747 -0.09383
2023/07/11 06:08:40.000   35.158924555  136.882938675    40.7272   2  18   0.4580   0.6192   1.0110   0.4098  -0.4810  -0.3317   0.03    1.9    0.01949    0.02022   -0.00066   0.12557  0.17015  0.31465  0.10863 -0.14743 -0.09382
2023/07/11 06:08:41.000   35.158923717  136.882937868    40.8021   2  18   0.4580   0.6192   1.0110   0.4098  -0.4810  -0.3317   0.03    1.9    0.01734   -0.02177    0.04954   0.12557  0.17014  0.31464  0.10862 -0.14739 -0.09382
2023/07/11 06:08:42.000   35.158923798  136.882937081    40.5465   2  18   0.4580   0.6192   1.0110   0.4098  -0.4809  -0.3317   0.03    1.9    0.00250   -0.01157    0.06517   0.12557  0.17013  0.31464  0.10862 -0.14735 -0.09382
2023/07/11 06:08:43.000   35.158923680  136.882936498    40.5314   2  18   0.4580   0.6193   1.0109   0.4098  -0.4809  -0.3317   0.03    1.9    0.00997   -0.01710    0.00288   0.12557  0.17013  0.31463  0.10862 -0.14731 -0.09382
2023/07/11 06:08:44.000   35.158922615  136.882935570    40.6159   2  18   0.4580   0.6193   1.0109   0.4098  -0.4808  -0.3317   0.03    2.0   -0.00719   -0.02245    0.03657   0.12557  0.17012  0.31462  0.10862 -0.14726 -0.09381
2023/07/11 06:08:46.000   35.158923456  136.882935554    40.4125   2  18   0.4580   0.6193   1.0109   0.4098  -0.4807  -0.3317   0.03    1.9   -0.00011   -0.00820   -0.00192   0.11543  0.16628  0.28957  0.10013 -0.13134 -0.05217
2023/07/11 06:08:48.000   35.158922796  136.882932337    40.4397   2  18   0.4580   0.6193   1.0109   0.4098  -0.4806  -0.3317   0.03    1.9   -0.01933   -0.01622    0.00463   0.12556  0.17008  0.31459  0.10862 -0.14710 -0.09380
2023/07/11 06:08:50.000   35.158921260  136.882931741    40.4329   2  18   0.4579   0.6193   1.0108   0.4098  -0.4805  -0.3317   0.03    1.8    0.01982    0.01923   -0.03809   0.11544  0.16626  0.28961  0.10015 -0.13123 -0.05226
2023/07/11 06:08:51.000   35.158920529  136.882930440    40.4863   2  18   0.4579   0.6193   1.0108   0.4098  -0.4804  -0.3317   0.03    1.9   -0.02086   -0.02946    0.04741   0.11544  0.16626  0.28962  0.10016 -0.13120 -0.05228
2023/07/11 06:08:58.000   35.158781705  136.882962649    43.1831   2  19   0.4353   0.5430   0.9185   0.3617  -0.3663  -0.2974   0.03    1.1   -2.94974    1.02260    0.44868   0.10757  0.16429  0.28954  0.09475 -0.13189 -0.05602
2023/07/11 06:09:00.000   35.158741185  136.883011021    42.2787   2  20   0.4259   0.4846   0.8666   0.3300  -0.2439  -0.2475   0.03    1.1   -2.23627    1.73739   -0.13369   0.10430  0.12304  0.25548  0.07819 -0.05046  0.02112
2023/07/11 06:09:01.000   35.158722729  136.883026413    42.2813   2  20   0.4259   0.4846   0.8666   0.3299  -0.2438  -0.2475   0.03    1.3   -2.19474    2.24461    0.07336   0.10429  0.12304  0.25551  0.07819 -0.05043  0.02109
2023/07/11 06:09:02.000   35.158704874  136.883058335    41.0388   2  20   0.4259   0.4846   0.8666   0.3299  -0.2437  -0.2474   0.03    1.3   -2.02617    3.02094    0.04665   0.10429  0.12304  0.25554  0.07818 -0.05040  0.02105
2023/07/11 06:09:04.000   35.158663703  136.883124774    41.7858   1  20   0.0043   0.0049   0.0088   0.0033  -0.0024  -0.0024   0.03    3.3   -1.15018    4.64811    0.15124   0.10429  0.12304  0.25559  0.07818 -0.05033  0.02098
2023/07/11 06:09:08.000   35.158669665  136.883361460    43.4075   2  13   0.6827   0.5008   1.3573   0.4046  -0.3511  -0.7342   0.03    1.1    0.93381    5.53552    0.21198   0.17734  0.12650  0.34538  0.07777  0.03100 -0.15169
2023/07/11 06:09:09.000   35.158682130  136.883426633    43.3720   2  12   0.8091   0.6205   1.5847   0.1053   0.4139  -0.9447   0.03    1.1    0.94930    5.89379    0.12114   0.21760  0.13051  0.37986  0.04477  0.07771 -0.20723
2023/07/11 06:09:10.000   35.158684178  136.883493708    44.2896   2  12   0.8091   0.6205   1.5847   0.1047   0.4142  -0.9446   0.03    1.9    1.27338    6.37100    0.11265   0.21761  0.13051  0.37989  0.04475  0.07776 -0.20725
2023/07/11 06:09:13.000   35.158715648  136.883734088    45.0817   2  13   0.6504   0.6104   1.3419   0.2360   0.2872  -0.7078   0.03    1.8    1.29758    8.29263    0.19853   0.18892  0.13042  0.37661  0.05047  0.07627 -0.19371
2023/07/11 06:09:15.000   35.158753359  136.883920907    43.8078   2  18   0.4435   0.4846   0.9543   0.3287  -0.2374  -0.3299   0.03    1.1    1.46692    8.87603    0.01276   0.11002  0.12488  0.28314  0.07371 -0.01496 -0.06181
2023/07/11 06:09:16.000   35.158763794  136.884019935    44.6363   2  20   0.4257   0.4845   0.8669   0.3296  -0.2425  -0.2473   0.03    1.0    1.57743    9.37513   -0.08366   0.10427  0.12305  0.25590  0.07817 -0.04995  0.02055
2023/07/11 06:09:18.000   35.158793837  136.884235930    44.0915   2  20   0.4256   0.4845   0.8669   0.3295  -0.2424  -0.2473   0.03    1.3    1.63561   10.17366   -0.00211   0.10427  0.12305  0.25595  0.07817 -0.04988  0.02047
2023/07/11 06:09:19.000   35.158807916  136.884346036    43.5537   2  20   0.4256   0.4845   0.8669   0.3295  -0.2423  -0.2473   0.03    1.3    1.59223   10.34504   -0.24579   0.10427  0.12305  0.25598  0.07817 -0.04985  0.02043
2023/07/11 06:09:20.000   35.158814402  136.884456061    42.6663   1  20   0.0049   0.0050   0.0092   0.0036  -0.0025  -0.0029   0.03    3.2    1.51088   10.36354   -0.21211   0.10427  0.12305  0.25601  0.07817 -0.04982  0.02040
2023/07/11 06:09:24.000   35.158874464  136.884915668    43.5656   2  20   0.4370   0.4858   0.8873   0.3346  -0.2552  -0.2825   0.03    1.7    1.28062   10.03824   -0.47046   0.11118  0.12328  0.27080  0.07998 -0.05589 -0.05465
2023/07/11 06:09:26.000   35.158907915  136.885140978    41.8846   2  18   0.4794   0.4858   1.1056   0.3337  -0.2496  -0.4555   0.03    1.4    1.35150   10.10183   -0.48675   0.12613  0.12492  0.32645  0.07287  0.01177 -0.11763
2023/07/11 06:09:27.000   35.158917162  136.885245487    42.7513   2  19   0.4449   0.4847   1.0180   0.3266  -0.2262  -0.3612   0.03    1.1    1.68872    9.74203    0.14636   0.11887  0.12347  0.30229  0.07814 -0.04678 -0.09294
2023/07/11 06:09:30.000   35.158958700  136.885538376    41.7951   2  20   0.4254   0.4845   0.8671   0.3292  -0.2414  -0.2472   0.03    2.8    1.26616    7.87849    0.03319   0.10425  0.12306  0.25627  0.07816 -0.04950  0.02001
2023/07/11 06:09:33.000   35.158988619  136.885730280    40.3521   2  18   0.4793   0.4858   1.1058   0.3334  -0.2484  -0.4554   0.03    1.2    0.63711    3.96299   -0.13059   0.12611  0.12493  0.32661  0.07280  0.01377 -0.11766
2023/07/11 06:09:34.000   35.158994412  136.885769534    40.4211   2  18   0.4592   0.4858   0.9880   0.3344  -0.2531  -0.3732   0.03    1.1    0.54856    3.05644    0.00340   0.12611  0.12493  0.32663  0.07279  0.01404 -0.11766
2023/07/11 06:09:35.000   35.158987234  136.885792050    43.1620   2  18   0.4579   0.4846   1.0544   0.3263  -0.2247  -0.4003   0.03    1.1    0.52176    2.67719   -0.05594   0.12610  0.12493  0.32666  0.07278  0.01430 -0.11767
2023/07/11 06:09:36.000   35.159000882  136.885822282    40.4010   2  18   0.4579   0.4846   1.0545   0.3262  -0.2246  -0.4003   0.03    1.0    0.42066    2.46213   -0.17612   0.11002  0.12492  0.28386  0.07364 -0.01108 -0.06232
2023/07/11 06:09:37.000   35.159003683  136.885857863    41.1882   2  20   0.4253   0.4844   0.8673   0.3290  -0.2408  -0.2471   0.03    1.2    0.50636    3.35466   -0.10695   0.10424  0.12307  0.25645  0.07816 -0.04926  0.01974
2023/07/11 06:09:41.000   35.159033851  136.886080621    41.1989   2  20   0.4252   0.4844   0.8674   0.3290  -0.2404  -0.2471   0.03    1.0    0.96956    6.39186    0.14592   0.11112  0.12329  0.27113  0.07992 -0.05523 -0.05472
2023/07/11 06:09:42.000   35.159045793  136.886151733    40.3844   2  20   0.4252   0.4844   0.8674   0.3289  -0.2403  -0.2470   0.03    2.1    1.14861    6.57530   -0.08536   0.11112  0.12329  0.27114  0.07992 -0.05519 -0.05472
2023/07/11 06:09:43.000   35.159051937  136.886225178    40.6823   2  16   0.4810   0.4911   0.8868   0.3526  -0.2324  -0.2385   0.03    1.2    0.98588    6.38891   -0.07262   0.12238  0.12605  0.27496  0.08168 -0.00894  0.06143
2023/07/11 06:09:44.000   35.159065227  136.886301455    41.0412   2  19   0.4335   0.6409   0.9695   0.3896  -0.4750  -0.3213   0.03    1.0    1.03144    6.02456    0.34568   0.10777  0.16693  0.28997  0.09407 -0.13107 -0.05672
2023/07/11 06:09:52.000   35.159138153  136.886655790    19.5770   1   7   0.0339   0.0151   0.0188   0.0198  -0.0066  -0.0111   0.03    4.6    0.10903    0.00257   -0.02978   0.21869  0.14448  0.41806  0.07247 -0.06347 -0.19421
2023/07/11 06:09:55.000   35.159083446  136.886715092    35.1995   2   7   0.8006   0.6290   1.3775   0.2693  -0.0870  -0.5813   0.03    1.0   -0.01253   -0.00032    0.00711   0.21865  0.14448  0.41812  0.07241 -0.06329 -0.19398
2023/07/11 06:10:00.000   35.159137691  136.886727958    37.7286   2   5   2.0644   1.0116   2.5962  -1.1714   1.3126  -2.1476   0.03    2.0   -0.04445   -0.07783   -0.15721   0.31465  0.15020  0.45854 -0.04913  0.06122 -0.26901
2023/07/11 06:10:01.000   35.159118363  136.886734321    39.6465   2   7   0.7921   0.6961   1.4139   0.1580   0.3813  -0.6964   0.03    1.7   -0.13086    0.01675    0.17379   0.26192  0.14983  0.43860 -0.02447  0.04857 -0.22137
2023/07/11 06:10:04.000   35.159122737  136.886711259    38.5427   2   5   1.0234   0.8079   1.5900  -0.3653   0.6663  -0.8770   0.03    1.2    0.06932    0.03823    0.03332   0.31485  0.15019  0.45850 -0.04927  0.06137 -0.26875
2023/07/11 06:10:06.000   35.159128853  136.886706033    36.7155   2   5   1.0557   0.8115   1.6200  -0.3917   0.6840  -0.9213   0.03    1.3   -0.06920    0.03449    0.20789   0.31495  0.15019  0.45848 -0.04933  0.06145 -0.26863
2023/07/11 06:10:08.000   35.159110711  136.886690652    35.7605   2   7   0.8086   0.6616   1.4164   0.3456   0.3253  -0.5889   0.03    2.0    0.03524   -0.00612   -0.08059   0.21845  0.14449  0.41836  0.07212 -0.06250 -0.19300
2023/07/11 06:10:10.000   35.159092668  136.886703806    39.2861   2   9   0.7131   0.6497   1.3868   0.3926   0.2649  -0.5210   0.03    1.4    0.00887   -0.13355   -0.35376   0.17222  0.14444  0.40805  0.07327 -0.06274 -0.15832
2023/07/11 06:10:13.000   35.159088234  136.886688131    36.5425   2   9   0.7132   0.6548   1.4021   0.3936   0.2957  -0.5184   0.03    1.1    0.03833   -0.05439   -0.09263   0.17221  0.14444  0.40821  0.07322 -0.06257 -0.15824
2023/07/11 06:10:15.000   35.159088279  136.886684775    36.5104   2   9   0.7133   0.6548   1.4022   0.3935   0.2962  -0.5182   0.03    1.3    0.01285    0.02049    0.07336   0.17220  0.14444  0.40832  0.07319 -0.06245 -0.15819
2023/07/11 06:10:17.000   35.159080149  136.886692235    38.2395   2   8   0.7940   0.7448   1.5161   0.1759   0.5407  -0.6849   0.03    1.3    0.00441   -0.06004   -0.14524   0.18933  0.14854  0.42908  0.05123  0.02591 -0.18805
2023/07/11 06:10:18.000   35.159093870  136.886731364    44.5215   2   7   0.8036   0.8403   1.6739   0.2808   0.7540  -0.6178   0.03    1.1   -0.03588    0.03712    0.26228   0.18953  0.19559  0.55288  0.03868  0.21222 -0.19606
2023/07/11 06:10:20.000   35.159093562  136.886728053    44.4093   2   7   0.8038   0.8403   1.6742   0.2803   0.7544  -0.6179   0.03    1.1   -0.04525    0.00231    0.00681   0.18953  0.19561  0.55309  0.03851  0.21233 -0.19608
2023/07/11 06:10:21.000   35.159094365  136.886726990    44.1561   2   7   0.8038   0.8403   1.6744   0.2800   0.7545  -0.6180   0.03    1.1    0.00105   -0.02196    0.01388   0.22757  0.20560  0.59475 -0.08059  0.24276 -0.25684
2023/07/11 06:10:23.000   35.159102118  136.886721812    42.4701   2   5   0.8178   0.8413   1.6938   0.2682   0.7618  -0.6481   0.03    1.2    0.06266    0.01170   -0.00492   0.27516  0.20949  0.60492 -0.11275  0.25175 -0.28794
2023/07/11 06:10:29.000   35.159125775  136.886697307    38.8492   2   5   2.5125   1.5858   3.9339  -1.7674   2.3109  -2.9691   0.03    1.0    0.11819   -0.08224   -0.17647   0.26773  0.26471  0.69364 -0.17339  0.34413 -0.34080
2023/07/11 06:10:32.000   35.159118810  136.886701715    42.7781   2   6   0.7953   0.7257   1.5050   0.4246   0.5243  -0.5333   0.03    1.7   -0.00867    0.07216    0.12292   0.19304  0.18730  0.49128  0.06798  0.16378 -0.15890
2023/07/11 06:10:33.000   35.159124129  136.886695015    39.4125   2   5   2.5085   1.5846   3.9254  -1.7649   2.3073  -2.9626   0.03    1.0   -0.00556   -0.09885   -0.14327   0.26760  0.26476  0.69379 -0.17339  0.34423 -0.34061
2023/07/11 06:10:34.000   35.159147518  136.886659400    40.7330   2   4   0.9645   0.8639   1.8270  -0.2773   0.9104  -0.9318   0.03    1.0   -0.03065   -0.01947   -0.04937   0.43913  0.31734  0.87873 -0.30903  0.47773 -0.55390
2023/07/11 06:10:35.000   35.159144145  136.886657761    40.9639   2   4   0.9647   0.8640   1.8272  -0.2778   0.9106  -0.9320   0.03    1.1   -0.13011    0.15885    0.29908   0.63147  0.39794  0.97852 -0.45216  0.57584 -0.70858
2023/07/11 06:10:39.000   35.159145577  136.886654075    41.1691   2   4   0.9656   0.8643   1.8278  -0.2797   0.9115  -0.9329   0.03    1.3   -0.05853    0.03560    0.25399   0.21944  0.21112  0.60927 -0.06853  0.27076 -0.22034
2023/07/11 06:10:41.000   35.159129798  136.886660828    41.4918   2   4   1.0444   0.8698   1.8287  -0.3421   0.9142  -0.9424   0.03    1.2    0.01411   -0.06798   -0.19767   0.21948  0.21119  0.60952 -0.06868  0.27095 -0.22046
2023/07/11 06:10:42.000   35.159126702  136.886661894    41.5969   2   4   1.0446   0.8698   1.8288  -0.3425   0.9144  -0.9426   0.03    1.0   -0.06020    0.06028    0.15368   0.21950  0.21123  0.60965 -0.06875  0.27105 -0.22052
2023/07/11 06:10:44.000   35.159124178  136.886661538    41.6129   2   4   1.0451   0.8700   1.8291  -0.3433   0.9148  -0.9430   0.03    1.1    0.24051   -0.13958   -0.26317   0.63236  0.39886  0.98024 -0.45317  0.57721 -0.70976
2023/07/11 06:10:45.000   35.159134302  136.886657919    41.7238   2   4   0.9668   0.8647   1.8288  -0.2826   0.9128  -0.9343   0.03    1.0   -0.08872   -0.01016   -0.04329   0.63246  0.39896  0.98043 -0.45329  0.57736 -0.70990
2023/07/11 06:10:47.000   35.159107803  136.886667516    45.0261   2   7   0.7224   0.6882   1.4940   0.4669   0.5363  -0.4816   0.03    1.5   -0.05391    0.05920    0.28956   0.20905  0.13053  0.43550  0.08649  0.07127 -0.14087
2023/07/11 06:10:48.000   35.159097907  136.886657539    48.4269   2   6   1.2813   0.9025   1.8823  -0.6566   0.7239  -1.0968   0.03    0.0    1.07612   -0.43305   -2.22281   0.23759  0.14079  0.45279 -0.03558  0.10079 -0.21775
2023/07/11 06:10:50.000   35.159147002  136.886789872    47.1275   1  12   0.3110   0.1617   0.6148  -0.2228   0.3137  -0.4371   0.03   23.4    1.37989    2.14638   -3.42730   0.17606  0.17710  0.39125  0.13874  0.14277  0.04860
2023/07/11 06:10:51.000   35.159117758  136.886721118    57.0863   2  18   0.4433   0.5038   1.0451   0.3213  -0.2752  -0.3572   0.03    1.1    0.18667    0.74405   -0.10263   0.11849  0.13734  0.31866  0.07790 -0.08680 -0.09325
2023/07/11 06:10:52.000   35.159059929  136.886740253    66.4590   2   5   3.4963   1.0935   5.7861   1.6213  -1.7560  -4.1180   0.03    0.0    2.46168    2.52304    0.51245   0.44517  0.15647  0.65152  0.11370  0.05655 -0.44535
2023/07/11 06:10:56.000   35.159183203  136.886816228    42.3615   2  18   0.4497   0.5245   0.9066   0.3635  -0.1264  -0.2262   0.03    1.6    1.53730    0.99929   -0.07208   0.11952  0.14438  0.30144  0.09288  0.07919 -0.03093
2023/07/11 06:11:00.000   35.159221332  136.886832127    41.2467   2  20   0.4238   0.4841   0.8690   0.3269  -0.2335  -0.2463   0.03    1.3    0.50066    0.06216   -0.06313   0.10411  0.12313  0.25853  0.07807 -0.04636  0.01580
2023/07/11 06:11:02.000   35.159214728  136.886829836    40.3965   1  20   0.0043   0.0049   0.0089   0.0033  -0.0023  -0.0024   0.03    3.5    0.28912    0.07313    0.00845   0.10410  0.12313  0.25858  0.07807 -0.04628  0.01568
2023/07/11 06:11:03.000   35.159215386  136.886829969    40.4012   1  20   0.0043   0.0049   0.0089   0.0033  -0.0023  -0.0024   0.03    4.2   -0.00457   -0.02559   -0.01138   0.10410  0.12313  0.25861  0.07807 -0.04624  0.01563
2023/07/11 06:11:04.000   35.159215358  136.886829963    40.4038   1  20   0.0043   0.0049   0.0089   0.0033  -0.0023  -0.0024   0.03    4.1    0.00439   -0.00256   -0.00258   0.10410  0.12313  0.25863  0.07807 -0.04621  0.01557
2023/07/11 06:11:07.000   35.159242412  136.886829541    40.3816   1  20   0.0043   0.0049   0.0089   0.0033  -0.0023  -0.0024   0.03    3.5    2.68284   -0.35793   -0.04550   0.11083  0.12330  0.27270  0.07959 -0.05167 -0.05517
2023/07/11 06:11:11.000   35.159431449  136.886785286    40.9580   2  19   0.4457   0.6152   0.9946   0.3991  -0.4873  -0.3570   0.03    1.1    7.07346   -1.36080   -0.16780   0.10773  0.16370  0.29061  0.09533 -0.12795 -0.05866
2023/07/11 06:11:12.000   35.159498314  136.886769606    41.0858   2  19   0.4457   0.6152   0.9946   0.3991  -0.4872  -0.3570   0.03    1.0    7.97000   -1.39244    0.03007   0.10773  0.16369  0.29062  0.09533 -0.12792 -0.05868
2023/07/11 06:11:13.000   35.159569555  136.886750053    41.6192   2  18   0.4570   0.9511   1.4281   0.4817  -0.9902  -0.4795   0.03    1.7    8.72501   -1.34812   -0.54157   0.10956  0.24553  0.37602  0.11285 -0.24499 -0.09056
2023/07/11 06:11:15.000   35.159732158  136.886706451    41.6115   2  18   0.4569   0.9509   1.4279   0.4816  -0.9899  -0.4794   0.03    1.1    9.52814   -1.68939   -0.78417   0.12195  0.26132  0.42526  0.13242 -0.27889 -0.13727
2023/07/11 06:11:16.000   35.159824608  136.886694690    40.7386   2  17   0.4655   0.9508   1.4561   0.4820  -0.9890  -0.4521   0.03    1.0    9.83653   -2.43563    0.44554   0.11670  0.24559  0.37746  0.11428 -0.24436 -0.08304
2023/07/11 06:11:17.000   35.159908495  136.886658430    40.4353   2  19   0.4456   0.6153   0.9945   0.3991  -0.4870  -0.3570   0.03    1.6    9.94539   -1.92719    0.04262   0.10773  0.16367  0.29065  0.09535 -0.12776 -0.05879
2023/07/11 06:11:19.000   35.160093469  136.886616774    40.8971   2  21   0.4135   0.4831   0.8525   0.3221  -0.2203  -0.2122   0.03    1.0   10.49940   -1.90884    0.07520   0.10407  0.12314  0.25900  0.07805 -0.04565  0.01463
2023/07/11 06:11:20.000   35.160184929  136.886587646    41.3819   2  20   0.4235   0.4840   0.8694   0.3264  -0.2317  -0.2462   0.03    1.1   10.51759   -2.19209    0.04367   0.10407  0.12314  0.25902  0.07804 -0.04561  0.01456
2023/07/11 06:11:22.000   35.160381846  136.886544562    40.5574   1  18   0.0058   0.0091   0.0125   0.0060  -0.0065  -0.0043   0.03    4.2   10.86633   -2.33513   -0.01562   0.12737  0.16719  0.35702  0.10625 -0.15043 -0.13206
2023/07/11 06:11:23.000   35.160480623  136.886518800    40.5534   1  19   0.0064   0.0103   0.0116   0.0070  -0.0064  -0.0041   0.03    3.7   10.63607   -3.23087   -0.41352   0.10774  0.16364  0.29069  0.09538 -0.12757 -0.05891
2023/07/11 06:11:24.000   35.160579565  136.886499361    42.2435   2  17   0.4626   0.7269   1.2121   0.4370  -0.6838  -0.4576   0.03    1.0   11.05097   -2.03916   -0.11258   0.13843  0.27455  0.50767  0.15199 -0.31814 -0.19240
2023/07/11 06:11:26.000   35.160784711  136.886463818    42.4765   2  12   0.8014   1.2383   2.6073   0.7884  -1.5152  -1.2764   0.03    1.1   10.95708   -1.94390    0.26181   0.21367  0.28911  0.67045  0.18793 -0.36800 -0.32655
2023/07/11 06:11:33.000   35.161490683  136.886263898    43.3287   2  18   0.4455   0.6156   0.9950   0.3989  -0.4854  -0.3572   0.03    1.2   11.67101   -2.41344    0.89833   0.10932  0.16371  0.29741  0.09599 -0.12871 -0.06818
2023/07/11 06:11:34.000   35.161593081  136.886232939    42.5282   2  19   0.4455   0.6154   0.9943   0.3990  -0.4860  -0.3571   0.03    1.1   11.27392   -2.45754    0.15982   0.10775  0.16359  0.29077  0.09542 -0.12723 -0.05915
2023/07/11 06:11:35.000   35.161703714  136.886218780    42.9343   2  19   0.4937   0.5516   0.8701   0.4166  -0.2146  -0.2319   0.03    1.2   11.51707   -2.39784    0.32768   0.11457  0.12895  0.26118  0.08900 -0.02930  0.04063
2023/07/11 06:11:36.000   35.161795467  136.886175197    41.7798   2  20   0.4232   0.4840   0.8697   0.3260  -0.2302  -0.2460   0.03    1.1   11.43137   -2.36304    0.10392   0.10404  0.12315  0.25941  0.07802 -0.04500  0.01342
2023/07/11 06:11:37.000   35.161901082  136.886154353    41.5668   2  20   0.4232   0.4840   0.8697   0.3260  -0.2302  -0.2460   0.03    1.1   11.58640   -2.49323    0.11352   0.10404  0.12316  0.25943  0.07802 -0.04496  0.01334
2023/07/11 06:11:40.000   35.162213416  136.886072698    41.0293   1  20   0.0058   0.0067   0.0100   0.0053   0.0026   0.0018   0.03    6.6   11.66820   -2.59080   -0.10201   0.10403  0.12316  0.25950  0.07802 -0.04484  0.01312
2023/07/11 06:11:42.000   35.162422120  136.886012529    41.0952   2  20   0.4231   0.4840   0.8698   0.3258  -0.2297  -0.2460   0.03    1.3   11.74095   -2.29832   -0.38492   0.10403  0.12316  0.25955  0.07801 -0.04476  0.01296
2023/07/11 06:11:43.000   35.162528367  136.885989502    41.9510   2  20   0.4231   0.4839   0.8699   0.3258  -0.2296  -0.2460   0.03    1.3   11.90570   -2.16029    0.83741   0.11070  0.12330  0.27332  0.07943 -0.05007 -0.05545
2023/07/11 06:11:45.000   35.162745815  136.885935557    40.6111   2  18   0.4496   0.7220   1.1182   0.4268  -0.6548  -0.3984   0.03    1.7   12.23320   -2.55507    0.06413   0.10959  0.24473  0.37624  0.11288 -0.24403 -0.09101
2023/07/11 06:11:47.000   35.162972447  136.885891598    41.8467   2  20   0.4230   0.4839   0.8699   0.3257  -0.2292  -0.2460   0.03    1.1   12.89820   -2.27140    0.65354   0.10402  0.12316  0.25967  0.07801 -0.04457  0.01256
2023/07/11 06:11:48.000   35.163086653  136.885852608    41.7949   2  20   0.4230   0.4839   0.8700   0.3257  -0.2291  -0.2460   0.03    1.1   12.98154   -2.72332    0.15743   0.10402  0.12316  0.25969  0.07800 -0.04453  0.01248
2023/07/11 06:11:49.000   35.163204214  136.885816277    42.1317   2  20   0.4230   0.4839   0.8700   0.3256  -0.2291  -0.2460   0.03    1.3   13.30244   -2.85119    0.10346   0.11068  0.12330  0.27342  0.07941 -0.04979 -0.05550
2023/07/11 06:11:51.000   35.163445288  136.885765681    41.9449   2  19   0.4236   0.4876   0.8792   0.3278  -0.2448  -0.2522   0.03    1.5   13.06476   -2.73696    0.71297   0.11069  0.12580  0.27474  0.07969 -0.05598 -0.05595
2023/07/11 06:11:54.000   35.163805596  136.885670031    41.9927   2  20   0.4229   0.4839   0.8701   0.3255  -0.2286  -0.2459   0.03    2.6   13.38492   -2.59455    0.04521   0.11066  0.12330  0.27350  0.07939 -0.04956 -0.05554
2023/07/11 06:11:58.000   35.164288780  136.885569712    41.9069   2  19   0.4453   0.6156   0.9941   0.3989  -0.4846  -0.3572   0.03    1.1   13.18338   -1.04006    0.16579   0.10778  0.16349  0.29092  0.09551 -0.12647 -0.05967
2023/07/11 06:12:01.000   35.164580471  136.885523770    46.2401   2  15   0.5223   0.7816   1.2837   0.5045  -0.7269  -0.5406   0.03    1.8    8.62115   -0.98497   -0.37113   0.15813  0.31112  0.52803  0.18075 -0.32072 -0.21070
2023/07/11 06:12:04.000   35.164593230  136.885645531    93.4936   2  15   0.4863   0.5308   1.0146   0.3308  -0.2587  -0.3873   0.03    1.1    2.90030   -0.28485    0.25961   0.12771  0.14103  0.30257  0.06752 -0.07463 -0.08426
2023/07/11 06:12:06.000   35.164784002  136.885488155    46.0487   2  13   0.5834   0.6421   1.2594   0.2197   0.2285  -0.6094   0.03    1.3    0.15377    0.01450   -0.00683   0.15190  0.14960  0.38207  0.03816  0.04269 -0.16723
2023/07/11 06:12:07.000   35.164775386  136.885490547    42.7364   2  13   0.5856   0.6474   1.2825   0.2098   0.1798  -0.5994   0.03    1.0    0.26455    0.00852    0.01750   0.15190  0.14960  0.38211  0.03812  0.04278 -0.16724
2023/07/11 06:12:08.000   35.164729095  136.885523198    53.2334   2  11   0.5857   0.6540   1.2731   0.1754   0.2389  -0.5944   0.03    1.1    0.10356   -0.01345    0.07219   0.17171  0.15254  0.39302 -0.03054  0.06761 -0.18795
2023/07/11 06:12:09.000   35.164707805  136.885485916    61.0149   2  11   0.5857   0.6540   1.2732   0.1752   0.2391  -0.5943   0.03    1.1    0.02472   -0.00820    0.01712   0.17170  0.15254  0.39305 -0.03058  0.06766 -0.18794
2023/07/11 06:12:11.000   35.164705058  136.885484160    61.0009   2  11   0.5856   0.6540   1.2733   0.1747   0.2397  -0.5943   0.03    1.1   -0.01459    0.00026   -0.01369   0.17168  0.15255  0.39310 -0.03066  0.06777 -0.18793
2023/07/11 06:12:14.000   35.164763771  136.885475604    47.3218   2  11   0.6559   0.6583   1.4106   0.0901   0.3216  -0.7295   0.03    1.2    0.02865    0.01660   -0.09009   0.17164  0.15256  0.39317 -0.03078  0.06792 -0.18792
2023/07/11 06:12:19.000   35.164789102  136.885457119    50.8074   2  13   0.5151   0.6436   1.2533   0.2376   0.2398  -0.5497   0.03    1.3    0.01884    0.00758   -0.07103   0.13960  0.14823  0.35692  0.05146 -0.03642 -0.13718
2023/07/11 06:12:21.000   35.164780842  136.885481518    44.1825   2  13   0.5160   0.6481   1.2825   0.2324   0.1921  -0.5422   0.03    1.1    0.00646   -0.01740    0.02699   0.13958  0.14823  0.35697  0.05143 -0.03627 -0.13717
2023/07/11 06:12:22.000   35.164780359  136.885482703    44.3408   2  13   0.5159   0.6481   1.2826   0.2323   0.1924  -0.5422   0.03    1.1    0.00581    0.01672    0.00787   0.13957  0.14823  0.35699  0.05141 -0.03620 -0.13717
2023/07/11 06:12:23.000   35.164781244  136.885483673    44.2816   2  13   0.5159   0.6481   1.2827   0.2321   0.1928  -0.5422   0.03    1.0   -0.02153   -0.00861    0.02897   0.13957  0.14823  0.35702  0.05140 -0.03613 -0.13716
2023/07/11 06:12:26.000   35.164780541  136.885485824    44.7637   2  13   0.5159   0.6481   1.2829   0.2317   0.1938  -0.5421   0.03    1.1    0.01525   -0.01619   -0.03655   0.13955  0.14823  0.35709  0.05134 -0.03591 -0.13715
2023/07/11 06:12:28.000   35.164787753  136.885481589    42.9231   2  15   0.4857   0.6420   1.2128   0.2625   0.0285  -0.4702   0.03    1.0    0.03448   -0.03224   -0.04796   0.13119  0.14710  0.35543  0.05917 -0.04379 -0.13095
2023/07/11 06:12:29.000   35.164780884  136.885485961    44.5429   2  13   0.5158   0.6480   1.2831   0.2312   0.1948  -0.5421   0.03    1.0   -0.00001   -0.01570   -0.00368   0.13952  0.14823  0.35717  0.05129 -0.03570 -0.13714
2023/07/11 06:12:30.000   35.164781350  136.885487163    44.4909   2  13   0.5158   0.6480   1.2832   0.2311   0.1952  -0.5421   0.03    1.1    0.01557   -0.00870   -0.07134   0.13952  0.14824  0.35719  0.05128 -0.03562 -0.13713
2023/07/11 06:12:32.000   35.164781506  136.885487948    44.5171   2  13   0.5157   0.6480   1.2834   0.2308   0.1958  -0.5420   0.03    1.1    0.00592    0.02303    0.04164   0.13950  0.14824  0.35724  0.05124 -0.03548 -0.13712
2023/07/11 06:12:33.000   35.164775631  136.885492300    45.5293   2  11   0.6554   0.6583   1.4108   0.0792   0.3262  -0.7285   0.03    1.0    0.00885    0.01244    0.00070   0.17144  0.15262  0.39365 -0.03152  0.06889 -0.18782
2023/07/11 06:12:35.000   35.164777300  136.885493865    44.7845   2  11   0.6554   0.6583   1.4108   0.0780   0.3267  -0.7284   0.03    1.0   -0.01175   -0.04379   -0.04866   0.17142  0.15262  0.39370 -0.03160  0.06899 -0.18781
2023/07/11 06:12:39.000   35.164777463  136.885499490    44.1070   2  11   0.6553   0.6583   1.4109   0.0755   0.3277  -0.7282   0.03    1.1   -0.00260    0.00670    0.05897   0.17138  0.15263  0.39380 -0.03175  0.06919 -0.18779
2023/07/11 06:12:45.000   35.164775709  136.885506282    44.2074   2  13   0.5861   0.6469   1.2852   0.2020   0.1932  -0.5995   0.03    1.1   -0.04954   -0.02221    0.09328   0.15188  0.14968  0.38348  0.03678  0.04612 -0.16764
2023/07/11 06:12:47.000   35.164773915  136.885506616    44.6971   2  13   0.5862   0.6469   1.2854   0.2016   0.1939  -0.5995   0.03    1.2   -0.01274    0.03428   -0.00524   0.15188  0.14969  0.38355  0.03671  0.04629 -0.16766
2023/07/11 06:12:49.000   35.164739682  136.885516473    52.9352   2  13   0.5404   0.6451   1.1965   0.2267   0.1236  -0.5027   0.03    1.1   -0.01762   -0.01103   -0.00671   0.15187  0.14969  0.38363  0.03664  0.04646 -0.16768
2023/07/11 06:12:56.000   35.164732658  136.885521105    55.3495   2  11   0.5852   0.6537   1.2762   0.1644   0.2510  -0.5933   0.03    1.0    0.00972    0.00493   -0.01606   0.17120  0.15269  0.39421 -0.03239  0.07004 -0.18769
2023/07/11 06:12:58.000   35.164731927  136.885522369    55.1845   2  11   0.5852   0.6537   1.2764   0.1639   0.2515  -0.5932   0.03    1.1   -0.00574   -0.03943   -0.06079   0.17118  0.15269  0.39425 -0.03247  0.07014 -0.18768
2023/07/11 06:12:59.000   35.164730855  136.885523505    55.6410   2  11   0.5852   0.6537   1.2764   0.1637   0.2518  -0.5932   0.03    1.1   -0.01105    0.04070    0.02599   0.17117  0.15270  0.39428 -0.03251  0.07019 -0.18768
2023/07/11 06:13:05.000   35.164787821  136.885511528    42.2891   2  13   0.5150   0.6477   1.2859   0.2258   0.2068  -0.5415   0.03    1.1    0.03526   -0.00153   -0.11831   0.13926  0.14827  0.35805  0.05067 -0.03295 -0.13698
2023/07/11 06:13:06.000   35.164788060  136.885512741    42.0836   2  13   0.5150   0.6477   1.2860   0.2257   0.2071  -0.5415   0.03    1.2    0.00742    0.00897    0.01456   0.13925  0.14827  0.35807  0.05065 -0.03287 -0.13698
2023/07/11 06:13:08.000   35.164786413  136.885513249    41.7528   2  13   0.5150   0.6476   1.2862   0.2254   0.2077  -0.5415   0.03    1.1    0.01270   -0.01857   -0.02544   0.13923  0.14827  0.35812  0.05062 -0.03271 -0.13697
2023/07/11 06:13:10.000   35.164786529  136.885513094    41.4570   2  13   0.5149   0.6476   1.2863   0.2251   0.2084  -0.5415   0.03    1.2   -0.02360    0.01473    0.08010   0.13922  0.14827  0.35817  0.05058 -0.03255 -0.13696
2023/07/11 06:13:11.000   35.164752231  136.885523154    50.8000   2  13   0.4833   0.6461   1.2076   0.2420   0.1538  -0.4630   0.03    1.1   -0.01728   -0.05194    0.07283   0.13921  0.14827  0.35819  0.05056 -0.03247 -0.13696
2023/07/11 06:13:13.000   35.164751935  136.885524323    50.7674   2  13   0.4832   0.6460   1.2078   0.2417   0.1546  -0.4630   0.03    1.0    0.00805   -0.00569    0.03342   0.13920  0.14827  0.35824  0.05053 -0.03230 -0.13695
2023/07/11 06:13:15.000   35.164752793  136.885523410    50.8921   2  13   0.4832   0.6460   1.2080   0.2415   0.1553  -0.4630   0.03    1.2    0.04373   -0.04462   -0.06153   0.13918  0.14827  0.35829  0.05049 -0.03214 -0.13694
2023/07/11 06:13:17.000   35.164753727  136.885524398    50.5977   2  13   0.4832   0.6460   1.2082   0.2412   0.1560  -0.4630   0.03    1.0    0.01877    0.01728    0.04887   0.13917  0.14828  0.35833  0.05046 -0.03197 -0.13693
2023/07/11 06:13:19.000   35.164752400  136.885525649    50.9360   2  13   0.4832   0.6460   1.2084   0.2410   0.1567  -0.4630   0.03    1.1   -0.01182    0.02118   -0.03057   0.13915  0.14828  0.35838  0.05042 -0.03181 -0.13692
2023/07/11 06:13:20.000   35.164752656  136.885525478    50.7729   2  13   0.4831   0.6459   1.2085   0.2409   0.1571  -0.4630   0.03    1.3    0.01383   -0.01785   -0.11791   0.13914  0.14828  0.35840  0.05041 -0.03173 -0.13692
2023/07/11 06:13:21.000   35.164734004  136.885531962    53.4524   2  11   0.5850   0.6536   1.2779   0.1583   0.2572  -0.5927   0.03    1.1   -0.05789   -0.01609    0.13054   0.17093  0.15277  0.39479 -0.03332  0.07129 -0.18755
2023/07/11 06:13:23.000   35.164732244  136.885532174    53.6104   2  11   0.5850   0.6536   1.2780   0.1578   0.2577  -0.5926   0.03    1.1    0.01192   -0.01554    0.03689   0.17090  0.15277  0.39484 -0.03339  0.07138 -0.18754
2023/07/11 06:13:25.000   35.164732960  136.885531527    53.3577   2  11   0.5850   0.6536   1.2782   0.1573   0.2582  -0.5926   0.03    1.0    0.03154    0.03673   -0.05192   0.17088  0.15278  0.39488 -0.03346  0.07148 -0.18753
