% program   : RTKLIB MATLAB
% sol start : 2023/07/11 06:04:30.0 GPST
% sol end   : 2023/07/11 06:25:00.0 GPST
% pos mode  : Single
% elev mask : 30.0 deg
% ionos opt : Broadcast
% tropo opt : Saastamoinen
% ephemeris : Broadcast
% navi sys  : GPS GLONASS Galileo QZSS BDS
%
% (lat/lon/height=WGS84/ellipsoidal,Q=1:fix,2:float,3:sbas,4:dgps,5:single,6:ppp,ns=# of satellites)
%  GPST                  latitude(deg) longitude(deg)  height(m)   Q  ns   sdn(m)   sde(m)   sdu(m)  sdne(m)  sdeu(m)  sdun(m) age(s)  ratio    vn(m/s)    ve(m/s)    vu(m/s)      sdvn     sdve     sdvu    sdvne    sdveu    sdvun
2023/07/11 06:04:30.000   35.165393934  136.881442407    39.6452   5  20   3.4239   3.9531   8.3145   1.5390   1.6229  -1.1829   0.00    0.0    0.01294    0.04308    0.02656   0.09822  0.10782  0.25014  0.05434  0.05004  0.05026
2023/07/11 06:04:31.000   35.165393682  136.881442635    39.5607   5  20   3.4238   3.9532   8.3150   1.5387   1.6246  -1.1825   0.00    0.0    0.00027    0.01856   -0.00936   0.09822  0.10783  0.25016  0.05434  0.05010  0.05027
2023/07/11 06:04:32.000   35.165394228  136.881442726    39.4483   5  20   3.4237   3.9532   8.3155   1.5383   1.6264  -1.1821   0.00    0.0    0.01946   -0.02313    0.01343   0.09822  0.10783  0.25018  0.05434  0.05016  0.05029
2023/07/11 06:04:33.000   35.165393680  136.881442906    39.3624   5  20   3.4237   3.9532   8.3160   1.5380   1.6281  -1.1816   0.00    0.0    0.01080   -0.00406    0.03797   0.09822  0.10783  0.25020  0.05434  0.05022  0.05031
2023/07/11 06:04:35.000   35.165393773  136.881442727    39.2016   5  20   3.4235   3.9533   8.3171   1.5374   1.6316  -1.1808   0.00    0.0    0.01562    0.00944    0.01665   0.09823  0.10783  0.25023  0.05434  0.05034  0.05035
2023/07/11 06:04:37.000   35.165393421  136.881443466    39.2678   5  20   3.4234   3.9533   8.3182   1.5368   1.6351  -1.1800   0.00    0.0   -0.00303   -0.00837   -0.01775   0.09823  0.10784  0.25026  0.05435  0.05046  0.05038
2023/07/11 06:04:39.000   35.165392530  136.881443041    39.3566   5  20   3.4232   3.9534   8.3192   1.5362   1.6385  -1.1791   0.00    0.0    0.03034   -0.00937    0.02509   0.09823  0.10784  0.25030  0.05435  0.05058  0.05042
2023/07/11 06:04:40.000   35.165392452  136.881442460    39.4205   5  20   3.4231   3.9534   8.3197   1.5358   1.6403  -1.1787   0.00    0.0   -0.01433    0.00685   -0.03897   0.09823  0.10785  0.25032  0.05435  0.05064  0.05044
2023/07/11 06:04:42.000   35.165391467  136.881442381    39.5619   5  20   3.4230   3.9535   8.3208   1.5352   1.6437  -1.1779   0.00    0.0   -0.00906    0.02528   -0.03119   0.09823  0.10785  0.25035  0.05435  0.05076  0.05047
2023/07/11 06:04:43.000   35.165391827  136.881441458    39.4888   5  20   3.4229   3.9535   8.3213   1.5349   1.6454  -1.1774   0.00    0.0    0.00804   -0.01708    0.00185   0.09824  0.10785  0.25037  0.05435  0.05082  0.05049
2023/07/11 06:04:45.000   35.165391611  136.881441297    39.6056   5  20   3.4227   3.9536   8.3224   1.5343   1.6489  -1.1766   0.00    0.0   -0.01322    0.01752    0.06429   0.09824  0.10786  0.25040  0.05435  0.05094  0.05052
2023/07/11 06:04:50.000   35.165392423  136.881440276    39.4113   5  20   3.4224   3.9537   8.3250   1.5327   1.6575  -1.1745   0.00    0.0    0.00744   -0.01517    0.01548   0.09824  0.10787  0.25048  0.05435  0.05123  0.05061
2023/07/11 06:04:51.000   35.165392527  136.881439272    39.1507   5  20   3.4223   3.9537   8.3256   1.5324   1.6592  -1.1741   0.00    0.0   -0.00127    0.00001    0.05571   0.09824  0.10787  0.25050  0.05435  0.05129  0.05063
2023/07/11 06:04:52.000   35.165392498  136.881438532    39.1758   5  20   3.4222   3.9538   8.3261   1.5321   1.6609  -1.1737   0.00    0.0    0.02165   -0.02870   -0.03584   0.09824  0.10787  0.25052  0.05435  0.05135  0.05065
2023/07/11 06:04:54.000   35.165391270  136.881438291    39.2007   5  20   3.4221   3.9538   8.3271   1.5314   1.6644  -1.1728   0.00    0.0   -0.01419    0.02459    0.04805   0.09825  0.10788  0.25055  0.05435  0.05147  0.05068
2023/07/11 06:04:55.000   35.165390861  136.881438349    39.2035   5  20   3.4220   3.9539   8.3277   1.5311   1.6661  -1.1724   0.00    0.0   -0.00756    0.01309   -0.00564   0.09825  0.10788  0.25057  0.05435  0.05153  0.05070
2023/07/11 06:04:56.000   35.165391240  136.881438739    39.4474   5  20   3.4219   3.9539   8.3282   1.5308   1.6678  -1.1720   0.00    0.0    0.02587    0.00603   -0.03740   0.09825  0.10788  0.25058  0.05435  0.05158  0.05072
2023/07/11 06:04:57.000   35.165390875  136.881438300    39.3639   5  20   3.4218   3.9539   8.3287   1.5305   1.6695  -1.1716   0.00    0.0   -0.01435   -0.02654    0.01494   0.09825  0.10789  0.25060  0.05435  0.05164  0.05074
2023/07/11 06:05:03.000   35.165390109  136.881436673    39.1047   5  20   3.4214   3.9541   8.3319   1.5286   1.6797  -1.1691   0.00    0.0   -0.02180    0.03810    0.00384   0.09826  0.10790  0.25070  0.05435  0.05199  0.05084
2023/07/11 06:05:05.000   35.165387067  136.881438329    40.2583   5  19   3.5742   3.9944   8.7567   1.3227   2.0869  -2.0368   0.00    0.0    0.03180   -0.26500    0.05979   0.10371  0.10867  0.26798  0.05026  0.06273 -0.02346
2023/07/11 06:05:08.000   35.165389499  136.881421609    39.7586   5  20   3.4210   3.9543   8.3346   1.5270   1.6882  -1.1670   0.00    0.0   -0.26866   -0.66919   -0.12362   0.09826  0.10791  0.25078  0.05436  0.05228  0.05093
2023/07/11 06:05:09.000   35.165385937  136.881412970    39.8234   5  20   3.4209   3.9543   8.3351   1.5267   1.6899  -1.1666   0.00    0.0   -0.44407   -0.79104    0.06467   0.09826  0.10791  0.25080  0.05436  0.05234  0.05094
2023/07/11 06:05:12.000   35.165358276  136.881384404    39.5554   5  20   3.4207   3.9544   8.3367   1.5257   1.6950  -1.1653   0.00    0.0   -1.58322   -0.82145    0.04357   0.09827  0.10792  0.25085  0.05436  0.05251  0.05100
2023/07/11 06:05:15.000   35.165310381  136.881342260    39.9952   5  20   3.4204   3.9545   8.3383   1.5248   1.7000  -1.1641   0.00    0.0   -1.32151   -2.10677   -0.06602   0.09827  0.10793  0.25090  0.05436  0.05269  0.05105
2023/07/11 06:05:17.000   35.165298835  136.881289202    39.5005   5  20   3.4203   3.9546   8.3394   1.5241   1.7034  -1.1632   0.00    0.0   -0.26178   -2.36960   -0.01850   0.09827  0.10793  0.25093  0.05436  0.05280  0.05108
2023/07/11 06:05:18.000   35.165297940  136.881263464    39.3089   5  20   3.4202   3.9546   8.3399   1.5238   1.7051  -1.1628   0.00    0.0   -0.03863   -2.22934    0.08218   0.09827  0.10794  0.25095  0.05436  0.05286  0.05110
2023/07/11 06:05:20.000   35.165299639  136.881211115    39.5913   5  20   3.4201   3.9547   8.3410   1.5232   1.7084  -1.1620   0.00    0.0    0.35779   -2.40126    0.01923   0.09827  0.10794  0.25098  0.05436  0.05297  0.05113
2023/07/11 06:05:23.000   35.165299044  136.881128668    41.2097   5  19   3.7052   4.3119   8.7223   2.1833  -1.1989  -2.2309   0.00    0.0   -0.04534   -1.77894    0.03120   0.11268  0.12355  0.26756  0.07917 -0.05234 -0.04985
2023/07/11 06:05:24.000   35.165297775  136.881111427    41.2327   5  19   3.7050   4.3118   8.7230   2.1829  -1.1967  -2.2307   0.00    0.0   -0.29121   -1.47875    0.04305   0.11268  0.12355  0.26759  0.07917 -0.05231 -0.04985
2023/07/11 06:05:26.000   35.165286688  136.881085267    41.2702   5  19   3.7047   4.3117   8.7243   2.1822  -1.1922  -2.2304   0.00    0.0   -0.83867   -0.88889   -0.23643   0.11269  0.12355  0.26765  0.07917 -0.05223 -0.04987
2023/07/11 06:05:28.000   35.165269921  136.881071370    41.4020   5  19   3.7044   4.3116   8.7257   2.1815  -1.1878  -2.2301   0.00    0.0   -0.82175   -0.37385   -0.01776   0.11269  0.12355  0.26771  0.07917 -0.05216 -0.04988
2023/07/11 06:05:30.000   35.165254412  136.881064876    41.3434   5  19   3.7041   4.3115   8.7270   2.1807  -1.1833  -2.2299   0.00    0.0   -1.01904   -0.20245    0.05046   0.11269  0.12356  0.26777  0.07917 -0.05209 -0.04989
2023/07/11 06:05:31.000   35.165246452  136.881063103    41.4233   5  19   3.7040   4.3114   8.7277   2.1804  -1.1811  -2.2297   0.00    0.0   -0.68501   -0.10395   -0.09588   0.11269  0.12356  0.26780  0.07917 -0.05205 -0.04990
2023/07/11 06:05:32.000   35.165240821  136.881061390    41.4299   5  19   3.7038   4.3114   8.7284   2.1800  -1.1788  -2.2296   0.00    0.0   -0.63465   -0.08218   -0.16694   0.11270  0.12356  0.26783  0.07917 -0.05201 -0.04991
2023/07/11 06:05:34.000   35.165234500  136.881059792    40.5939   5  19   3.7035   4.3113   8.7298   2.1792  -1.1743  -2.2293   0.00    0.0   -0.18841   -0.02235   -0.07150   0.11270  0.12356  0.26788  0.07917 -0.05194 -0.04992
2023/07/11 06:05:35.000   35.165232090  136.881060326    40.7375   5  19   3.7034   4.3112   8.7304   2.1789  -1.1721  -2.2291   0.00    0.0   -0.01021    0.00439    0.00796   0.11270  0.12356  0.26791  0.07917 -0.05190 -0.04992
2023/07/11 06:05:36.000   35.165231618  136.881061109    40.7733   5  19   3.7033   4.3112   8.7311   2.1785  -1.1698  -2.2290   0.00    0.0   -0.00803    0.00598    0.05942   0.11270  0.12356  0.26794  0.07917 -0.05186 -0.04993
2023/07/11 06:05:37.000   35.165231087  136.881061583    40.7977   5  19   3.7031   4.3111   8.7318   2.1781  -1.1675  -2.2289   0.00    0.0   -0.03900   -0.03953    0.02463   0.11270  0.12357  0.26797  0.07917 -0.05183 -0.04994
2023/07/11 06:05:38.000   35.165230899  136.881061489    40.8775   5  19   3.7030   4.3111   8.7325   2.1778  -1.1652  -2.2287   0.00    0.0    0.00448   -0.04459    0.00763   0.11271  0.12357  0.26800  0.07917 -0.05179 -0.04994
2023/07/11 06:05:39.000   35.165230739  136.881061994    41.0385   5  19   3.7028   4.3110   8.7332   2.1774  -1.1629  -2.2286   0.00    0.0   -0.00402   -0.04516    0.06805   0.11271  0.12357  0.26803  0.07917 -0.05175 -0.04995
2023/07/11 06:05:41.000   35.165231324  136.881062257    41.0717   5  19   3.7025   4.3109   8.7345   2.1766  -1.1584  -2.2283   0.00    0.0   -0.01576    0.01182    0.03333   0.11271  0.12357  0.26808  0.07917 -0.05168 -0.04996
2023/07/11 06:05:43.000   35.165232062  136.881063400    40.8359   5  19   3.7022   4.3108   8.7359   2.1759  -1.1538  -2.2280   0.00    0.0    0.03943    0.01190   -0.00143   0.11272  0.12357  0.26814  0.07917 -0.05160 -0.04998
2023/07/11 06:05:45.000   35.165232612  136.881063721    41.0379   5  19   3.7019   4.3107   8.7373   2.1752  -1.1491  -2.2277   0.00    0.0    0.00672    0.02125   -0.04351   0.11272  0.12358  0.26820  0.07917 -0.05153 -0.04999
2023/07/11 06:05:46.000   35.165232913  136.881063960    40.9448   5  19   3.7018   4.3107   8.7379   2.1748  -1.1468  -2.2276   0.00    0.0    0.01186   -0.02120    0.02041   0.11272  0.12358  0.26823  0.07917 -0.05149 -0.05000
2023/07/11 06:05:48.000   35.165229257  136.881063485    40.8108   5  19   3.7015   4.3106   8.7393   2.1740  -1.1421  -2.2273   0.00    0.0   -0.72371    0.03034   -0.07490   0.11272  0.12358  0.26829  0.07917 -0.05141 -0.05001
2023/07/11 06:05:49.000   35.165221540  136.881062937    40.6929   5  19   3.7013   4.3105   8.7400   2.1737  -1.1398  -2.2272   0.00    0.0   -0.95975   -0.11917   -0.23014   0.11273  0.12358  0.26831  0.07917 -0.05138 -0.05002
2023/07/11 06:05:50.000   35.165211395  136.881061489    40.7667   5  19   3.7012   4.3105   8.7407   2.1733  -1.1375  -2.2270   0.00    0.0   -1.16009   -0.01250   -0.27269   0.11273  0.12358  0.26834  0.07917 -0.05134 -0.05002
2023/07/11 06:05:53.000   35.165174880  136.881049273    40.5693   5  19   3.7008   4.3103   8.7427   2.1722  -1.1304  -2.2266   0.00    0.0   -1.65356   -1.00067   -0.09504   0.11273  0.12359  0.26843  0.07917 -0.05122 -0.05004
2023/07/11 06:05:55.000   35.165151367  136.881009259    40.8847   5  19   3.7005   4.3102   8.7441   2.1714  -1.1256  -2.2263   0.00    0.0   -0.87643   -2.34408    0.13152   0.11274  0.12359  0.26849  0.07917 -0.05115 -0.05006
2023/07/11 06:05:56.000   35.165144421  136.880977977    40.9919   5  18   3.7037   4.7822   9.1724   2.0945  -2.6450  -2.1259   0.00    0.0   -0.34617   -3.01693   -0.26801   0.11283  0.13750  0.27818  0.07746 -0.08362 -0.04671
2023/07/11 06:05:58.000   35.165149083  136.880890206    41.8524   5  19   3.7000   4.3101   8.7462   2.1703  -1.1185  -2.2259   0.00    0.0    1.09186   -4.29456   -0.01785   0.11274  0.12359  0.26857  0.07917 -0.05103 -0.05008
2023/07/11 06:06:01.000   35.165169768  136.880774822    41.5690   5  19   3.6996   4.3099   8.7482   2.1692  -1.1112  -2.2255   0.00    0.0    0.34994   -3.03239   -0.02455   0.11275  0.12360  0.26866  0.07918 -0.05092 -0.05010
2023/07/11 06:06:02.000   35.165173840  136.880741065    41.1788   5  19   3.6994   4.3098   8.7489   2.1688  -1.1088  -2.2254   0.00    0.0   -0.04538   -3.15798   -0.04436   0.11275  0.12360  0.26869  0.07918 -0.05088 -0.05011
2023/07/11 06:06:06.000   35.165131611  136.880646847    40.3627   5  18   3.8354   4.6922   9.0940   2.5651   1.8383  -1.5628   0.00    0.0   -2.61611   -1.21667    0.15310   0.12337  0.14426  0.28698  0.09996  0.07003  0.05019
2023/07/11 06:06:08.000   35.165059456  136.880628472    39.9346   5  17   3.9690   6.1080  10.4360   3.2520  -4.0765  -2.7708   0.00    0.0   -5.32997   -0.67610   -0.35123   0.12886  0.19080  0.31966  0.12100 -0.11249 -0.05216
2023/07/11 06:06:10.000   35.164974076  136.880717047    36.3723   5  17   3.8567   8.9386  14.4264   3.5393  -9.5374  -4.0656   0.00    0.0   -6.98366   -1.15771    0.04024   0.11818  0.25641  0.40558  0.11655 -0.26597 -0.11187
2023/07/11 06:06:14.000   35.164655743  136.880573513    37.8785   5  16   3.9856   6.1080  10.7743   3.2482  -4.0589  -2.9464   0.00    0.0   -9.10922   -0.93291   -0.09496   0.12945  0.19415  0.33241  0.11917 -0.09663 -0.06213
2023/07/11 06:06:16.000   35.164481509  136.880534845    40.2432   5  18   3.4954   4.6802   9.3140   2.6888   1.9262  -1.1790   0.00    0.0   -9.85229   -0.70409   -0.00445   0.11727  0.14695  0.30155  0.09316  0.09100  0.03922
2023/07/11 06:06:17.000   35.164392138  136.880527557    40.1161   5  18   3.4952   4.6802   9.3150   2.6884   1.9279  -1.1798   0.00    0.0  -10.18046   -0.49795   -0.23638   0.11726  0.14695  0.30159  0.09315  0.09104  0.03917
2023/07/11 06:06:18.000   35.164293059  136.880517123    42.7935   5  18   3.5513   4.6746   9.8692   2.6755   2.0468  -1.8619   0.00    0.0  -10.65034   -0.10850    0.19203   0.12508  0.14275  0.32452  0.09436  0.07598 -0.06445
2023/07/11 06:06:19.000   35.164200784  136.880517750    40.5371   5  18   3.4947   4.6801   9.3169   2.6877   1.9313  -1.1814   0.00    0.0  -10.64849   -0.03221   -0.12411   0.11725  0.14696  0.30167  0.09314  0.09111  0.03907
2023/07/11 06:06:20.000   35.164112933  136.880538015    43.8686   5  19   3.3562   4.2853   8.9352   2.3216  -1.1116  -1.9925   0.00    0.0  -10.89656    0.10709   -0.21859   0.10997  0.12458  0.27685  0.07418 -0.03232 -0.05791
2023/07/11 06:06:21.000   35.164009645  136.880526936    41.9251   5  19   3.3561   4.2852   8.9361   2.3213  -1.1090  -1.9928   0.00    0.0  -10.89988    0.28966   -0.11321   0.10997  0.12458  0.27689  0.07418 -0.03225 -0.05793
2023/07/11 06:06:22.000   35.163909829  136.880529030    42.0431   5  19   3.3560   4.2851   8.9370   2.3210  -1.1063  -1.9931   0.00    0.0  -11.07960    0.15978   -0.01008   0.10997  0.12458  0.27692  0.07418 -0.03218 -0.05795
2023/07/11 06:06:25.000   35.163604119  136.880527784    40.9933   5  20   3.2877   4.2738   8.6382   2.3643  -1.3849  -1.5589   0.00    0.0  -11.61893    0.08105   -0.22052   0.10776  0.12317  0.26864  0.07689 -0.04786 -0.04336
2023/07/11 06:06:27.000   35.163387723  136.880530447    39.8731   5  20   3.2874   4.2736   8.6398   2.3637  -1.3808  -1.5592   0.00    0.0  -12.32528    0.11823   -0.48710   0.10776  0.12317  0.26870  0.07689 -0.04778 -0.04339
2023/07/11 06:06:29.000   35.163162869  136.880536958    38.2693   5  19   3.4187   5.5417  10.2455   2.9830  -4.6168  -2.7572   0.00    0.0  -12.65540    0.18978   -0.91181   0.11153  0.16516  0.31060  0.09525 -0.13931 -0.07974
2023/07/11 06:06:31.000   35.162940124  136.880563244    34.1441   5  18   3.5771   8.5857  14.3738   3.9757  -9.3491  -4.2691   0.00    0.0  -12.27753    0.89809   -0.77214   0.11450  0.25531  0.40557  0.11882 -0.26488 -0.11453
2023/07/11 06:06:32.000   35.162832519  136.880582304    33.1014   5  17   3.7574   8.5874  14.5820   4.0082  -9.3173  -3.9237   0.00    0.0  -11.99058    1.79703   -0.45729   0.12136  0.25533  0.40695  0.11961 -0.26456 -0.10853
2023/07/11 06:06:34.000   35.162609059  136.880626356    35.5538   5  17   4.0126   9.2125  16.6744   4.6782 -10.7537  -5.7957   0.00    0.0  -11.96653    3.79123   -0.61442   0.14323  0.29676  0.53673  0.16475 -0.35119 -0.20825
2023/07/11 06:06:49.000   35.161149865  136.881582029    23.6490   5   5  80.9013  22.8637  78.2159 -41.4880  40.4280 -77.8149   0.00    0.0   -0.34647    0.32434    0.38860   1.21335  0.36619  1.36911 -0.55950  0.58778 -1.15159
2023/07/11 06:06:50.000   35.161253980  136.881565770    37.1916   5   5  80.9049  22.8615  78.2176 -41.4862  40.4267 -77.8170   0.00    0.0   -0.01608   -0.02865    0.12166   1.21334  0.36621  1.36935 -0.55946  0.58793 -1.15168
2023/07/11 06:06:57.000   35.161243376  136.881547929    40.4428   5   5  80.9278  22.8454  78.2295 -41.4725  40.4170 -77.8303   0.00    0.0   -0.08768   -0.03044   -0.11086   1.21326  0.36632  1.37109 -0.55921  0.58896 -1.15233
2023/07/11 06:06:59.000   35.161268934  136.881537874    37.6048   5   6  80.9342  22.8408  78.2327 -41.4685  40.4141 -77.8339   0.00    0.0  168.84849  -29.57499 -229.17609   1.14261  0.35931  1.25503 -0.53243  0.55469 -1.05004
2023/07/11 06:07:01.000   35.161298431  136.881526407    33.7395   5   5  80.9406  22.8361  78.2358 -41.4645  40.4112 -77.8375   0.00    0.0    0.08241   -0.06144   -0.08320   1.21322  0.36639  1.37208 -0.55907  0.58956 -1.15271
2023/07/11 06:07:03.000   35.161322620  136.881518149    30.6970   5   6  80.9469  22.8315  78.2388 -41.4604  40.4083 -77.8409   0.00    0.0    0.06892    0.01564   -0.01960   1.14222  0.35933  1.25589 -0.53212  0.55516 -1.05010
2023/07/11 06:07:04.000   35.161332431  136.881513535    29.7634   5   6  80.9499  22.8291  78.2403 -41.4584  40.4068 -77.8426   0.00    0.0    0.01912   -0.01181    0.04209   1.14212  0.35934  1.25611 -0.53204  0.55527 -1.05011
2023/07/11 06:07:07.000   35.161364987  136.881500879    26.2562   5   6  80.9591  22.8221  78.2445 -41.4521  40.4022 -77.8474   0.00    0.0   -0.00967   -0.09579    0.00333   1.14183  0.35935  1.25676 -0.53180  0.55563 -1.05015
2023/07/11 06:07:08.000   35.161376091  136.881497402    25.1178   5   6  80.9621  22.8197  78.2458 -41.4500  40.4007 -77.8490   0.00    0.0    0.02033    0.03522   -0.07143   1.14173  0.35936  1.25697 -0.53172  0.55575 -1.05017
2023/07/11 06:07:09.000   35.161378603  136.881496424    24.9198   5   6  80.9650  22.8173  78.2472 -41.4478  40.3991 -77.8506   0.00    0.0   -0.16555    0.01998    0.01950   1.14163  0.35936  1.25719 -0.53165  0.55586 -1.05018
2023/07/11 06:07:10.000   35.161388032  136.881492220    23.8181   5   6  80.9680  22.8150  78.2485 -41.4457  40.3975 -77.8521   0.00    0.0    0.09052   -0.02271   -0.05934   1.14153  0.35937  1.25741 -0.53157  0.55598 -1.05020
2023/07/11 06:07:11.000   35.161388325  136.881491772    23.6863   5   6  80.9709  22.8126  78.2498 -41.4435  40.3959 -77.8536   0.00    0.0   -0.04988   -0.00694    0.09822   1.14144  0.35938  1.25763 -0.53149  0.55610 -1.05021
2023/07/11 06:07:14.000   35.161392934  136.881491993    23.6925   5   6  80.9795  22.8054  78.2534 -41.4369  40.3910 -77.8579   0.00    0.0   -0.41948    0.27375   -0.53800   1.14114  0.35940  1.25828 -0.53126  0.55646 -1.05026
2023/07/11 06:07:16.000   35.161088024  136.881905041    37.5399   5   8  16.8973  16.1955  50.7662  13.3442 -26.4188 -26.8926   0.00    0.0   -1.15291    1.05203    1.24335   0.45975  0.39556  0.94808  0.34495 -0.55443 -0.59660
2023/07/11 06:07:19.000   35.161080750  136.881610528    47.1757   5  10   6.6790   6.4181  17.0467   2.9650  -3.7337  -7.8486   0.00    0.0   -3.51154    3.19660   -1.54573   0.23064  0.18188  0.48077  0.10293 -0.16245 -0.25911
2023/07/11 06:07:20.000   35.161117781  136.881629194    33.1638   5  14   4.2218   5.9493  12.2393   3.6345  -5.4411  -3.7798   0.00    0.0   -6.15092    3.41154    0.02303   0.14761  0.17882  0.39157  0.11890 -0.17823 -0.15394
2023/07/11 06:07:21.000   35.161041241  136.881634151    44.9730   5  13   6.1084  10.7131  20.7410   5.9529 -12.8003  -6.6631   0.00    0.0   -6.94356    5.02098   -2.46886   0.18031  0.32110  0.55781  0.18612 -0.37073 -0.20862
2023/07/11 06:07:24.000   35.160829999  136.881740007    46.2522   5  10   7.3197  13.9768  23.5413   8.8801 -14.1460  -8.1815   0.00    0.0   -8.68464    5.30844   -1.51171   0.27537  0.48376  0.62320  0.33015 -0.39952 -0.27125
2023/07/11 06:07:26.000   35.160655364  136.881836504    40.5490   5  13   5.7374  12.1568  20.5541   6.9831 -11.8917  -4.5679   0.00    0.0  -10.21301    4.72148    0.09106   0.22352  0.42432  0.55783  0.27405 -0.38016 -0.21901
2023/07/11 06:07:27.000   35.160571128  136.881899984    43.9823   5  14   4.8738  11.8168  19.7005   6.3349 -12.5714  -6.2114   0.00    0.0  -10.67264    4.67722    0.47149   0.18521  0.39381  0.55773  0.23524 -0.37976 -0.21856
2023/07/11 06:07:28.000   35.160474106  136.881983766    35.7040   5  15   4.5742  11.2623  16.5981   5.8408 -10.9581  -4.5541   0.00    0.0  -11.06713    5.03907    0.35730   0.15885  0.35344  0.42683  0.19697 -0.28611 -0.11660
2023/07/11 06:07:29.000   35.160370284  136.882037816    35.8128   5  15   4.5739  11.2619  16.5986   5.8407 -10.9577  -4.5550   0.00    0.0  -11.38895    5.34243    0.29331   0.15885  0.35346  0.42684  0.19699 -0.28613 -0.11667
2023/07/11 06:07:30.000   35.160250950  136.882092787    29.1603   5  11   7.1856  22.5515  24.3119  10.1224 -15.9917   4.5031   0.00    0.0  -11.54079    5.01212    0.62296   0.22127  0.66270  0.64698  0.29192 -0.52282 -0.05262
2023/07/11 06:07:33.000   35.160056120  136.882238704   -39.1603   5  10   4.8455   5.9410  27.9235   4.0606   8.9955   6.0192   0.00    0.0  -10.74088    5.82765    5.15433   0.15180  0.17329  0.62444  0.12086  0.20521  0.03419
2023/07/11 06:07:37.000   35.159589563  136.882533744    39.8016   5  18   3.6525   4.2901   9.3502   2.4702  -1.5492  -2.7318   0.00    0.0  -10.35055    5.86015   -0.04857   0.12677  0.12342  0.30647  0.07827 -0.05192 -0.10606
2023/07/11 06:07:38.000   35.159494365  136.882590007    41.4294   5  19   3.4588   4.2705   9.2704   2.3709  -1.3760  -2.4550   0.00    0.0   -9.87037    5.65396   -0.25242   0.11934  0.12341  0.30057  0.07882 -0.05305 -0.09319
2023/07/11 06:07:40.000   35.159338810  136.882692181    38.6132   5  20   3.2758   4.2687   8.7001   2.3420  -1.2232  -1.5723   0.00    0.0   -8.59365    4.75126   -0.15941   0.10772  0.12326  0.27087  0.07680 -0.04482 -0.04461
2023/07/11 06:07:41.000   35.159259780  136.882738936    41.0541   5  19   3.4583   4.2703   9.2723   2.3697  -1.3684  -2.4548   0.00    0.0   -7.80966    4.26520    0.02369   0.11932  0.12341  0.30062  0.07881 -0.05289 -0.09318
2023/07/11 06:07:43.000   35.159144038  136.882838297    37.4435   5  18   3.5597   8.4820  14.3754   3.9225  -9.2382  -4.2344   0.00    0.0   -5.58912    3.47163    0.00406   0.11463  0.25369  0.40679  0.11879 -0.26319 -0.11528
2023/07/11 06:07:44.000   35.159095617  136.882873185    37.1154   5  18   3.5595   8.4805  14.3754   3.9218  -9.2366  -4.2339   0.00    0.0   -4.95864    3.02262   -0.03623   0.11463  0.25367  0.40681  0.11879 -0.26317 -0.11529
2023/07/11 06:07:46.000   35.159016149  136.882915570    37.6582   5  18   3.5590   8.4776  14.3754   3.9203  -9.2334  -4.2329   0.00    0.0   -3.78466    1.16491   -0.06303   0.11464  0.25362  0.40684  0.11879 -0.26312 -0.11531
2023/07/11 06:07:47.000   35.158984860  136.882925228    37.7641   5  18   3.5587   8.4761  14.3754   3.9195  -9.2318  -4.2324   0.00    0.0   -3.02248    0.65863    0.12067   0.11464  0.25360  0.40685  0.11878 -0.26309 -0.11532
2023/07/11 06:07:48.000   35.158960561  136.882933525    37.4174   5  18   3.5585   8.4746  14.3754   3.9188  -9.2302  -4.2319   0.00    0.0   -2.06750    0.85638   -0.38317   0.11464  0.25357  0.40687  0.11878 -0.26306 -0.11533
2023/07/11 06:07:49.000   35.158943748  136.882931003    38.3997   5  19   3.4090   5.5256  10.2772   2.9666  -4.5390  -2.7668   0.00    0.0   -1.28906    0.24267    0.17706   0.11169  0.16476  0.31145  0.09553 -0.13686 -0.08083
2023/07/11 06:07:50.000   35.158934471  136.882927644    39.4528   5  18   3.6410   5.6492  10.3275   3.2099  -4.4047  -2.5217   0.00    0.0   -0.62201    0.12407    0.01953   0.11958  0.16664  0.31153  0.10097 -0.13624 -0.07913
2023/07/11 06:07:53.000   35.158934359  136.882943634    37.9702   5  18   3.6405   5.6486  10.3288   3.2093  -4.4014  -2.5219   0.00    0.0    0.03908   -0.00282    0.08232   0.11959  0.16663  0.31156  0.10099 -0.13614 -0.07918
2023/07/11 06:07:54.000   35.158934209  136.882945110    37.9178   5  18   3.6403   5.6484  10.3292   3.2091  -4.4003  -2.5220   0.00    0.0   -0.00676    0.00946    0.06303   0.11959  0.16662  0.31157  0.10099 -0.13611 -0.07920
2023/07/11 06:07:56.000   35.158934444  136.882944125    38.2977   5  18   3.6400   5.6481  10.3301   3.2087  -4.3981  -2.5222   0.00    0.0   -0.00003    0.00244   -0.01331   0.11959  0.16662  0.31159  0.10100 -0.13605 -0.07923
2023/07/11 06:07:57.000   35.158933611  136.882943233    38.8068   5  18   3.6398   5.6479  10.3305   3.2085  -4.3970  -2.5223   0.00    0.0    0.04588    0.05947   -0.02558   0.11960  0.16661  0.31159  0.10101 -0.13602 -0.07924
2023/07/11 06:07:58.000   35.158934286  136.882944009    38.8962   5  18   3.6397   5.6477  10.3309   3.2083  -4.3959  -2.5223   0.00    0.0    0.01354   -0.00920    0.02079   0.11960  0.16661  0.31160  0.10101 -0.13599 -0.07926
2023/07/11 06:07:59.000   35.158934209  136.882943221    39.1246   5  18   3.6395   5.6475  10.3313   3.2080  -4.3948  -2.5224   0.00    0.0    0.00048   -0.03239   -0.05358   0.11960  0.16661  0.31161  0.10102 -0.13595 -0.07928
2023/07/11 06:08:01.000   35.158933760  136.882941306    39.7624   5  18   3.6392   5.6472  10.3322   3.2076  -4.3925  -2.5226   0.00    0.0   -0.01021    0.00250   -0.02171   0.11960  0.16660  0.31163  0.10103 -0.13589 -0.07931
2023/07/11 06:08:02.000   35.158933444  136.882941476    39.8837   5  18   3.6390   5.6470  10.3326   3.2074  -4.3914  -2.5226   0.00    0.0   -0.00803    0.00392    0.00092   0.11961  0.16659  0.31164  0.10103 -0.13586 -0.07932
2023/07/11 06:08:04.000   35.158933660  136.882940798    40.2772   5  18   3.6387   5.6466  10.3335   3.2070  -4.3892  -2.5228   0.00    0.0    0.00608    0.02114   -0.00336   0.11961  0.16659  0.31166  0.10104 -0.13579 -0.07935
2023/07/11 06:08:08.000   35.158932963  136.882938279    41.0783   5  18   3.6381   5.6459  10.3352   3.2062  -4.3848  -2.5231   0.00    0.0   -0.01473   -0.01681    0.05397   0.11962  0.16657  0.31170  0.10106 -0.13567 -0.07942
2023/07/11 06:08:10.000   35.158933219  136.882938624    41.0398   5  19   3.5798   5.6434   9.2406   3.1902  -4.3001  -1.8361   0.00    0.0    0.01576    0.01369    0.02072   0.11537  0.16640  0.28923  0.09989 -0.13236 -0.05135
2023/07/11 06:08:11.000   35.158933390  136.882938696    41.0079   5  19   3.5796   5.6433   9.2408   3.1900  -4.2993  -1.8362   0.00    0.0    0.01294    0.01384    0.03177   0.11537  0.16639  0.28924  0.09990 -0.13233 -0.05137
2023/07/11 06:08:12.000   35.158933600  136.882938620    40.8978   5  19   3.5795   5.6431   9.2410   3.1899  -4.2984  -1.8363   0.00    0.0    0.00303    0.02125   -0.00094   0.11537  0.16639  0.28925  0.09991 -0.13230 -0.05139
2023/07/11 06:08:13.000   35.158930688  136.882935252    40.5396   5  20   3.3382   5.5178   9.1959   2.9408  -4.4215  -2.1338   0.00    0.0   -0.00747    0.01389   -0.02887   0.10750  0.16450  0.28910  0.09453 -0.13316 -0.05514
2023/07/11 06:08:15.000   35.158935005  136.882939966    40.8343   5  19   3.5790   5.6426   9.2417   3.1894  -4.2960  -1.8367   0.00    0.0    0.00789   -0.07975    0.14420   0.11538  0.16638  0.28928  0.09993 -0.13222 -0.05146
2023/07/11 06:08:17.000   35.158935399  136.882939337    40.9297   5  19   3.5787   5.6423   9.2421   3.1891  -4.2943  -1.8369   0.00    0.0    0.03623    0.04330   -0.07555   0.11538  0.16637  0.28930  0.09994 -0.13216 -0.05151
2023/07/11 06:08:18.000   35.158936127  136.882939896    41.0529   5  19   3.5786   5.6421   9.2423   3.1890  -4.2935  -1.8370   0.00    0.0   -0.00957   -0.01753    0.04183   0.11538  0.16637  0.28931  0.09995 -0.13213 -0.05153
2023/07/11 06:08:19.000   35.158931852  136.882935731    40.7747   5  20   3.3375   5.5167   9.1971   2.9398  -4.4169  -2.1346   0.00    0.0    0.02205    0.01761    0.02324   0.10751  0.16447  0.28916  0.09456 -0.13300 -0.05525
2023/07/11 06:08:20.000   35.158936309  136.882940101    41.1329   5  19   3.5783   5.6418   9.2428   3.1887  -4.2918  -1.8372   0.00    0.0    0.00256   -0.00716    0.00519   0.11539  0.16636  0.28933  0.09996 -0.13208 -0.05158
2023/07/11 06:08:22.000   35.158936469  136.882941372    40.9633   5  19   3.5780   5.6415   9.2432   3.1884  -4.2901  -1.8375   0.00    0.0    0.02378    0.04447   -0.02293   0.11539  0.16636  0.28935  0.09997 -0.13202 -0.05162
2023/07/11 06:08:23.000   35.158936494  136.882941908    40.9088   5  19   3.5778   5.6413   9.2434   3.1883  -4.2893  -1.8376   0.00    0.0   -0.03604   -0.05596   -0.00196   0.11539  0.16635  0.28936  0.09998 -0.13199 -0.05164
2023/07/11 06:08:25.000   35.158936351  136.882941667    40.9277   5  19   3.5775   5.6410   9.2439   3.1880  -4.2876  -1.8378   0.00    0.0    0.01179   -0.00797   -0.01694   0.11539  0.16635  0.28938  0.09999 -0.13194 -0.05169
2023/07/11 06:08:26.000   35.158936655  136.882940999    41.0178   5  19   3.5774   5.6408   9.2441   3.1878  -4.2868  -1.8379   0.00    0.0    0.02705    0.03575   -0.06369   0.11540  0.16634  0.28939  0.10000 -0.13191 -0.05171
2023/07/11 06:08:27.000   35.158936735  136.882939861    41.0469   5  19   3.5772   5.6406   9.2443   3.1877  -4.2859  -1.8380   0.00    0.0   -0.01079   -0.00927   -0.01159   0.11540  0.16634  0.28939  0.10001 -0.13188 -0.05173
2023/07/11 06:08:28.000   35.158936945  136.882939167    40.8464   5  19   3.5771   5.6405   9.2445   3.1875  -4.2851  -1.8381   0.00    0.0    0.01093    0.01914   -0.03148   0.11540  0.16634  0.28940  0.10001 -0.13185 -0.05176
2023/07/11 06:08:30.000   35.158936669  136.882938959    40.8640   5  19   3.5768   5.6401   9.2449   3.1872  -4.2834  -1.8384   0.00    0.0   -0.01360    0.01777   -0.01288   0.11540  0.16633  0.28942  0.10002 -0.13180 -0.05180
2023/07/11 06:08:31.000   35.158937402  136.882940384    40.8989   5  19   3.5766   5.6400   9.2452   3.1871  -4.2826  -1.8385   0.00    0.0   -0.02246    0.03035   -0.00577   0.11540  0.16633  0.28943  0.10003 -0.13177 -0.05183
2023/07/11 06:08:35.000   35.158939283  136.882943333    40.9202   5  19   3.5760   5.6393   9.2460   3.1865  -4.2792  -1.8389   0.00    0.0    0.04314    0.00693    0.01592   0.11541  0.16631  0.28947  0.10006 -0.13166 -0.05192
2023/07/11 06:08:36.000   35.158939473  136.882944766    41.0470   5  19   3.5759   5.6391   9.2463   3.1863  -4.2784  -1.8390   0.00    0.0   -0.01298   -0.01173   -0.01326   0.11541  0.16631  0.28948  0.10006 -0.13163 -0.05194
2023/07/11 06:08:37.000   35.158935309  136.882942173    42.1652   5  18   3.7775   5.7051   9.7503   3.3477  -4.5801  -2.6742   0.00    0.0    0.00629    0.02052   -0.04654   0.12558  0.17018  0.31467  0.10863 -0.14755 -0.09383
2023/07/11 06:08:38.000   35.158934924  136.882942509    42.2509   5  18   3.7773   5.7049   9.7502   3.3474  -4.5790  -2.6739   0.00    0.0    0.00291   -0.01657    0.00746   0.12558  0.17017  0.31467  0.10863 -0.14751 -0.09383
2023/07/11 06:08:39.000   35.158935224  136.882942368    42.1208   5  18   3.7771   5.7046   9.7501   3.3471  -4.5779  -2.6736   0.00    0.0   -0.00408   -0.00653    0.01815   0.12557  0.17016  0.31466  0.10863 -0.14747 -0.09383
2023/07/11 06:08:41.000   35.158934167  136.882940090    42.3693   5  18   3.7767   5.7041   9.7498   3.3465  -4.5757  -2.6731   0.00    0.0    0.01734   -0.02177    0.04954   0.12557  0.17014  0.31464  0.10862 -0.14739 -0.09382
2023/07/11 06:08:42.000   35.158934396  136.882938749    42.0878   5  18   3.7765   5.7038   9.7497   3.3462  -4.5746  -2.6728   0.00    0.0    0.00250   -0.01157    0.06517   0.12557  0.17013  0.31464  0.10862 -0.14735 -0.09382
2023/07/11 06:08:50.000   35.158937820  136.882940938    39.8266   5  19   3.5738   5.6368   9.2493   3.1842  -4.2665  -1.8405   0.00    0.0    0.01982    0.01923   -0.03809   0.11544  0.16626  0.28961  0.10015 -0.13123 -0.05226
2023/07/11 06:08:52.000   35.158936845  136.882940778    39.0212   5  19   3.5735   5.6364   9.2497   3.1839  -4.2648  -1.8408   0.00    0.0   -0.41196    0.22400   -0.01235   0.11544  0.16626  0.28963  0.10016 -0.13117 -0.05231
2023/07/11 06:08:54.000   35.158902541  136.882941542    38.9490   5  20   3.3335   5.5101   9.2040   2.9343  -4.3895  -2.1394   0.00    0.0   -2.76284    0.15836   -0.27210   0.10756  0.16431  0.28950  0.09473 -0.13201 -0.05594
2023/07/11 06:08:55.000   35.158877035  136.882947558    39.0416   5  20   3.3334   5.5099   9.2042   2.9341  -4.3888  -2.1395   0.00    0.0   -2.80248    0.67110    0.15915   0.10756  0.16431  0.28951  0.09474 -0.13198 -0.05596
2023/07/11 06:08:56.000   35.158841046  136.882947573    42.7291   5  18   3.6503   5.5744  11.1990   3.1334  -4.8614  -3.6774   0.00    0.0   -2.88836    0.79336    0.37138   0.12808  0.16897  0.36095  0.10770 -0.15876 -0.13424
2023/07/11 06:08:59.000   35.158774678  136.882993854    40.5627   5  21   3.2207   4.2431   7.9002   2.3648  -1.6228  -0.7269   0.00    0.0   -2.32354    1.42587   -0.17687   0.10430  0.12304  0.25546  0.07819 -0.05049  0.02115
2023/07/11 06:09:01.000   35.158736387  136.883031261    40.1870   5  21   3.2204   4.2429   7.9013   2.3643  -1.6203  -0.7275   0.00    0.0   -2.19474    2.24461    0.07336   0.10429  0.12304  0.25551  0.07819 -0.05043  0.02108
2023/07/11 06:09:05.000   35.158679196  136.883195134    39.6221   5  21   3.2198   4.2425   7.9036   2.3632  -1.6152  -0.7286   0.00    0.0   -0.41178    5.49940   -0.49476   0.10429  0.12304  0.25561  0.07818 -0.05030  0.02095
2023/07/11 06:09:09.000   35.158690783  136.883442257    48.0656   5  13   6.4047   4.8484  12.8756  -1.2323   3.8181  -6.8381   0.00    0.0    0.94929    5.89379    0.12114   0.21760  0.13051  0.37986  0.04477  0.07771 -0.20723
2023/07/11 06:09:10.000   35.158698146  136.883509998    48.5144   5  13   6.4054   4.8485  12.8767  -1.2340   3.8199  -6.8389   0.00    0.0    1.27338    6.37100    0.11266   0.21761  0.13051  0.37989  0.04475  0.07776 -0.20725
2023/07/11 06:09:11.000   35.158706851  136.883584456    48.7750   5  13   6.4062   4.8486  12.8779  -1.2357   3.8218  -6.8398   0.00    0.0    1.13412    6.98489    0.25908   0.21763  0.13051  0.37992  0.04474  0.07782 -0.20727
2023/07/11 06:09:12.000   35.158703567  136.883662848    49.2790   5  14   5.9983   4.8482  12.8594  -1.3026   3.8305  -6.7228   0.00    0.0    1.37446    7.60318    0.10804   0.18893  0.13042  0.37659  0.05049  0.07621 -0.19371
2023/07/11 06:09:13.000   35.158716227  136.883749446    49.5604   5  14   5.9985   4.8483  12.8605  -1.3044   3.8324  -6.7233   0.00    0.0    1.29758    8.29263    0.19853   0.18892  0.13042  0.37661  0.05047  0.07627 -0.19371
2023/07/11 06:09:14.000   35.158726558  136.883841935    50.5524   5  16   3.9774   4.7797  11.1908   1.3933   3.1485  -4.2784   0.00    0.0    1.42778    8.49444    0.02401   0.13913  0.12842  0.33969  0.06235  0.05351 -0.13705
2023/07/11 06:09:23.000   35.158877773  136.884803364    42.3176   5  20   3.3576   4.2441   8.2381   2.3921  -1.7081  -1.6551   0.00    0.0    1.62903   10.39419   -0.42864   0.11118  0.12328  0.27078  0.07999 -0.05593 -0.05464
2023/07/11 06:09:24.000   35.158885425  136.884920672    43.9681   5  20   3.3574   4.2440   8.2385   2.3918  -1.7067  -1.6550   0.00    0.0    1.28061   10.03824   -0.47046   0.11118  0.12328  0.27080  0.07998 -0.05589 -0.05465
2023/07/11 06:09:25.000   35.158902676  136.885028337    43.0929   5  19   3.4383   4.2631   9.3365   2.3278  -1.0628  -2.4493   0.00    0.0    1.65065   10.05376   -0.42329   0.11888  0.12347  0.30226  0.07816 -0.04690 -0.09294
2023/07/11 06:09:27.000   35.158933054  136.885248346    41.9796   5  19   3.4379   4.2630   9.3378   2.3270  -1.0559  -2.4492   0.00    0.0    1.68872    9.74203    0.14637   0.11887  0.12347  0.30229  0.07814 -0.04678 -0.09294
2023/07/11 06:09:33.000   35.158995066  136.885732634    42.6345   5  18   3.5547   4.2746   9.8088   2.2613  -0.3414  -2.9518   0.00    0.0    0.63711    3.96299   -0.13058   0.12611  0.12493  0.32661  0.07280  0.01377 -0.11766
2023/07/11 06:09:37.000   35.159020741  136.885862547    40.1824   5  21   3.2148   4.2395   7.9217   2.3545  -1.5740  -0.7382   0.00    0.0    0.50636    3.35466   -0.10695   0.10424  0.12307  0.25645  0.07816 -0.04926  0.01974
2023/07/11 06:09:38.000   35.159029710  136.885900768    38.0184   5  21   3.2146   4.2394   7.9223   2.3543  -1.5727  -0.7386   0.00    0.0    0.80714    4.17725    0.13384   0.10424  0.12307  0.25647  0.07816 -0.04923  0.01970
2023/07/11 06:09:39.000   35.159028280  136.885955094    41.7035   5  20   3.3547   4.2424   8.2445   2.3868  -1.6849  -1.6536   0.00    0.0    0.80385    5.06625    0.11719   0.11113  0.12328  0.27109  0.07993 -0.05531 -0.05471
2023/07/11 06:09:40.000   35.159043943  136.886016160    40.4290   5  21   3.2143   4.2392   7.9234   2.3537  -1.5701  -0.7392   0.00    0.0    0.98051    5.84781    0.17635   0.10424  0.12307  0.25652  0.07816 -0.04916  0.01962
2023/07/11 06:09:42.000   35.159057465  136.886152806    40.1293   5  20   3.3542   4.2420   8.2457   2.3858  -1.6805  -1.6534   0.00    0.0    1.14861    6.57530   -0.08536   0.11112  0.12329  0.27114  0.07992 -0.05519 -0.05472
2023/07/11 06:09:44.000   35.159082874  136.886303901    39.6233   5  19   3.3480   5.8713   9.2406   2.7938  -4.1797  -2.2055   0.00    0.0    1.03144    6.02456    0.34568   0.10777  0.16693  0.28997  0.09407 -0.13107 -0.05672
2023/07/11 06:09:49.000   35.159093802  136.886544191    49.5034   5  11   5.4496   4.7980  12.9924   2.6619   2.9599  -4.8017   0.00    0.0    0.41170    1.56331   -1.11339   0.16272  0.15648  0.48605  0.07440  0.16185 -0.16200
2023/07/11 06:09:52.000   35.159065803  136.886674385    34.6541   5   9   6.5724   5.1176  12.5205   1.6924  -2.8602  -5.0424   0.00    0.0    0.10903    0.00257   -0.02978   0.21869  0.14448  0.41806  0.07247 -0.06347 -0.19421
2023/07/11 06:09:53.000   35.158818571  136.885593738   238.9566   5   8  10.0938  31.9585  63.6966  15.6382 -44.4787 -22.4476   0.00    0.0    0.07235    0.19427   -0.26251   0.32138  0.70798  1.46821  0.41046 -0.98968 -0.60758
2023/07/11 06:09:54.000   35.159008160  136.886710079    43.1163   5   9   6.5709   5.1171  12.5217   1.6901  -2.8578  -5.0368   0.00    0.0    0.06603   -0.03130   -0.10321   0.21866  0.14448  0.41810  0.07243 -0.06335 -0.19406
2023/07/11 06:09:55.000   35.159020416  136.886723424    41.1691   5   9   6.5702   5.1169  12.5224   1.6890  -2.8566  -5.0340   0.00    0.0   -0.01253   -0.00032    0.00711   0.21865  0.14448  0.41812  0.07241 -0.06329 -0.19398
2023/07/11 06:09:57.000   35.159039514  136.886719564    41.8230   5   9   6.5688   5.1164  12.5236   1.6867  -2.8542  -5.0284   0.00    0.0    0.02744    0.03030    0.10404   0.21862  0.14448  0.41815  0.07236 -0.06317 -0.19383
2023/07/11 06:09:58.000   35.158726428  136.886924061    75.3019   5   8  17.6452  10.2574  20.0581 -11.9482  11.4522 -16.7883   0.00    0.0    0.05158    0.06260    0.09447   0.26254  0.14980  0.45596 -0.02275  0.05662 -0.25291
2023/07/11 06:10:01.000   35.159064964  136.886738552    44.9010   5   8   7.5191   5.9547  14.0936  -2.6184   3.4187  -7.2156   0.00    0.0   -0.13086    0.01675    0.17379   0.26192  0.14983  0.43860 -0.02447  0.04857 -0.22137
2023/07/11 06:10:02.000   35.158808811  136.886883818    68.6430   5   7  20.4731  10.8563  21.2712 -13.4059  12.5027 -18.8528   0.00    0.0    0.05897   -0.04097   -0.02815   0.31475  0.15020  0.45852 -0.04920  0.06129 -0.26888
2023/07/11 06:10:03.000   35.159050907  136.886742369    46.1682   5   8   7.5209   5.9543  14.0956  -2.6207   3.4222  -7.2154   0.00    0.0   -0.06656    0.03437    0.00580   0.26198  0.14983  0.43866 -0.02455  0.04868 -0.22129
2023/07/11 06:10:05.000   35.158815998  136.886876744    67.7301   5   7  20.4819  10.8575  21.2547 -13.4108  12.4964 -18.8437   0.00    0.0   -0.06795   -0.04793   -0.08670   0.31490  0.15019  0.45849 -0.04930  0.06140 -0.26869
2023/07/11 06:10:07.000   35.159074777  136.886716062    41.7361   5   8   6.8834   5.1675  12.5399   2.0849  -2.7760  -4.8949   0.00    0.0    0.03664    0.00608    0.02678   0.23824  0.14466  0.41968  0.07672 -0.06061 -0.18465
2023/07/11 06:10:08.000   35.159037772  136.886702173    41.0928   5   9   6.5609   5.1139  12.5305   1.6741  -2.8408  -4.9974   0.00    0.0    0.03524   -0.00612   -0.08059   0.21845  0.14449  0.41836  0.07212 -0.06250 -0.19300
2023/07/11 06:10:09.000   35.159035787  136.886699782    41.2964   5  10   5.5324   4.9753  12.4902   2.6390  -3.0430  -4.6233   0.00    0.0    0.01175   -0.04165    0.07879   0.18950  0.14448  0.40965  0.07135 -0.06175 -0.16727
2023/07/11 06:10:11.000   35.159033764  136.886698728    41.4107   5  11   5.5317   4.9747  12.4921   2.6376  -3.0392  -4.6206   0.00    0.0    0.07577    0.01524   -0.04424   0.17222  0.14444  0.40810  0.07325 -0.06269 -0.15829
2023/07/11 06:10:12.000   35.159033315  136.886695937    41.3157   5  11   5.5314   4.9744  12.4931   2.6369  -3.0373  -4.6192   0.00    0.0   -0.06638    0.00423    0.09631   0.17221  0.14444  0.40816  0.07324 -0.06263 -0.15827
2023/07/11 06:10:15.000   35.159033699  136.886692180    41.0882   5  11   5.5305   4.9734  12.4961   2.6348  -3.0316  -4.6150   0.00    0.0    0.01285    0.02049    0.07336   0.17220  0.14444  0.40832  0.07319 -0.06245 -0.15819
2023/07/11 06:10:17.000   35.159004213  136.886715736    45.5738   5  10   7.2726   5.9167  14.1094  -2.8651   3.4387  -7.2251   0.00    0.0    0.00441   -0.06004   -0.14524   0.18933  0.14854  0.42908  0.05123  0.02590 -0.18805
2023/07/11 06:10:21.000   35.159005737  136.886758042    56.6571   5   8   7.2758   6.7842  16.7886  -2.7818   6.4863  -7.1285   0.00    0.0    0.00105   -0.02196    0.01388   0.22757  0.20560  0.59475 -0.08059  0.24276 -0.25683
2023/07/11 06:10:22.000   35.159030699  136.886745728    51.0029   5   7   7.5765   6.8377  17.3053  -3.0903   6.7581  -7.7240   0.00    0.0   -0.02040   -0.12022   -0.28107   0.27512  0.20948  0.60483 -0.11269  0.25169 -0.28791
2023/07/11 06:10:23.000   35.159032582  136.886744694    50.2790   5   7   7.5776   6.8379  17.3088  -3.0924   6.7607  -7.7254   0.00    0.0    0.06266    0.01170   -0.00492   0.27516  0.20949  0.60492 -0.11275  0.25175 -0.28794
2023/07/11 06:10:25.000   35.158443709  136.887165031   127.1951   5   6  29.8752  18.3128  38.0834 -22.3720  24.9399 -32.2476   0.00    0.0    0.13895   -0.06297   -0.27868   0.47452  0.36233  0.89467 -0.35637  0.50817 -0.58109
2023/07/11 06:10:26.000   35.158446391  136.887161420   126.7911   5   6  29.8925  18.3217  38.0932 -22.3851  24.9503 -32.2613   0.00    0.0    0.10961   -0.08103   -0.11286   0.47469  0.36244  0.89490 -0.35653  0.50835 -0.58128
2023/07/11 06:10:27.000   35.158448596  136.887158455   126.1686   5   6  29.9098  18.3307  38.1031 -22.3983  24.9607 -32.2750   0.00    0.0   -0.11482    0.09716    0.18193   0.47486  0.36255  0.89513 -0.35669  0.50853 -0.58148
2023/07/11 06:10:29.000   35.158608629  136.887046023   104.4662   5   7  18.7409  12.4593  25.3226 -13.7214  15.4988 -19.4396   0.00    0.0    0.11819   -0.08224   -0.17648   0.26772  0.26470  0.69365 -0.17339  0.34413 -0.34080
2023/07/11 06:10:30.000   35.158606642  136.887046119   104.6331   5   8  18.7364  12.4572  25.3130 -13.7181  15.4931 -19.4305   0.00    0.0    0.00480    0.02224   -0.00127   0.19593  0.22214  0.58249 -0.06166  0.25340 -0.21772
2023/07/11 06:10:31.000   35.159037195  136.886710326    47.1417   5   9   6.8340   5.5054  14.1570   2.5986   2.3558  -3.3784   0.00    0.0    0.08330   -0.13407   -0.48898   0.17476  0.18481  0.48482  0.08434  0.15624 -0.13707
2023/07/11 06:10:33.000   35.158605640  136.887046006   104.6995   5   7  18.7228  12.4506  25.2843 -13.7083  15.4758 -19.4030   0.00    0.0   -0.00556   -0.09885   -0.14327   0.26759  0.26476  0.69379 -0.17338  0.34423 -0.34060
2023/07/11 06:10:35.000   35.159090708  136.886653537    52.5136   5   6  21.3812  12.4190  31.5771 -14.8223  18.3221 -24.4051   0.00    0.0   -0.13011    0.15885    0.29908   0.63147  0.39794  0.97852 -0.45216  0.57584 -0.70858
2023/07/11 06:10:36.000   35.159085156  136.886657839    53.1090   5   6  21.3869  12.4223  31.5806 -14.8271  18.3264 -24.4097   0.00    0.0   -0.06363    0.08759    0.24908   0.63157  0.39804  0.97871 -0.45227  0.57599 -0.70872
2023/07/11 06:10:42.000   35.159072572  136.886665248    53.7401   5   7  21.4210  12.4421  31.6017 -14.8560  18.3520 -24.4372   0.00    0.0   -0.06020    0.06028    0.15368   0.21950  0.21123  0.60965 -0.06875  0.27105 -0.22052
2023/07/11 06:10:43.000   35.158502028  136.887112197   117.9298   5   6  30.1884  18.4748  38.2604 -22.6099  25.1271 -32.4955   0.00    0.0    0.01938   -0.01116    0.06359   0.22283  0.22585  0.61573 -0.08828  0.25825 -0.21303
2023/07/11 06:10:44.000   35.159071073  136.886667068    53.7165   5   6  21.4324  12.4487  31.6086 -14.8656  18.3605 -24.4463   0.00    0.0    0.24051   -0.13958   -0.26317   0.63236  0.39886  0.98024 -0.45317  0.57721 -0.70976
2023/07/11 06:10:45.000   35.159065204  136.886669266    54.0807   5   6  21.4380  12.4520  31.6121 -14.8704  18.3647 -24.4509   0.00    0.0   -0.08872   -0.01016   -0.04329   0.63246  0.39896  0.98043 -0.45329  0.57736 -0.70989
2023/07/11 06:10:47.000   35.159070718  136.886658851    51.9392   5   9   5.8361   5.1089  13.6231   3.3340   3.6545  -3.7332   0.00    0.0   -0.05391    0.05920    0.28956   0.20905  0.13053  0.43550  0.08649  0.07127 -0.14087
2023/07/11 06:10:48.000   35.159169293  136.886606936    44.0540   5   8  21.1197  11.2598  28.7583 -14.1909  16.3557 -23.4270   0.00    0.0    1.07612   -0.43305   -2.22281   0.23759  0.14079  0.45279 -0.03558  0.10079 -0.21775
2023/07/11 06:10:52.000   35.158896946  136.886715005   104.4049   5   6  23.9301   7.3985  39.6728  10.9358 -12.6073 -28.6609   0.00    0.0    2.46168    2.52304    0.51244   0.44517  0.15647  0.65153  0.11370  0.05655 -0.44535
2023/07/11 06:10:56.000   35.159192694  136.886820321    43.7077   5  18   3.4961   4.6207   8.9609   2.5870   1.7586  -1.5155   0.00    0.0    1.53730    0.99929   -0.07208   0.11952  0.14438  0.30144  0.09288  0.07919 -0.03093
2023/07/11 06:10:57.000   35.159203898  136.886819464    39.8101   5  19   3.4280   4.6038   8.6660   2.6383   1.4828  -0.8570   0.00    0.0    1.05923    0.37789   -0.22761   0.11819  0.14120  0.28712  0.09570  0.05921  0.02579
2023/07/11 06:10:58.000   35.159216270  136.886821115    38.7461   5  20   3.3499   4.5924   8.1970   2.6819   1.1381   1.1440   0.00    0.0    0.57528    0.29718   -0.12167   0.11315  0.14120  0.27116  0.09570  0.05922  0.06233
2023/07/11 06:11:00.000   35.159236366  136.886819658    41.2634   5  21   3.2019   4.2317   7.9690   2.3315  -1.4591  -0.7650   0.00    0.0    0.50066    0.06216   -0.06313   0.10411  0.12313  0.25853  0.07807 -0.04636  0.01580
2023/07/11 06:11:01.000   35.159243629  136.886827087    41.0113   5  21   3.2017   4.2316   7.9695   2.3312  -1.4577  -0.7654   0.00    0.0    0.85998    0.23264    0.12089   0.10411  0.12313  0.25856  0.07807 -0.04632  0.01574
2023/07/11 06:11:03.000   35.159242065  136.886825130    40.4640   5  21   3.2014   4.2314   7.9707   2.3306  -1.4548  -0.7660   0.00    0.0   -0.00457   -0.02559   -0.01138   0.10410  0.12313  0.25861  0.07807 -0.04624  0.01563
2023/07/11 06:11:05.000   35.159235550  136.886826462    42.2093   5  20   3.3392   4.2334   8.2789   2.3574  -1.5520  -1.6463   0.00    0.0    0.44352    0.04642   -0.04314   0.11084  0.12330  0.27266  0.07959 -0.05175 -0.05516
2023/07/11 06:11:07.000   35.159258795  136.886827731    42.0370   5  20   3.3388   4.2332   8.2797   2.3567  -1.5488  -1.6461   0.00    0.0    2.68284   -0.35793   -0.04550   0.11083  0.12330  0.27270  0.07959 -0.05167 -0.05517
2023/07/11 06:11:08.000   35.159288175  136.886820265    41.9570   5  20   3.3386   4.2331   8.2801   2.3563  -1.5471  -1.6461   0.00    0.0    4.00556   -0.83015    0.24078   0.11083  0.12330  0.27272  0.07958 -0.05162 -0.05518
2023/07/11 06:11:10.000   35.159385156  136.886800554    40.2950   5  20   3.3175   5.4837   9.2300   2.9105  -4.2778  -2.1566   0.00    0.0    6.12438   -1.18534    0.03685   0.10773  0.16370  0.29060  0.09532 -0.12798 -0.05864
2023/07/11 06:11:11.000   35.159445015  136.886787391    40.5983   5  20   3.3173   5.4835   9.2302   2.9103  -4.2770  -2.1568   0.00    0.0    7.07346   -1.36080   -0.16780   0.10773  0.16370  0.29061  0.09533 -0.12795 -0.05866
2023/07/11 06:11:14.000   35.159662423  136.886739638    40.5406   5  19   3.3965   8.0066  12.5074   3.5680  -8.2167  -3.2895   0.00    0.0    8.91606   -2.03166    0.17372   0.10956  0.24551  0.37603  0.11286 -0.24496 -0.09057
2023/07/11 06:11:15.000   35.159742021  136.886712036    42.5292   5  18   3.6284   8.2347  13.4098   3.8974  -8.7650  -4.1222   0.00    0.0    9.52815   -1.68939   -0.78417   0.12195  0.26132  0.42526  0.13242 -0.27889 -0.13727
2023/07/11 06:11:17.000   35.159930418  136.886681475    39.1136   5  20   3.3166   5.4823   9.2313   2.9092  -4.2718  -2.1577   0.00    0.0    9.94539   -1.92719    0.04263   0.10773  0.16367  0.29065  0.09535 -0.12776 -0.05879
2023/07/11 06:11:18.000   35.160012063  136.886657013    39.8582   5  19   3.3830   5.4825   9.4442   2.9016  -4.2560  -2.4466   0.00    0.0    9.95449   -2.12246   -0.16268   0.10899  0.16445  0.29530  0.09396 -0.12441 -0.06572
2023/07/11 06:11:21.000   35.160297811  136.886577160    42.0685   5  21   3.1986   4.2298   7.9809   2.3255  -1.4281  -0.7729   0.00    0.0   10.58508   -2.17045    0.06664   0.10407  0.12314  0.25904  0.07804 -0.04557  0.01449
2023/07/11 06:11:22.000   35.160389666  136.886552235    44.0981   5  18   3.6206   5.5278  11.1769   3.0700  -4.6411  -3.6358   0.00    0.0   10.86633   -2.33513   -0.01562   0.12737  0.16719  0.35702  0.10625 -0.15043 -0.13206
2023/07/11 06:11:25.000   35.160684754  136.886478219    47.7116   5  15   4.2434   8.6149  17.2899   4.4827 -10.1390  -5.7945   0.00    0.0   10.71086   -2.37396    0.38200   0.15844  0.27772  0.55694  0.16200 -0.33160 -0.22517
2023/07/11 06:11:26.000   35.160755339  136.886446986    61.1441   5  13   6.1200   9.3977  22.7854   5.5362 -11.8209 -10.2400   0.00    0.0   10.95708   -1.94390    0.26180   0.21367  0.28911  0.67045  0.18793 -0.36800 -0.32655
2023/07/11 06:11:30.000   35.161177761  136.886410705    14.5358   5  10  29.1420  28.9252  53.8207 -26.3018 -37.6826  38.1931   0.00    0.0    7.67582    0.33053   -4.83727   0.89085  0.81315  1.58693 -0.74715 -1.07452  1.14387
2023/07/11 06:11:32.000   35.161446821  136.886303515    50.6495   5  18   3.3801   4.7800   8.7705   2.0928  -3.1380   0.4981   0.00    0.0   11.31993   -2.50245   -0.03747   0.11116  0.13983  0.28376  0.06952 -0.09331  0.03833
2023/07/11 06:11:33.000   35.161500972  136.886264378    40.1670   5  19   3.3719   5.5059   9.3738   2.9634  -4.3595  -2.3794   0.00    0.0   11.67101   -2.41344    0.89833   0.10932  0.16371  0.29741  0.09599 -0.12871 -0.06818
2023/07/11 06:11:36.000   35.161810290  136.886183648    40.7924   5  21   3.1963   4.2284   7.9895   2.3213  -1.4053  -0.7790   0.00    0.0   11.43137   -2.36304    0.10393   0.10404  0.12315  0.25941  0.07802 -0.04500  0.01342
2023/07/11 06:11:37.000   35.161920241  136.886170811    41.3026   5  21   3.1962   4.2283   7.9901   2.3210  -1.4037  -0.7794   0.00    0.0   11.58640   -2.49323    0.11352   0.10404  0.12316  0.25943  0.07802 -0.04496  0.01334
2023/07/11 06:11:38.000   35.162014752  136.886116563    38.6647   5  20   3.3396   4.5886   8.2186   2.6669   1.2085   1.1197   0.00    0.0   11.48825   -2.27320   -0.04990   0.11282  0.14119  0.27202  0.09540  0.06021  0.06118
2023/07/11 06:11:39.000   35.162127993  136.886111438    39.1052   5  21   3.1959   4.2282   7.9912   2.3204  -1.4007  -0.7803   0.00    0.0   11.63469   -2.46611    0.09911   0.10404  0.12316  0.25948  0.07802 -0.04488  0.01319
2023/07/11 06:11:40.000   35.162234374  136.886087273    38.6194   5  21   3.1957   4.2281   7.9918   2.3201  -1.3991  -0.7807   0.00    0.0   11.66820   -2.59080   -0.10201   0.10403  0.12316  0.25950  0.07802 -0.04484  0.01311
2023/07/11 06:11:41.000   35.162334245  136.886048201    40.6153   5  21   3.1956   4.2280   7.9923   2.3199  -1.3976  -0.7811   0.00    0.0   11.76191   -2.53971    0.42034   0.10403  0.12316  0.25952  0.07802 -0.04480  0.01304
2023/07/11 06:11:42.000   35.162439327  136.886020697    40.4220   5  21   3.1954   4.2279   7.9929   2.3196  -1.3960  -0.7815   0.00    0.0   11.74095   -2.29832   -0.38491   0.10403  0.12316  0.25955  0.07801 -0.04476  0.01296
2023/07/11 06:11:44.000   35.162654467  136.885980589    40.6165   5  20   3.3135   5.4768   9.2363   2.9042  -4.2484  -2.1619   0.00    0.0   12.22404   -2.09997    0.10266   0.10776  0.16355  0.29083  0.09546 -0.12691 -0.05937
2023/07/11 06:11:45.000   35.162759725  136.885955645    39.3965   5  19   3.3904   7.9648  12.4990   3.5481  -8.1695  -3.2750   0.00    0.0   12.23320   -2.55506    0.06413   0.10959  0.24473  0.37624  0.11288 -0.24403 -0.09101
2023/07/11 06:11:48.000   35.163100156  136.885859596    40.8269   5  21   3.1945   4.2274   7.9963   2.3179  -1.3867  -0.7840   0.00    0.0   12.98154   -2.72332    0.15743   0.10402  0.12316  0.25969  0.07800 -0.04453  0.01248
2023/07/11 06:11:49.000   35.163214654  136.885828686    42.1368   5  20   3.3313   4.2290   8.2963   2.3421  -1.4783  -1.6442   0.00    0.0   13.30244   -2.85119    0.10347   0.11068  0.12330  0.27342  0.07941 -0.04979 -0.05550
2023/07/11 06:11:50.000   35.163330676  136.885800525    44.6921   5  19   3.4104   4.2556   9.4259   2.2662  -0.2282  -2.4445   0.00    0.0   13.32146   -2.67701    0.26252   0.11821  0.12359  0.30415  0.07716 -0.03668 -0.09279
2023/07/11 06:11:51.000   35.163453816  136.885770962    43.1133   5  19   3.3347   4.2740   8.4410   2.3624  -1.7711  -1.7178   0.00    0.0   13.06476   -2.73696    0.71297   0.11069  0.12580  0.27474  0.07969 -0.05598 -0.05595
2023/07/11 06:11:52.000   35.163568299  136.885739710    42.6602   5  20   3.3307   4.2287   8.2975   2.3410  -1.4731  -1.6441   0.00    0.0   13.18346   -2.90001    0.05273   0.11067  0.12330  0.27347  0.07940 -0.04966 -0.05552
2023/07/11 06:11:53.000   35.163699031  136.885714018    42.1223   5  21   3.1937   4.2269   7.9992   2.3164  -1.3789  -0.7862   0.00    0.0   13.18223   -2.75905    0.01996   0.10401  0.12317  0.25981  0.07800 -0.04433  0.01205
2023/07/11 06:11:54.000   35.163816247  136.885685198    43.2285   5  20   3.3304   4.2285   8.2983   2.3403  -1.4696  -1.6440   0.00    0.0   13.38492   -2.59455    0.04521   0.11066  0.12330  0.27350  0.07939 -0.04956 -0.05554
2023/07/11 06:11:55.000   35.163944712  136.885656624    41.2787   5  19   3.2337   4.5969   8.2124   2.1434  -0.9118  -1.1665   0.00    0.0   13.65928   -2.17148    0.20941   0.10441  0.12773  0.26165  0.07732 -0.05110 -0.00197
2023/07/11 06:11:56.000   35.164061613  136.885618925    39.9867   5  21   3.1932   4.2267   8.0009   2.3156  -1.3742  -0.7875   0.00    0.0   13.63315   -2.26243    0.24323   0.10400  0.12317  0.25988  0.07799 -0.04421  0.01179
2023/07/11 06:11:58.000   35.164305363  136.885580853    41.4799   5  20   3.3119   5.4740   9.2389   2.9016  -4.2361  -2.1641   0.00    0.0   13.18338   -1.04006    0.16579   0.10778  0.16349  0.29092  0.09551 -0.12647 -0.05967
2023/07/11 06:11:59.000   35.164420826  136.885575485    40.0363   5  18   3.6136   8.1563  13.3546   3.8524  -8.6640  -4.0758   0.00    0.0   11.96193   -0.81957    0.11828   0.12172  0.25919  0.42353  0.13159 -0.27591 -0.13641
2023/07/11 06:12:02.000   35.164644762  136.885492620    52.0289   5  13   5.4439   9.9015  20.7736   5.8755 -11.6463  -8.7082   0.00    0.0    6.74355   -0.69714    0.41167   0.18988  0.31200  0.64148  0.18765 -0.33342 -0.28458
2023/07/11 06:12:03.000   35.164529654  136.885367021   128.8266   5  14   4.3247   8.7700  14.3645   4.0744  -9.0645  -5.3130   0.00    0.0    5.01518   -0.28926    0.15741   0.13939  0.26476  0.44243  0.13067 -0.27912 -0.15852
2023/07/11 06:12:04.000   35.164611816  136.885588218   101.8958   5  15   3.9443   4.9678   9.4802   1.9437  -2.0401  -3.0141   0.00    0.0    2.90030   -0.28485    0.25961   0.12771  0.14103  0.30257  0.06752 -0.07463 -0.08426
2023/07/11 06:12:06.000   35.164775077  136.885535458    44.8315   5  14   4.6871   5.3290  11.8242  -1.0324   2.2694  -4.8852   0.00    0.0    0.15377    0.01450   -0.00683   0.15190  0.14960  0.38207  0.03816  0.04269 -0.16723
2023/07/11 06:12:07.000   35.164775613  136.885504524    49.9743   5  14   4.6872   5.3289  11.8253  -1.0349   2.2718  -4.8854   0.00    0.0    0.26455    0.00852    0.01750   0.15190  0.14960  0.38211  0.03812  0.04278 -0.16724
2023/07/11 06:12:09.000   35.164759257  136.885513859    53.8074   5  13   5.4802   5.5632  13.4477  -2.3703   3.9254  -6.4837   0.00    0.0    0.02472   -0.00820    0.01712   0.17170  0.15254  0.39305 -0.03058  0.06766 -0.18794
2023/07/11 06:12:10.000   35.164759071  136.885505696    53.5347   5  13   5.4800   5.5632  13.4483  -2.3714   3.9270  -6.4833   0.00    0.0    0.02086   -0.02371   -0.07421   0.17169  0.15255  0.39307 -0.03062  0.06771 -0.18794
2023/07/11 06:12:12.000   35.164758674  136.885504837    53.9114   5  13   5.4796   5.5633  13.4496  -2.3737   3.9301  -6.4827   0.00    0.0    0.03593    0.00170   -0.07006   0.17167  0.15255  0.39312 -0.03070  0.06782 -0.18793
2023/07/11 06:12:13.000   35.164758329  136.885507013    53.7637   5  13   5.4794   5.5633  13.4502  -2.3748   3.9317  -6.4824   0.00    0.0    0.02949    0.00783   -0.03942   0.17166  0.15256  0.39315 -0.03074  0.06787 -0.18792
2023/07/11 06:12:17.000   35.164795397  136.885494078    45.3314   5  15   3.7000   5.1850  11.1590   1.5516   0.6550  -3.5383   0.00    0.0   -0.00453    0.01374    0.07985   0.13122  0.14710  0.35511  0.05934 -0.04450 -0.13090
2023/07/11 06:12:18.000   35.164795653  136.885494971    44.9835   5  15   3.7000   5.1848  11.1604   1.5505   0.6621  -3.5386   0.00    0.0    0.00859    0.01427   -0.03573   0.13121  0.14710  0.35514  0.05933 -0.04444 -0.13091
2023/07/11 06:12:20.000   35.164788021  136.885504989    47.6456   5  14   3.9621   5.2738  11.9401   1.0133   2.1339  -4.3048   0.00    0.0    0.04255   -0.03298   -0.02955   0.13959  0.14823  0.35694  0.05145 -0.03635 -0.13717
2023/07/11 06:12:21.000   35.164788008  136.885506549    47.8451   5  14   3.9619   5.2736  11.9414   1.0115   2.1365  -4.3050   0.00    0.0    0.00646   -0.01740    0.02699   0.13958  0.14823  0.35697  0.05143 -0.03627 -0.13717
2023/07/11 06:12:22.000   35.164787587  136.885507516    48.0291   5  14   3.9618   5.2735  11.9427   1.0096   2.1392  -4.3051   0.00    0.0    0.00581    0.01672    0.00787   0.13957  0.14823  0.35699  0.05141 -0.03620 -0.13717
2023/07/11 06:12:23.000   35.164787306  136.885508676    48.2682   5  14   3.9617   5.2734  11.9441   1.0078   2.1418  -4.3053   0.00    0.0   -0.02153   -0.00861    0.02897   0.13957  0.14823  0.35702  0.05140 -0.03613 -0.13716
2023/07/11 06:12:24.000   35.164787121  136.885510393    48.4040   5  14   3.9616   5.2733  11.9454   1.0059   2.1445  -4.3054   0.00    0.0    0.04360   -0.02827   -0.03808   0.13956  0.14823  0.35704  0.05138 -0.03606 -0.13716
