     3.03           OBSERVATION DATA    M: Mixed            RINEX VERSION / TYPE
                                        20240121 141645 UTC PGM / RUN BY / DATE 
                                                            MARKER NAME         
                                                            MARKER NUMBER       
                                                            MARKER TYPE         
                                                            OBSERVER / AGENCY   
                                                            REC # / TYPE / VERS 
                                                            ANT # / TYPE        
 -3817690.2015  3562847.3632  3650172.6616                  APPROX POSITION XYZ 
        0.0000        0.0000        0.0000                  ANTENNA: DELTA H/E/N
G    8 C1C L1C D1C S1C C2L L2L D2L S2L                      SYS / # / OBS TYPES 
R    8 C1C L1C D1C S1C C2C L2C D2C S2C                      SYS / # / OBS TYPES 
E    8 C1C L1C D1C S1C C7Q L7Q D7Q S7Q                      SYS / # / OBS TYPES 
J    8 C1C L1C D1C S1C C2L L2L D2L S2L                      SYS / # / OBS TYPES 
C    8 C7I L7I D7I S7I C2I L2I D2I S2I                      SYS / # / OBS TYPES 
  2023    07    11    06    09   09.9810000     GPS         TIME OF FIRST OBS   
  2023    07    11    06    10   48.9810000     GPS         TIME OF LAST OBS    
G L1C                                                       SYS / PHASE SHIFT   
G L2L  0.00000                                              SYS / PHASE SHIFT   
R L1C                                                       SYS / PHASE SHIFT   
R L2C                                                       SYS / PHASE SHIFT   
E L1C  0.00000                                              SYS / PHASE SHIFT   
E L7Q  0.00000                                              SYS / PHASE SHIFT   
J L1C                                                       SYS / PHASE SHIFT   
J L2L  0.00000                                              SYS / PHASE SHIFT   
C L7I                                                       SYS / PHASE SHIFT   
C L2I                                                       SYS / PHASE SHIFT   
  8 R02 -4 R03  5 R04  6 R12 -1 R17  4 R18 -3 R19  3 R24  2 GLONASS SLOT / FRQ #
 C1C    0.000 C1P    0.000 C2C    0.000 C2P    0.000        GLONASS COD/PHS/BIS 
                                                            END OF HEADER       
> 2023 07 11 06 09 09.9810000  0 37                     
G05  15758595.795    82812088.454        1751.829          45.000    15758587.668    64528885.085        1364.950          40.000  
G06  16360903.556    85977163.806       -2283.106          43.000    16360899.537    66995203.434       -1779.113          42.000  
G07  17831379.194    93704728.939         155.632          43.000    17831371.969    73016648.801         120.988          38.000  
G09  19028929.199    99997774.805       -3217.028          36.000    19028925.581    77920384.457       -2506.637          35.000  
G11  14610350.731    76777985.383         159.858          47.000    14610341.904    59827004.230         124.486          49.000  
G13  15853795.232    83312408.324        3216.866          44.000                                                                  
G15  18705373.806    98297455.613        3859.320          35.000    18705374.670    76595414.835        3006.958          35.000  
G19  19711232.885   103583214.036       -3583.644          35.000                                                                  
G20  14903224.147    78317049.307         730.615          45.000                                                                  
G29  17875201.307    93934848.041        2119.921          41.000    17875195.623    73195956.705        1652.101          35.000  
G30  17220064.870    90492213.899        1679.876          43.000    17220060.985    70513491.467        1308.920          40.000  
R02  16217591.050    86540295.781       -2921.249          47.000    16217583.484    67309051.623       -2271.815          42.000  
R03  13903303.469    74425608.126        -403.228          48.000    13903291.249    57886600.970        -313.684          48.000  
R04  15667649.492    83899667.605        2553.976          46.000    15667638.558    65255213.078        1986.280          44.000  
R12  18510787.685    98881334.213        2315.169          43.000                                                                  
R17  14865855.213    79550196.504       -2948.827          48.000    14865844.702    61872308.763       -2293.672          45.000  
R18  13544004.598    72298895.739         819.083          48.000    13543995.750    56232447.172         637.199          48.000  
R19  15911360.880    85115063.215        3846.867          34.000    15911350.029    66200582.101        2991.621          39.000  
E04  21039953.855   110565768.800        2855.608          40.000    21039953.520    84719240.109        2187.718          40.000  
E10  20348500.089   106932106.562        2686.510          42.000    20348497.292    81934989.104        2058.493          45.000  
E12  18592466.030    97704113.692        1858.048          42.000    18592459.825    74864212.944        1423.679          47.000  
E14  14615123.210    76802993.949        3272.987          39.000                                                                  
E19  18230247.767    95800654.076         696.615          40.000    18230242.641    73405704.315         533.842          47.000  
E20  20651988.062   108527000.695        -446.165          39.000                                                                  
E26  21455375.862   112748680.110       -2326.986          39.000    21455377.734    86391791.701       -1783.144          40.000  
J02  32242697.619   169436502.511          65.906          35.000    32242708.540   132028256.874          51.244          36.000  
J03  31618297.704   166155249.697         831.751          44.000                                                                  
J04  32845335.717   172603389.027        -283.868          43.000    32845327.127   134496112.339        -221.179          46.000  
J07  31512494.618   165599245.762         253.905          37.000    31512486.914   129038369.787         198.155          43.000  
C07  33924235.385   136598708.967       -1166.273          39.000    33924247.092   176652305.326       -1508.372          37.000  
C08  31494085.554   126813693.136         538.419          45.000    31494102.321   163998089.254         696.353          42.000  
C10  33520238.427   134972009.691       -1134.501          37.000    33520245.029   174548601.546       -1467.940          36.000  
C13  32320438.930   130141072.646         556.135          43.000    32320445.218   168301056.059         719.186          40.000  
C14  19626612.816    79028229.302       -1781.436          43.000    19626625.488   102200950.467       -2303.588          38.000  
C24                                                                  20483458.782   106662790.334        1356.858          39.000  
C27                                                                  16611550.890    86500744.273         943.006          47.000  
C28                                                                  16796890.863    87465797.991       -1916.343          47.000  
> 2023 07 11 06 09 10.9810000  0 37                     
G05  15758262.410    82810336.276        1751.624          45.000    15758254.274    64527519.754        1364.863          41.000  
G06  16361337.982    85979446.530       -2283.365          44.000    16361334.042    66996982.182       -1779.310          42.000  
G07  17831349.653    93704573.244         154.693          43.000    17831342.359    73016527.458         120.688          37.000  
G09  19029541.288   100000991.530       -3217.722          36.000    19029537.783    77922890.979       -2506.620          35.000  
G11  14610320.371    76777825.517         159.253          47.000    14610311.489    59826879.660         123.968          49.000  
G13  15853183.080    83309191.350        3216.272          45.000                                                                  
G15  18704639.288    98293595.820        3859.206          35.000    18704640.060    76592407.230        3007.032          35.000  
G19  19711914.649   103586796.657       -3583.214          35.000                                                                  
G20  14903085.128    78316318.522         730.215          45.000                                                                  
G29  17874797.866    93932728.013        2118.981          41.000    17874792.225    73194304.738        1651.370          35.000  
G30  17219745.259    90490533.925        1679.350          43.000    17219741.262    70512182.401        1308.623          40.000  
R02  16218138.352    86543216.521       -2921.319          47.000    16218130.822    67311323.315       -2271.981          42.000  
R03  13903378.789    74426011.176        -403.757          48.000    13903366.598    57886914.453        -313.960          48.000  
R04  15667172.469    83897113.434        2553.615          46.000    15667161.558    65253226.510        1985.800          44.000  
R12  18510354.281    98879019.005        2314.480          43.000                                                                  
R17  14866406.297    79553145.393       -2949.773          48.000    14866395.798    61874602.334       -2294.237          45.000  
R18  13543851.217    72298076.596         818.318          48.000    13543842.380    56231810.072         636.378          48.000  
R19  15910641.733    85111216.665        3845.241          33.000    15910630.946    66197590.316        2991.051          39.000  
E04  21039410.486   110562912.898        2854.984          39.000    21039410.160    84717051.809        2187.671          40.000  
E10  20347988.697   106929419.732        2686.447          41.000    20347985.924    81932930.375        2058.272          45.000  
E12  18592112.397    97702255.354        1857.685          42.000    18592106.069    74862789.024        1423.384          46.000  
E14  14614500.517    76799721.388        3271.332          39.000                                                                  
E19  18230115.108    95799957.208         696.150          39.000    18230110.105    73405170.351         533.368          46.000  
E20  20652072.912   108527446.685        -446.737          38.000                                                                  
E26  21455818.679   112751007.032       -2327.489          38.000    21455820.592    86393574.639       -1783.288          40.000  
J02  32242684.919   169436436.105          65.933          35.000    32242695.866   132028205.127          51.611          36.000  
J03  31618139.433   166154417.659         831.595          45.000                                                                  
J04  32845389.635   172603672.527        -283.907          43.000    32845381.088   134496333.247        -221.335          46.000  
J07  31512446.133   165598991.119         254.187          37.000    31512438.505   129038171.375         198.041          43.000  
C07  33924524.952   136599875.001       -1166.384          39.000    33924536.690   176653813.285       -1508.550          37.000  
C08  31493951.739   126813154.291         538.547          45.000    31493968.434   163997392.412         696.349          41.000  
C10  33520520.150   134973144.059       -1134.794          37.000    33520526.747   174550068.535       -1467.778          36.000  
C13  32320300.766   130140516.124         556.107          43.000    32320307.013   168300336.335         719.344          41.000  
C14  19627055.086    79030010.259       -1781.370          43.000    19627067.847   102203253.645       -2303.570          38.000  
C24                                                                  20483198.147   106661433.314        1356.249          39.000  
C27                                                                  16611369.738    86499801.114         942.543          47.000  
C28                                                                  16797258.827    87467714.130       -1916.760          47.000  
> 2023 07 11 06 09 11.9810000  0 37                     
G05  15757929.031    82808584.383        1751.996          45.000    15757920.870    64526154.631        1365.431          41.000  
G06  16361772.453    85981729.725       -2283.309          43.000    16361768.556    66998761.295       -1779.268          42.000  
G07  17831320.060    93704418.137         154.969          43.000    17831312.750    73016406.582         121.116          38.000  
G09  19030153.421   100004208.386       -3216.691          35.000    19030150.048    77925397.645       -2506.598          35.000  
G11  14610290.109    76777666.256         159.264          47.000    14610281.169    59826755.557         124.157          49.000  
G13  15852571.085    83305974.894        3216.274          44.000                                                                  
G15  18703904.716    98289736.306        3859.541          35.000    18703905.581    76589399.786        3007.502          35.000  
G19  19712596.322   103590379.229       -3582.286          35.000                                                                  
G20  14902946.096    78315588.047         730.637          45.000                                                                  
G29  17874394.605    93930608.632        2119.270          41.000    17874388.965    73192653.290        1651.220          35.000  
G30  17219425.645    90488854.499        1679.413          43.000    17219421.654    70510873.754        1308.944          40.000  
R02  16218685.750    86546137.494       -2920.900          47.000    16218678.370    67313595.197       -2271.830          42.000  
R03  13903454.183    74426414.786        -403.656          48.000    13903441.957    57887228.373        -313.914          48.000  
R04  15666695.518    83894559.817        2553.605          45.000    15666684.759    65251240.362        1986.164          44.000  
R12  18509921.177    98876704.377        2314.361          43.000                                                                  
R17  14866957.519    79556095.008       -2949.692          48.000    14866947.011    61876896.481       -2294.391          45.000  
R18  13543697.807    72297258.373         818.130          48.000    13543689.037    56231173.678         636.214          48.000  
R19  15909922.762    85107370.580        3845.601          33.000    15909911.919    66194598.891        2991.754          39.000  
E04  21038867.118   110560057.229        2855.784          39.000    21038866.798    84714863.717        2188.188          39.000  
E10  20347477.439   106926733.098        2686.901          41.000    20347474.665    81930871.788        2058.632          45.000  
E12  18591758.908    97700397.351        1857.988          42.000    18591752.480    74861365.363        1423.645          46.000  
E14  14613878.102    76796450.242        3270.492          39.000                                                                  
E19  18229982.580    95799260.824         696.294          39.000    18229977.517    73404636.762         533.521          46.000  
E20  20652157.864   108527893.105        -446.627          38.000                                                                  
E26  21456261.512   112753334.198       -2327.154          38.000    21456263.427    86395357.794       -1782.899          40.000  
J02  32242672.256   169436369.704          66.750          34.000    32242683.306   132028153.424          51.683          36.000  
J03  31617981.124   166153585.771         832.172          45.000                                                                  
J04  32845443.560   172603956.070        -283.477          43.000    32845434.980   134496554.185        -220.713          46.000  
J07  31512397.708   165598736.582         255.073          37.000    31512390.127   129037973.034         198.511          43.000  
C07  33924814.506   136601041.104       -1165.670          39.000    33924826.283   176655321.306       -1507.840          37.000  
C08  31493817.908   126812615.470         538.959          45.000    31493834.620   163996695.590         697.149          42.000  
C10  33520801.869   134974278.525       -1134.332          37.000    33520808.530   174551535.635       -1467.188          36.000  
C13  32320162.545   130139959.599         556.916          43.000    32320168.762   168299616.663         719.853          41.000  
C14  19627497.372    79031791.264       -1780.593          43.000    19627510.212   102205556.889       -2302.883          38.000  
C24                                                                  20482937.642   106660076.738        1356.614          39.000  
C27                                                                  16611188.816    86498858.589         942.461          47.000  
C28                                                                  16797626.993    87469630.778       -1916.621          47.000  
> 2023 07 11 06 09 12.9810000  0 37                     
G05  15757595.634    82806832.882        1751.052          45.000    15757587.504    64524789.835        1364.476          41.000  
G06  16362207.026    85984013.459       -2284.170          43.000    16362203.098    67000540.832       -1780.037          42.000  
G07  17831290.611    93704263.726         153.909          43.000    17831283.423    73016286.283         119.845          37.000  
G09  19030765.636   100007425.484       -3217.763          35.000    19030762.239    77927904.453       -2507.334          35.000  
G11  14610259.945    76777507.682         157.960          47.000    14610251.037    59826631.993         123.149          49.000  
G13  15851959.168    83302759.011        3215.454          44.000                                                                  
G15  18703170.206    98285877.040        3858.763          35.000    18703171.273    76586392.592        3007.455          35.000  
G19  19713277.990   103593961.824       -3582.582          34.000                                                                  
G20  14902807.199    78314857.971         729.659          45.000                                                                  
G29  17873991.424    93928490.003        2118.061          41.000    17873985.816    73191002.398        1650.542          35.000  
G30  17219106.194    90487175.704        1678.120          43.000    17219102.261    70509565.602        1307.881          40.000  
R02  16219233.270    86549058.732       -2921.663          47.000    16219225.816    67315867.272       -2272.559          42.000  
R03  13903529.752    74426819.039        -404.727          48.000    13903517.490    57887542.788        -314.796          48.000  
R04  15666218.727    83892006.835        2552.377          46.000    15666208.047    65249254.697        1985.426          44.000  
R12  18509487.962    98874390.426        2313.410          43.000                                                                  
R17  14867508.783    79559045.460       -2951.042          48.000    14867498.413    61879191.270       -2295.272          45.000  
R18  13543544.715    72296441.187         816.452          48.000    13543536.013    56230538.080         635.050          48.000  
R19  15909204.007    85103525.003        3845.597          33.000    15909193.076    66191607.951        2990.626          39.000  
E04  21038323.828   110557201.925        2854.787          39.000    21038323.346    84712675.880        2187.656          40.000  
E10  20346966.216   106924046.737        2686.177          41.000    20346963.422    81928813.405        2058.101          45.000  
E12  18591405.364    97698539.749        1857.296          42.000    18591399.032    74859942.008        1423.116          47.000  
E14  14613255.932    76793180.599        3268.803          39.000                                                                  
E19  18229850.220    95798564.998         695.556          39.000    18229845.069    73404103.600         532.875          47.000  
E20  20652242.913   108528340.032        -447.352          38.000                                                                  
E26  21456704.464   112755661.705       -2327.698          38.000    21456706.443    86397141.214       -1783.720          40.000  
J02  32242659.704   169436303.447          66.093          34.000    32242670.665   132028101.789          51.264          36.000  
J03  31617822.838   166152754.111         831.514          45.000                                                                  
J04  32845497.704   172604239.731        -283.964          43.000    32845488.939   134496775.227        -221.318          46.000  
J07  31512349.289   165598482.219         253.881          37.000    31512341.665   129037774.829         197.887          43.000  
C07  33925104.200   136602207.338       -1166.045          39.000    33925115.945   176656829.517       -1508.371          37.000  
C08  31493684.178   126812076.723         538.593          45.000    31493700.870   163995998.864         696.586          42.000  
C10  33521083.708   134975413.133       -1134.683          37.000    33521090.252   174553002.923       -1467.421          37.000  
C13  32320024.320   130139403.180         556.083          43.000    32320030.520   168298897.067         719.232          41.000  
C14  19627939.705    79033572.388       -1781.290          43.000    19627952.626   102207860.260       -2303.549          38.000  
C24                                                                  20482677.184   106658720.739        1355.283          39.000  
C27                                                                  16611007.900    86497916.771         941.300          47.000  
C28                                                                  16797995.169    87471548.026       -1917.677          47.000  
> 2023 07 11 06 09 13.9810000  0 37                     
G05  15757262.360    82805081.419        1751.453          45.000    15757254.176    64523425.045        1364.862          40.000  
G06  16362641.704    85986297.416       -2283.873          43.000    16362637.720    67002320.523       -1779.742          42.000  
G07  17831261.244    93704109.679         153.993          43.000    17831254.175    73016166.244         120.028          37.000  
G09  19031377.738   100010642.444       -3216.411          35.000    19031374.292    77930411.191       -2506.608          35.000  
G11  14610229.810    76777349.469         158.150          47.000    14610220.915    59826508.717         123.156          49.000  
G13  15851347.258    83299543.423        3215.526          44.000                                                                  
G15  18702435.825    98282017.832        3859.417          35.000    18702436.882    76583385.430        3007.483          35.000  
G19  19713959.768   103597544.136       -3581.686          34.000                                                                  
G20  14902668.191    78314127.954         730.092          45.000                                                                  
G29  17873588.318    93926371.805        2118.081          41.000    17873582.672    73189351.848        1650.651          35.000  
G30  17218786.713    90485497.192        1678.565          43.000    17218782.795    70508257.697        1307.930          40.000  
R02  16219780.664    86551979.839       -2920.915          47.000    16219773.274    67318139.236       -2272.144          42.000  
R03  13903605.265    74427223.615        -404.576          48.000    13903593.027    57887857.459        -314.622          48.000  
R04  15665742.002    83889454.129        2552.737          46.000    15665731.497    65247269.278        1985.510          44.000  
R12  18509054.791    98872076.814        2313.674          43.000                                                                  
R17  14868060.160    79561996.351       -2950.945          48.000    14868049.870    61881486.408       -2295.251          45.000  
R18  13543391.818    72295624.723         816.311          48.000    13543382.989    56229903.059         634.881          48.000  
R19  15908485.116    85099679.738        3845.729          34.000    15908474.141    66188617.186        2990.862          39.000  
E04  21037780.421   110554346.657        2855.452          39.000    21037779.975    84710488.097        2187.964          39.000  
E10  20346455.137   106921360.342        2686.484          41.000    20346452.253    81926754.985        2058.506          45.000  
E12  18591051.682    97696682.267        1857.594          41.000    18591045.532    74858518.739        1423.382          46.000  
E14  14612633.952    76789912.158        3268.150          39.000                                                                  
E19  18229717.780    95797869.397         695.579          39.000    18229712.678    73403570.594         533.021          46.000  
E20  20652327.844   108528787.182        -447.095          38.000                                                                  
E26  21457147.395   112757989.266       -2327.601          38.000    21457149.322    86398924.638       -1783.174          40.000  
J02  32242647.001   169436236.960          66.859          34.000    32242657.997   132028049.972          52.361          36.000  
J03  31617664.509   166151922.365         831.828          44.000                                                                  
J04  32845551.665   172604523.198        -283.232          43.000    32845542.897   134496996.106        -220.659          46.000  
J07  31512300.950   165598227.717         254.835          37.000    31512293.215   129037576.514         198.379          43.000  
C07  33925393.920   136603373.460       -1165.693          39.000    33925405.461   176658337.589       -1507.914          37.000  
C08  31493550.362   126811537.804         538.878          45.000    31493566.994   163995301.925         697.128          42.000  
C10  33521365.395   134976547.631       -1134.289          37.000    33521372.189   174554470.120       -1467.046          37.000  
C13  32319886.155   130138846.577         556.712          43.000    32319892.284   168298177.236         720.322          40.000  
C14  19628381.955    79035353.366       -1780.808          43.000    19628395.027   102210163.451       -2303.019          38.000  
C24                                                                  20482416.862   106657364.945        1355.690          39.000  
C27                                                                  16610827.117    86496975.358         941.308          47.000  
C28                                                                  16798363.421    87473465.552       -1917.452          47.000  
> 2023 07 11 06 09 14.9810000  0 37                     
G05  15756929.168    82803330.169        1751.223          45.000    15756920.956    64522060.439        1364.803          41.000  
G06  16363076.428    85988581.776       -2284.620          43.000    16363072.391    67004100.531       -1780.174          42.000  
G07  17831232.053    93703956.176         153.327          43.000    17831224.932    73016046.629         119.550          37.000  
G09  19031989.885   100013859.519       -3217.155          36.000    19031986.440    77932917.997       -2506.711          35.000  
G11  14610199.748    76777191.805         157.410          47.000    14610190.967    59826385.856         122.663          49.000  
G13  15850735.350    83296328.274        3214.939          44.000                                                                  
G15  18701701.451    98278158.829        3858.640          35.000    18701702.438    76580378.409        3006.859          35.000  
G19  19714641.462   103601126.345       -3582.023          33.000                                                                  
G20  14902529.462    78313398.177         729.719          45.000                                                                  
G29  17873185.342    93924254.200        2117.156          41.000    17873179.641    73187701.764        1649.815          35.000  
G30  17218467.370    90483819.184        1677.801          43.000    17218463.451    70506950.166        1307.137          40.000  
R02  16220328.130    86554901.000       -2921.299          47.000    16220320.715    67320411.228       -2271.805          42.000  
R03  13903680.970    74427628.691        -405.444          48.000    13903668.705    57888172.517        -315.297          48.000  
R04  15665265.434    83886901.887        2552.150          46.000    15665254.936    65245284.205        1984.899          44.000  
R12  18508621.775    98869763.698        2312.971          43.000                                                                  
R17  14868611.712    79564947.833       -2951.813          48.000    14868601.532    61883781.999       -2295.838          45.000  
R18  13543239.095    72294809.156         815.111          48.000    13543230.272    56229268.730         633.899          48.000  
R19  15907766.182    85095834.880        3845.113          34.000    15907755.455    66185626.751        2990.202          39.000  
E04  21037237.157   110551491.603        2854.695          39.000    21037236.745    84708300.461        2187.242          40.000  
E10  20345943.959   106918674.066        2686.148          40.000    20345941.263    81924696.677        2058.208          45.000  
E12  18590698.416    97694825.043        1856.920          41.000    18590692.124    74857095.668        1422.932          47.000  
E14  14612012.193    76786645.085        3266.387          39.000                                                                  
E19  18229585.619    95797174.214         694.841          39.000    18229580.399    73403037.923         532.373          47.000  
E20  20652413.031   108529234.719        -447.892          38.000                                                                  
E26  21457590.396   112760317.007       -2328.110          38.000    21457592.439    86400708.233       -1783.695          40.000  
J02  32242634.274   169436170.427          66.833          34.000    32242645.300   132027998.131          51.864          36.000  
J03  31617506.171   166151090.695         831.544          44.000                                                                  
J04  32845605.577   172604806.648        -283.553          43.000    32845596.811   134497216.982        -220.831          46.000  
J07  31512252.551   165597973.259         254.033          37.000    31512244.869   129037378.215         198.337          43.000  
C07  33925683.529   136604539.617       -1166.406          39.000    33925695.041   176659845.664       -1508.343          37.000  
C08  31493416.574   126810998.853         538.952          45.000    31493433.224   163994604.950         696.940          41.000  
C10  33521647.167   134977682.209       -1134.585          37.000    33521654.019   174555937.347       -1467.172          37.000  
C13  32319747.884   130138289.925         556.699          43.000    32319754.103   168297457.401         719.386          40.000  
C14  19628824.256    79037134.330       -1780.866          44.000    19628837.360   102212466.662       -2303.627          38.000  
C24                                                                  20482156.531   106656009.548        1354.869          38.000  
C27                                                                  16610646.387    86496034.512         940.608          47.000  
C28                                                                  16798731.719    87475383.545       -1918.378          47.000  
> 2023 07 11 06 09 15.9810000  0 37                     
G05  15756596.061    82801579.285        1750.736          45.000    15756587.708    64520696.135        1363.961          41.000  
G06  16363511.243    85990866.643       -2285.042          43.000    16363507.098    67005880.948       -1780.490          42.000  
G07  17831202.941    93703803.340         152.655          43.000    17831195.851    73015927.546         118.877          37.000  
G09  19032602.128   100017076.776       -3217.029          36.000    19032598.644    77935424.973       -2507.241          35.000  
G11  14610169.739    76777034.806         156.524          47.000    14610161.117    59826263.513         122.129          49.000  
G13  15850123.658    83293113.697        3214.420          44.000                                                                  
G15  18700967.064    98274300.068        3858.782          35.000    18700968.127    76577371.629        3006.791          35.000  
G19  19715323.179   103604708.513       -3581.503          33.000                                                                  
G20  14902390.509    78312668.775         728.969          45.000                                                                  
G29  17872782.467    93922137.307        2116.416          41.000    17872776.880    73186052.228        1649.433          35.000  
G30  17218148.187    90482141.777        1676.865          43.000    17218144.241    70505643.071        1307.032          40.000  
R02  16220875.601    86557822.362       -2921.491          47.000    16220868.171    67322683.411       -2272.248          42.000  
R03  13903756.891    74428034.389        -406.027          48.000    13903744.452    57888488.060        -315.803          48.000  
R04  15664788.979    83884350.226        2551.311          46.000    15664778.494    65243299.585        1984.354          44.000  
R12  18508188.857    98867451.222        2312.215          44.000                                                                  
R17  14869163.405    79567900.057       -2952.583          48.000    14869153.392    61886078.172       -2296.523          45.000  
R18  13543086.472    72293994.570         814.099          48.000    13543077.726    56228635.156         633.143          48.000  
R19  15907047.514    85091990.587        3844.206          34.000    15907036.769    66182636.749        2989.679          39.000  
E04  21036694.051   110548636.879        2854.582          39.000    21036693.489    84706113.073        2187.275          40.000  
E10  20345432.802   106915988.025        2685.945          41.000    20345430.086    81922638.550        2058.009          45.000  
E12  18590345.072    97692968.215        1856.704          41.000    18590338.849    74855672.910        1422.604          46.000  
E14  14611390.805    76783379.499        3264.976          39.000                                                                  
E19  18229453.388    95796479.557         694.444          39.000    18229448.236    73402505.662         532.158          46.000  
E20  20652498.270   108529682.743        -448.222          38.000                                                                  
E26  21458033.454   112762645.057       -2327.907          38.000    21458035.275    86402492.077       -1783.966          40.000  
J02  32242621.607   169436103.993          66.427          34.000    32242632.637   132027946.358          51.731          36.000  
J03  31617348.012   166150259.227         831.418          45.000                                                                  
J04  32845659.450   172605090.199        -283.434          43.000    32845650.775   134497437.934        -221.015          46.000  
J07  31512204.149   165597718.910         254.524          37.000    31512196.558   129037180.043         198.025          43.000  
C07  33925973.198   136605705.864       -1166.669          39.000    33925984.683   176661353.847       -1507.808          37.000  
C08  31493282.729   126810459.998         538.740          45.000    31493299.422   163993908.089         696.611          42.000  
C10  33521929.041   134978816.915       -1134.663          37.000    33521935.901   174557404.795       -1467.511          37.000  
C13  32319609.708   130137733.377         556.449          43.000    32319615.840   168296737.628         719.711          41.000  
C14  19629266.671    79038915.395       -1781.146          44.000    19629279.674   102214769.966       -2303.462          38.000  
C24                                                                  20481896.441   106654654.664        1354.623          39.000  
C27                                                                  16610465.793    86495094.357         939.747          47.000  
C28                                                                  16799100.205    87477302.081       -1918.690          47.000  
> 2023 07 11 06 09 16.9810000  0 37                     
G05  15756262.938    82799828.709        1750.540          45.000    15756254.621    64519332.044        1364.050          41.000  
G06  16363946.176    85993152.015       -2285.629          43.000    16363941.995    67007661.757       -1780.914          42.000  
G07  17831173.885    93703651.149         152.339          43.000    17831166.875    73015808.951         118.839          37.000  
G09  19033214.386   100020294.248       -3217.769          36.000    19033210.835    77937932.082       -2507.228          35.000  
G11  14610140.045    76776878.442         156.004          47.000    14610131.298    59826141.678         121.601          49.000  
G13  15849512.071    83289899.676        3213.818          44.000                                                                  
G15  18700232.815    98270441.616        3858.727          35.000    18700233.822    76574365.037        3006.740          35.000  
G19  19716004.835   103608290.701       -3581.653          32.000                                                                  
G20  14902251.742    78311939.697         728.989          45.000                                                                  
G29  17872379.858    93920021.106        2115.811          41.000    17872374.148    73184403.267        1648.406          35.000  
G30  17217828.970    90480464.946        1676.577          43.000    17217825.136    70504336.461        1306.555          40.000  
R02  16221423.098    86560743.976       -2921.755          47.000    16221415.732    67324955.774       -2272.478          42.000  
R03  13903832.834    74428440.679        -406.440          48.000    13903820.405    57888804.067        -316.217          48.000  
R04  15664312.694    83881799.133        2550.897          46.000    15664302.117    65241315.408        1983.761          44.000  
R12  18507756.036    98865139.339        2311.681          44.000                                                                  
R17  14869715.165    79570853.056       -2953.268          48.000    14869705.205    61888374.945       -2297.024          45.000  
R18  13542934.121    72293180.932         813.273          48.000    13542925.399    56228002.330         632.482          48.000  
R19  15906328.863    85088146.847        3843.653          34.000    15906318.234    66179647.162        2989.326          39.000  
E04  21036150.891   110545782.484        2854.203          40.000    21036150.245    84703925.938        2187.118          40.000  
E10  20344921.693   106913302.231        2685.788          41.000    20344918.937    81920580.598        2057.993          45.000  
E12  18589991.853    97691111.750        1856.325          42.000    18589985.552    74854250.428        1422.322          46.000  
E14  14610769.594    76780115.377        3263.525          40.000                                                                  
E19  18229321.150    95795785.440         694.035          40.000    18229316.187    73401973.799         531.805          46.000  
E20  20652583.697   108530131.255        -448.631          39.000                                                                  
E26  21458476.568   112764973.438       -2328.427          38.000    21458478.232    86404276.142       -1784.279          40.000  
J02  32242609.002   169436037.608          66.308          34.000    32242620.056   132027894.645          51.405          36.000  
J03  31617189.828   166149427.945         831.403          45.000                                                                  
J04  32845713.378   172605373.844        -283.800          43.000    32845704.807   134497658.945        -221.060          46.000  
J07  31512155.719   165597464.712         254.370          37.000    31512148.076   129036981.967         198.070          43.000  
C07  33926262.792   136606872.167       -1166.193          39.000    33926274.205   176662862.184       -1508.181          37.000  
C08  31493148.927   126809921.158         538.793          45.000    31493165.575   163993211.249         696.739          42.000  
C10  33522210.863   134979951.739       -1134.786          37.000    33522217.686   174558872.375       -1467.639          37.000  
C13  32319471.509   130137176.861         556.647          43.000    32319477.672   168296017.932         719.794          41.000  
C14  19629708.942    79040696.527       -1781.262          44.000    19629721.939   102217073.353       -2303.427          38.000  
C24                                                                  20481636.262   106653300.285        1354.514          39.000  
C27                                                                  16610285.314    86494154.862         939.147          47.000  
C28                                                                  16799468.800    87479221.181       -1919.285          47.000  
> 2023 07 11 06 09 17.9810000  0 37                     
G05  15755929.787    82798078.460        1750.178          45.000    15755921.645    64517968.219        1363.372          41.000  
G06  16364381.134    85995437.866       -2285.950          43.000    16364377.074    67009442.933       -1781.335          42.000  
G07  17831145.112    93703499.607         151.354          43.000    17831138.018    73015690.873         118.186          37.000  
G09  19033826.736   100023511.888       -3218.142          36.000    19033823.144    77940439.321       -2507.282          35.000  
G11  14610110.471    76776722.715         155.348          47.000    14610101.560    59826020.328         121.216          49.000  
G13  15848900.445    83286686.191        3213.420          44.000                                                                  
G15  18699498.617    98266583.469        3857.861          35.000    18699499.656    76571358.688        3006.460          35.000  
G19  19716686.409   103611872.849       -3581.803          31.000                                                                  
G20  14902113.096    78311210.968         728.606          45.000                                                                  
G29  17871977.286    93917905.590        2115.165          41.000    17871971.580    73182754.811        1648.527          35.000  
G30  17217509.927    90478788.692        1676.055          43.000    17217506.216    70503030.288        1306.237          40.000  
R02  16221970.677    86563665.815       -2921.822          47.000    16221963.406    67327228.309       -2272.576          42.000  
R03  13903908.852    74428847.599        -407.251          48.000    13903896.457    57889120.552        -316.660          48.000  
R04  15663836.269    83879248.612        2550.408          46.000    15663825.833    65239331.666        1983.654          44.000  
R12  18507323.379    98862828.081        2310.971          43.000                                                                  
R17  14870267.152    79573806.810       -2954.109          48.000    14870257.183    61890672.298       -2297.509          45.000  
R18  13542781.865    72292368.291         812.189          48.000    13542773.055    56227370.271         631.714          48.000  
R19  15905610.463    85084303.615        3843.183          34.000    15905599.676    66176657.982        2989.114          39.000  
E04  21035607.813   110542928.385        2853.839          40.000    21035607.118    84701739.041        2186.690          40.000  
E10  20344410.599   106910616.649        2685.532          41.000    20344407.731    81918522.832        2057.641          45.000  
E12  18589638.626    97689255.652        1855.914          42.000    18589632.366    74852828.222        1421.948          46.000  
E14  14610148.809    76776852.721        3261.842          40.000                                                                  
E19  18229189.260    95795091.785         693.535          39.000    18229184.148    73401442.310         531.348          46.000  
E20  20652669.053   108530580.238        -449.131          39.000                                                                  
E26  21458919.796   112767302.088       -2328.389          39.000    21458921.397    86406060.442       -1784.282          40.000  
J02  32242596.470   169435971.283          66.147          34.000    32242607.511   132027842.932          52.072          36.000  
J03  31617031.707   166148596.838         831.109          45.000                                                                  
J04  32845767.371   172605657.552        -283.796          43.000    32845758.787   134497880.016        -221.045          46.000  
J07  31512107.293   165597210.646         254.186          37.000    31512099.701   129036783.996         197.853          43.000  
C07  33926552.452   136608038.599       -1166.575          39.000    33926563.990   176664370.657       -1509.032          37.000  
C08  31493015.065   126809382.351         538.841          45.000    31493031.812   163992514.446         696.770          41.000  
C10  33522492.660   134981086.663       -1134.999          37.000    33522499.518   174560340.070       -1467.725          36.000  
C13  32319333.254   130136620.375         556.522          43.000    32319339.343   168295298.283         719.745          41.000  
C14  19630151.366    79042477.720       -1781.194          44.000    19630164.301   102219376.856       -2303.640          38.000  
C24                                                                  20481376.314   106651946.399        1353.907          39.000  
C27                                                                  16610105.135    86493216.025         938.499          47.000  
C28                                                                  16799837.540    87481140.824       -1919.870          47.000  
> 2023 07 11 06 09 18.9810000  0 37                     
G05  15755596.800    82796328.401        1749.962          45.000    15755588.762    64516604.533        1363.508          41.000  
G06  16364816.135    85997724.121       -2286.583          43.000    16364812.041    67011224.440       -1782.001          42.000  
G07  17831116.341    93703348.608         150.578          43.000    17831109.173    73015573.204         117.523          37.000  
G09  19034439.114   100026729.547       -3217.509          36.000    19034435.422    77942946.594       -2507.009          35.000  
G11  14610081.015    76776567.510         154.948          47.000    14610072.193    59825899.393         120.739          49.000  
G13  15848289.036    83283473.148        3212.606          44.000                                                                  
G15  18698764.449    98262725.458        3857.785          35.000    18698765.501    76568352.451        3006.199          35.000  
G19  19717368.103   103615454.851       -3581.147          31.000                                                                  
G20  14901974.591    78310482.475         728.368          45.000                                                                  
G29  17871574.904    93915790.667        2114.746          41.000    17871569.130    73181106.830        1647.668          35.000  
G30  17217191.126    90477112.909        1675.326          43.000    17217187.249    70501724.494        1305.500          40.000  
R02  16222518.388    86566587.730       -2922.105          47.000    16222511.007    67329500.908       -2272.733          42.000  
R03  13903984.953    74429255.002        -407.677          48.000    13903972.492    57889437.432        -317.208          48.000  
R04  15663360.108    83876698.538        2549.940          46.000    15663349.677    65237348.280        1983.339          44.000  
R12  18506890.851    98860517.354        2310.232          43.000                                                                  
R17  14870819.178    79576761.167       -2954.701          48.000    14870809.314    61892970.129       -2298.060          45.000  
R18  13542629.823    72291556.534         811.302          48.000    13542620.957    56226738.908         631.013          48.000  
R19  15904892.092    85080460.797        3842.698          34.000    15904881.274    66173669.136        2988.536          39.000  
E04  21035064.688   110540074.447        2853.877          40.000    21035064.119    84699552.262        2186.724          39.000  
E10  20343899.653   106907931.198        2685.189          41.000    20343896.845    81916465.135        2057.730          45.000  
E12  18589285.544    97687399.814        1855.713          42.000    18589279.224    74851406.218        1421.889          46.000  
E14  14609528.155    76773591.406        3260.788          40.000                                                                  
E19  18229057.397    95794398.559         693.077          40.000    18229052.279    73400911.132         530.919          46.000  
E20  20652754.539   108531029.587        -449.589          39.000                                                                  
E26  21459363.068   112769630.977       -2329.060          39.000    21459364.715    86407844.884       -1784.564          40.000  
J02  32242583.760   169435904.885          66.429          34.000    32242594.926   132027791.216          51.679          36.000  
J03  31616873.450   166147765.807         830.856          45.000                                                                  
J04  32845821.442   172605941.214        -283.593          43.000    32845812.800   134498101.052        -220.941          46.000  
J07  31512058.944   165596956.582         254.098          37.000    31512051.287   129036586.027         197.912          43.000  
C07  33926842.211   136609205.018       -1166.133          39.000    33926853.642   176665879.065       -1508.187          37.000  
C08  31492881.199   126808843.485         538.867          45.000    31492897.989   163991817.586         696.646          41.000  
C10  33522774.573   134982221.626       -1135.142          38.000    33522781.481   174561807.819       -1467.474          37.000  
C13  32319195.024   130136063.844         556.597          43.000    32319200.982   168294578.565         719.752          41.000  
C14  19630593.762    79044258.906       -1781.267          44.000    19630606.575   102221680.289       -2303.034          38.000  
C24                                                                  20481116.436   106650592.903        1353.386          39.000  
C27                                                                  16609924.859    86492277.755         937.952          47.000  
C28                                                                  16800206.337    87483060.903       -1920.349          47.000  
> 2023 07 11 06 09 19.9810000  0 37                     
G05  15755263.859    82794578.654        1749.287          45.000    15755255.806    64515241.082        1363.185          41.000  
G06  16365251.167    86000010.814       -2287.447          43.000    16365247.095    67013006.250       -1782.247          42.000  
G07  17831087.820    93703198.183         149.961          43.000    17831080.478    73015456.013         116.740          37.000  
G09  19035051.534   100029947.370       -3217.764          36.000    19035047.695    77945454.019       -2508.091          35.000  
G11  14610051.577    76776412.916         153.948          47.000    14610042.898    59825778.922         119.983          49.000  
G13  15847677.692    83280260.597        3211.924          44.000                                                                  
G15  18698030.308    98258867.685        3857.629          36.000    18698031.286    76565346.394        3006.165          35.000  
G19  19718049.650   103619036.789       -3582.142          31.000                                                                  
G20  14901836.075    78309754.284         727.781          45.000                                                                  
G29  17871172.552    93913676.393        2113.707          41.000    17871166.818    73179459.308        1647.486          35.000  
G30  17216872.320    90475437.653        1674.729          43.000    17216868.494    70500419.110        1305.070          40.000  
R02  16223065.904    86569509.753       -2922.258          47.000    16223058.628    67331773.595       -2272.887          42.000  
R03  13904061.184    74429662.952        -408.440          48.000    13904048.583    57889754.723        -317.656          48.000  
R04  15662883.919    83874149.005        2548.934          46.000    15662873.605    65235365.303        1982.515          44.000  
R12  18506458.440    98858207.152        2309.705          43.000                                                                  
R17  14871371.465    79579716.201       -2955.612          48.000    14871361.554    61895268.492       -2298.985          45.000  
R18  13542477.935    72290745.736         810.073          48.000    13542469.033    56226108.283         630.092          48.000  
R19  15904173.755    85076618.425        3842.276          34.000    15904162.918    66170680.623        2988.196          39.000  
E04  21034521.688   110537220.805        2853.216          40.000    21034521.063    84697365.707        2186.123          40.000  
E10  20343388.511   106905245.908        2685.000          41.000    20343385.835    81914407.584        2057.315          45.000  
E12  18588932.474    97685544.303        1855.073          42.000    18588926.050    74849984.457        1421.435          46.000  
E14  14608907.938    76770331.513        3258.874          40.000                                                                  
E19  18228925.526    95793705.762         692.528          39.000    18228920.415    73400380.294         530.403          46.000  
E20  20652840.165   108531479.374        -450.456          39.000                                                                  
E26  21459806.322   112771960.062       -2329.193          39.000    21459807.726    86409629.517       -1784.960          40.000  
J02  32242571.090   169435838.521          66.072          34.000    32242582.319   132027739.492          51.539          36.000  
J03  31616715.291   166146934.911         830.473          44.000                                                                  
J04  32845875.395   172606224.922        -283.833          43.000    32845866.839   134498322.130        -221.341          46.000  
J07  31512010.628   165596702.615         253.811          37.000    31512002.872   129036388.131         197.483          43.000  
C07  33927131.918   136610371.516       -1166.817          39.000    33927143.337   176667387.619       -1509.057          37.000  
C08  31492747.378   126808304.629         538.510          45.000    31492764.159   163991120.716         696.530          42.000  
C10  33523056.497   134983356.680       -1135.263          37.000    33523063.494   174563275.736       -1468.331          37.000  
C13  32319056.882   130135507.321         556.312          43.000    32319062.880   168293858.859         719.340          41.000  
C14  19631036.187    79046040.124       -1781.428          44.000    19631048.881   102223983.822       -2303.758          38.000  
C24                                                                  20480856.637   106649239.866        1352.449          39.000  
C27                                                                  16609744.922    86491340.100         937.040          47.000  
C28                                                                  16800575.237    87484981.484       -1921.109          47.000  
> 2023 07 11 06 09 20.9810000  0 37                     
G05  15754931.079    82792828.999        1749.337          45.000    15754922.905    64513877.711        1363.375          41.000  
G06  16365686.278    86002297.758       -2287.265          43.000    16365682.220    67014788.300       -1782.460          42.000  
G07  17831059.213    93703048.184         149.825          42.000    17831051.980    73015339.123         116.607          37.000  
G09  19035663.889   100033165.153       -3217.939          36.000    19035659.927    77947961.370       -2507.969          35.000  
G11  14610022.301    76776258.718         153.865          47.000    14610013.454    59825658.769         119.966          49.000  
G13  15847066.371    83277048.370        3211.765          44.000                                                                  
G15  18697296.142    98255009.971        3856.964          36.000    18697297.110    76562340.407        3005.795          35.000  
G19  19718731.217   103622618.466       -3581.390          31.000                                                                  
G20  14901697.474    78309026.195         727.974          45.000                                                                  
G29  17870770.333    93911562.577        2113.402          41.000    17870764.586    73177812.204        1646.795          35.000  
G30  17216553.593    90473762.755        1674.516          43.000    17216549.723    70499113.984        1305.249          40.000  
R02  16223613.487    86572431.728       -2922.211          47.000    16223606.264    67334046.237       -2272.606          42.000  
R03  13904137.505    74430071.256        -408.618          48.000    13904124.819    57890072.290        -317.759          48.000  
R04  15662407.790    83871599.802        2548.716          46.000    15662397.574    65233382.594        1982.355          44.000  
R12  18506026.025    98855897.328        2309.423          43.000                                                                  
R17  14871923.770    79582671.724       -2955.835          48.000    14871913.857    61897567.224       -2298.919          45.000  
R18  13542326.177    72289935.658         809.533          48.000    13542317.429    56225478.226         629.578          48.000  
R19  15903455.457    85072776.409        3841.367          34.000    15903444.645    66167692.364        2988.000          39.000  
E04  21033978.572   110534367.237        2853.281          40.000    21033978.079    84695179.215        2186.352          40.000  
E10  20342877.395   106902560.623        2685.069          41.000    20342874.937    81912350.039        2057.386          45.000  
E12  18588579.383    97683688.942        1855.074          42.000    18588572.918    74848562.816        1421.525          46.000  
E14  14608287.809    76767072.858        3257.770          40.000                                                                  
E19  18228793.680    95793013.281         692.289          40.000    18228788.649    73399849.686         530.324          46.000  
