     3.03           OBSERVATION DATA    M: Mixed            RINEX VERSION / TYPE
                                        20240120 001242 UTC PGM / RUN BY / DATE 
                                                            MARKER NAME         
                                                            MARKER NUMBER       
                                                            MARKER TYPE         
                                                            OBSERVER / AGENCY   
                                                            REC # / TYPE / VERS 
                                                            ANT # / TYPE        
 -3817690.2015  3562847.3632  3650172.6616                  APPROX POSITION XYZ 
        0.0000        0.0000        0.0000                  ANTENNA: DELTA H/E/N
G    8 C1C L1C D1C S1C C2L L2L D2L S2L                      SYS / # / OBS TYPES 
R    8 C1C L1C D1C S1C C2C L2C D2C S2C                      SYS / # / OBS TYPES 
E    8 C1C L1C D1C S1C C7Q L7Q D7Q S7Q                      SYS / # / OBS TYPES 
J    8 C1C L1C D1C S1C C2L L2L D2L S2L                      SYS / # / OBS TYPES 
C    8 C7I L7I D7I S7I C2I L2I D2I S2I                      SYS / # / OBS TYPES 
  2023    07    11    06    06   09.9810000     GPS         TIME OF FIRST OBS   
  2023    07    11    06    07   48.9810000     GPS         TIME OF LAST OBS    
G L1C                                                       SYS / PHASE SHIFT   
G L2L  0.00000                                              SYS / PHASE SHIFT   
R L1C                                                       SYS / PHASE SHIFT   
R L2C                                                       SYS / PHASE SHIFT   
E L1C  0.00000                                              SYS / PHASE SHIFT   
E L7Q  0.00000                                              SYS / PHASE SHIFT   
J L1C                                                       SYS / PHASE SHIFT   
J L2L  0.00000                                              SYS / PHASE SHIFT   
C L7I                                                       SYS / PHASE SHIFT   
C L2I                                                       SYS / PHASE SHIFT   
  0                                                         GLONASS SLOT / FRQ #
 C1C    0.000 C1P    0.000 C2C    0.000 C2P    0.000        GLONASS COD/PHS/BIS 
                                                            END OF HEADER       
> 2023 07 11 06 06 09.9810000  0 38                     
G05  15819196.749    83130548.027        1786.365          45.000    15819188.677    64777035.112        1392.506          40.000  
G06  16283835.902    85572173.916       -2216.535          43.000    16283831.986    66679627.577       -1727.193          42.000  
G07  17838289.055    93741038.000         247.870          42.000    17838282.016    73044941.111         193.182          37.000  
G09  18918906.346    99419590.893       -3206.695          37.000    18918900.702    77469851.709       -2499.372          34.000  
G11  14617384.833    76814952.380         250.751          46.000    14617376.286    59855809.762         195.496          49.000  
G13  15965247.855    83898086.710        3290.284          45.000                                                                  
G15  18838017.444    98994492.229        3885.143          38.000    18838014.051    77138559.094        3027.223          32.000  
G19  19588052.757   102935882.113       -3608.431          34.000                                                                  
G20  14928897.877    78451964.612         768.518          45.000                                                                  
G29  17949544.023    94325520.551        2220.157          39.000    17949536.940    73500376.757        1729.818          35.000  
G30  17278972.841    90801775.035        1759.404          43.000    17278969.337    70754707.281        1370.904          40.000  
R02  16119265.263    86015612.131       -2908.296          47.000    16119257.842    66900964.787       -2261.958          42.000  
R03  13891181.236    74360715.182        -317.465          48.000    13891167.922    57836128.627        -246.894          47.000  
R04  15754815.792    84366439.403        2632.299          44.000    15754806.831    65618257.091        2047.353          44.000  
R12  18590219.470    99305641.207        2398.716          43.000                                                                  
R17  14768504.884    79029259.726       -2838.593          47.000    14768495.551    61467136.300       -2207.782          46.000  
R18  13574184.211    72459998.000         970.499          48.000    13574176.272    56357748.967         754.967          48.000  
R19  16041945.422    85813610.169        3914.169          32.000    16041936.422    66743895.973        3044.424          40.000  
E04  21138308.293   111082623.379        2887.076          38.000    21138309.626    85115270.583        2211.925          41.000  
E07  23217247.714   122007449.382       -2524.988          36.000    23217248.951    93486255.266       -1934.902          36.000  
E10  20440806.095   107417181.126        2703.045          41.000    20440804.400    82306669.295        2071.146          45.000  
E12  18656838.738    98042392.063        1900.224          43.000    18656832.048    75123413.109        1456.120          46.000  
E14  14731296.757    77413492.563        3509.426          40.000                                                                  
E19  18255282.611    95932209.349         765.177          40.000    18255277.039    73506506.244         586.165          47.000  
E20  20637783.066   108452353.355        -382.611          39.000                                                                  
E26  21376191.767   112332568.734       -2296.160          39.000    21376193.155    86072954.324       -1759.355          40.000  
J02  32244736.625   169447211.929          52.564          35.000    32244746.088   132036601.719          41.698          36.000  
J03  31646939.808   166305766.251         840.739          44.000                                                                  
J04  32835451.700   172551449.564        -293.047          43.000    32835443.155   134455639.996        -228.350          46.000  
J07  31521198.037   165644983.328         254.141          37.000    31521190.444   129074009.430         197.707          43.000  
C07  33872062.991   136388635.497       -1167.837          39.000    33872073.433   176380633.116       -1510.356          37.000  
C08  31517927.913   126909695.381         528.073          44.000    31517945.115   164122241.431         683.071          42.000  
C10  33469592.847   134768083.477       -1131.207          36.000    33469598.995   174284879.007       -1462.693          37.000  
C13  32345072.394   130240259.720         545.767          43.000    32345080.065   168429326.978         705.970          43.000  
C14  19546871.674    78707147.483       -1786.295          43.000    19546885.330   101785720.399       -2309.567          37.000  
C24                                                                  20531486.772   106912887.261        1421.429          37.000  
C27                                                                  16645813.276    86679155.190        1039.174          48.000  
C28                                                                  16731962.145    87127702.370       -1840.016          47.000  
> 2023 07 11 06 06 10.9810000  0 38                     
G05  15818856.798    83128761.272        1786.543          45.000    15818848.675    64775642.847        1392.344          40.000  
G06  16284257.731    85574390.551       -2216.481          43.000    16284253.892    66681354.838       -1727.510          42.000  
G07  17838241.973    93740790.214         247.311          42.000    17838234.915    73044748.046         192.549          37.000  
G09  18919516.530    99422797.376       -3206.449          37.000    18919510.924    77472350.265       -2498.727          34.000  
G11  14617337.043    76814701.516         250.739          46.000    14617328.585    59855614.287         195.372          49.000  
G13  15964621.647    83894796.269        3290.406          45.000                                                                  
G15  18837278.000    98990606.927        3885.272          38.000    18837274.678    77135531.596        3027.573          32.000  
G19  19588739.528   102939490.706       -3608.183          34.000                                                                  
G20  14928751.732    78451195.942         768.713          45.000                                                                  
G29  17949121.543    94323300.008        2220.273          38.000    17949114.454    73498646.465        1730.053          35.000  
G30  17278637.995    90800015.621        1759.228          43.000    17278634.572    70753336.298        1370.880          40.000  
R02  16119810.212    86018520.056       -2907.948          47.000    16119802.799    66903226.497       -2261.728          42.000  
R03  13891240.486    74361032.485        -317.444          48.000    13891227.183    57836375.417        -246.885          47.000  
R04  15754324.171    84363806.942        2632.473          44.000    15754315.141    65616209.639        2047.321          44.000  
R12  18589770.485    99303242.371        2398.611          44.000                                                                  
R17  14769035.370    79032098.284       -2838.728          47.000    14769025.935    61469344.059       -2207.918          46.000  
R18  13574002.402    72459027.613         970.035          48.000    13573994.440    56356994.224         754.524          48.000  
R19  16041213.761    85809695.617        3914.666          32.000    16041204.653    66740851.318        3044.714          39.000  
E04  21137758.920   111079736.143        2887.225          38.000    21137760.191    85113058.265        2212.498          41.000  
E07  23217728.148   122009973.869       -2524.382          36.000    23217729.380    93488189.609       -1934.658          35.000  
E10  20440291.671   107414477.929        2703.241          41.000    20440290.008    82304598.020        2071.171          45.000  
E12  18656477.251    98040491.601        1900.455          43.000    18656470.378    75121956.917        1456.118          46.000  
E14  14730629.044    77409983.545        3508.473          40.000                                                                  
E19  18255136.784    95931444.092         765.318          40.000    18255131.257    73505919.878         586.307          46.000  
E20  20637856.027   108452736.234        -382.881          38.000                                                                  
E26  21376628.789   112334864.628       -2296.164          39.000    21376630.029    86074713.498       -1759.325          40.000  
J02  32244726.384   169447158.518          53.503          35.000    32244735.933   132036560.132          41.594          36.000  
J03  31646779.759   166304925.285         841.080          44.000                                                                  
J04  32835507.395   172551742.385        -292.626          43.000    32835498.904   134455868.168        -228.127          46.000  
J07  31521149.560   165644729.068         254.057          38.000    31521142.160   129073811.302         198.147          43.000  
C07  33872352.890   136389802.970       -1167.198          39.000    33872363.388   176382142.929       -1509.735          37.000  
C08  31517796.752   126909166.945         528.452          44.000    31517813.943   164121558.059         683.319          42.000  
C10  33469873.700   134769214.346       -1130.933          36.000    33469879.794   174286341.505       -1462.514          37.000  
C13  32344936.816   130239713.560         546.360          43.000    32344944.387   168428620.683         706.467          43.000  
C14  19547315.209    78708933.424       -1785.872          43.000    19547328.856   101788030.039       -2309.460          38.000  
C24                                                                  20531213.732   106911465.434        1421.945          37.000  
C27                                                                  16645613.784    86678116.041        1039.017          48.000  
C28                                                                  16732315.524    87129542.259       -1839.945          47.000  
> 2023 07 11 06 06 11.9810000  0 38                     
G05  15818516.822    83126974.799        1786.534          45.000    15818508.760    64774250.781        1392.578          40.000  
G06  16284679.642    85576607.678       -2217.247          42.000    16284675.837    66683082.446       -1727.552          42.000  
G07  17838195.008    93740542.999         246.953          42.000    17838187.872    73044555.409         192.419          37.000  
G09  18920126.719    99426004.064       -3206.574          37.000    18920121.104    77474848.939       -2498.146          35.000  
G11  14617289.296    76814451.254         250.167          46.000    14617280.911    59855419.277         194.955          49.000  
G13  15963995.578    83891506.337        3289.800          45.000                                                                  
G15  18836538.653    98986721.880        3885.119          38.000    18836535.219    77132504.273        3028.097          32.000  
G19  19589426.239   102943099.256       -3607.974          34.000                                                                  
G20  14928605.595    78450427.575         768.175          45.000                                                                  
G29  17948699.080    94321080.121        2219.584          39.000    17948692.078    73496916.672        1729.692          35.000  
G30  17278303.168    90798256.736        1759.044          43.000    17278299.869    70751965.745        1370.725          40.000  
R02  16120355.198    86021428.161       -2907.991          47.000    16120347.629    66905488.361       -2261.802          42.000  
R03  13891299.893    74361350.380        -318.027          48.000    13891286.544    57836622.670        -247.375          47.000  
R04  15753832.672    84361175.058        2631.862          44.000    15753823.684    65614162.610        2047.008          44.000  
R12  18589321.341    99300844.058        2398.237          44.000                                                                  
R17  14769565.990    79034937.568       -2839.396          47.000    14769556.588    61471552.394       -2208.564          46.000  
R18  13573820.800    72458058.162         969.137          48.000    13573812.820    56356240.204         753.891          48.000  
R19  16040482.119    85805781.489        3915.120          32.000    16040472.989    66737807.035        3044.311          39.000  
E04  21137209.629   111076849.148        2887.150          38.000    21137210.823    85110846.194        2211.707          41.000  
E07  23218208.877   122012498.408       -2524.062          35.000    23218209.693    93490123.985       -1934.100          36.000  
E10  20439777.461   107411774.910        2703.139          41.000    20439775.752    82302526.874        2071.228          45.000  
E12  18656115.475    98038591.463        1900.047          42.000    18656108.781    75120500.966        1455.912          46.000  
E14  14729961.507    77406475.918        3507.003          40.000                                                                  
E19  18254991.381    95930679.329         764.613          40.000    18254985.738    73505333.888         585.878          47.000  
E20  20637928.964   108453119.549        -383.481          38.000                                                                  
E26  21377065.714   112337160.768       -2296.396          38.000    21377067.029    86076472.888       -1759.465          40.000  
J02  32244716.340   169447105.174          53.194          35.000    32244725.830   132036518.570          41.303          36.000  
J03  31646619.756   166304084.463         840.943          44.000                                                                  
J04  32835563.207   172552035.251        -292.754          43.000    32835554.536   134456096.373        -228.013          46.000  
J07  31521101.216   165644474.926         254.001          37.000    31521093.746   129073613.245         198.212          43.000  
C07  33872642.859   136390970.506       -1167.572          39.000    33872653.369   176383652.850       -1510.177          37.000  
C08  31517665.545   126908638.529         528.699          44.000    31517682.747   164120874.700         683.572          42.000  
C10  33470154.561   134770345.326       -1130.681          36.000    33470160.653   174287804.093       -1462.319          37.000  
C13  32344801.256   130239167.439         546.180          43.000    32344808.652   168427914.420         706.387          43.000  
C14  19547758.808    78710719.419       -1785.819          43.000    19547772.418   101790339.724       -2309.304          38.000  
C24                                                                  20530940.799   106910044.091        1421.155          37.000  
C27                                                                  16645414.421    86677077.518        1038.403          48.000  
C28                                                                  16732668.951    87131382.682       -1840.541          47.000  
> 2023 07 11 06 06 12.9810000  0 38                     
G05  15818177.041    83125188.687        1785.665          45.000    15818168.852    64772859.033        1391.312          40.000  
G06  16285101.672    85578825.328       -2218.136          43.000    16285097.726    66684810.476       -1728.327          42.000  
G07  17838148.126    93740296.470         245.884          42.000    17838140.863    73044363.307         191.431          37.000  
G09  18920736.950    99429210.949       -3207.463          37.000    18920731.393    77477347.804       -2498.743          35.000  
G11  14617241.767    76814201.644         249.321          46.000    14617233.368    59855224.787         194.037          49.000  
G13  15963369.719    83888216.950        3288.778          45.000                                                                  
G15  18835799.388    98982837.109        3884.199          38.000    18835795.636    77129477.215        3026.549          32.000  
G19  19590112.954   102946707.848       -3608.739          34.000                                                                  
G20  14928459.418    78449659.555         767.704          45.000                                                                  
G29  17948276.837    94318860.941        2218.821          39.000    17948269.670    73495187.447        1728.668          35.000  
G30  17277968.630    90796498.462        1757.864          43.000    17277965.341    70750595.667        1369.867          40.000  
R02  16120900.185    86024336.536       -2908.705          47.000    16120892.688    66907750.420       -2262.345          42.000  
R03  13891359.299    74361668.931        -319.047          48.000    13891346.347    57836870.432        -248.120          47.000  
R04  15753341.224    84358543.803        2630.792          44.000    15753332.311    65612116.082        2046.219          44.000  
R12  18588872.425    99298446.365        2397.185          44.000                                                                  
R17  14770096.732    79037777.661       -2840.634          47.000    14770087.291    61473761.346       -2209.340          46.000  
R18  13573639.451    72457089.721         967.765          48.000    13573631.350    56355486.979         752.713          48.000  
R19  16039750.674    85801867.986        3913.404          33.000    16039741.297    66734763.161        3043.637          39.000  
E04  21136660.380   111073962.516        2886.431          38.000    21136661.535    85108634.333        2211.642          41.000  
E07  23218689.283   122015023.102       -2525.019          35.000    23218690.143    93492058.500       -1934.968          34.000  
E10  20439263.215   107409072.127        2702.733          41.000    20439261.195    82300455.921        2070.757          45.000  
E12  18655753.996    98036691.703        1899.486          42.000    18655747.184    75119045.305        1455.419          46.000  
E14  14729294.350    77402969.748        3505.329          40.000                                                                  
E19  18254845.853    95929915.076         764.107          40.000    18254840.327    73504748.293         585.345          46.000  
E20  20638001.982   108453503.384        -384.305          38.000                                                                  
E26  21377502.896   112339457.253       -2296.863          38.000    21377503.969    86078232.513       -1759.791          40.000  
J02  32244706.256   169447051.881          53.214          35.000    32244715.709   132036477.033          40.986          36.000  
J03  31646459.787   166303243.849         840.494          44.000                                                                  
J04  32835619.046   172552328.219        -293.030          43.000    32835610.224   134456324.667        -228.413          46.000  
J07  31521052.814   165644220.915         253.246          37.000    31521045.483   129073415.322         197.768          43.000  
C07  33872932.863   136392138.165       -1167.521          39.000    33872943.307   176385162.870       -1510.009          37.000  
C08  31517534.300   126908110.194         528.162          44.000    31517551.420   164120191.446         683.237          42.000  
C10  33470435.466   134771476.434       -1131.124          36.000    33470441.561   174289266.865       -1462.811          37.000  
C13  32344665.609   130238621.374         545.680          43.000    32344673.045   168427208.230         706.083          43.000  
C14  19548202.401    78712505.520       -1786.394          43.000    19548215.932   101792649.554       -2310.250          38.000  
C24                                                                  20530667.949   106908623.243        1420.341          38.000  
C27                                                                  16645215.026    86676039.683        1037.208          48.000  
C28                                                                  16733022.413    87133223.678       -1841.262          47.000  
> 2023 07 11 06 06 13.9810000  0 38                     
G05  15817837.202    83123402.827        1786.193          45.000    15817828.956    64771467.461        1391.433          40.000  
G06  16285523.820    85581043.391       -2218.216          43.000    16285519.834    66686538.858       -1728.589          42.000  
G07  17838101.211    93740050.516         245.419          42.000    17838094.037    73044171.668         191.202          37.000  
G09  18921347.236    99432417.955       -3206.728          38.000    18921341.726    77479846.792       -2499.006          35.000  
G11  14617194.298    76813952.623         248.871          46.000    14617185.946    59855030.740         193.747          49.000  
G13  15962743.837    83884928.036        3288.734          45.000                                                                  
G15  18835060.192    98978952.526        3884.530          38.000    18835056.487    77126450.301        3026.213          32.000  
G19  19590799.559   102950316.385       -3608.402          33.000                                                                  
G20  14928313.277    78448891.845         767.435          45.000                                                                  
G29  17947854.788    94316642.424        2217.947          39.000    17947847.478    73493458.726        1728.368          35.000  
G30  17277634.092    90794740.678        1757.617          43.000    17277630.798    70749225.981        1369.266          40.000  
R02  16121445.265    86027245.082       -2908.723          47.000    16121437.829    66910012.626       -2262.329          42.000  
R03  13891418.954    74361988.039        -319.405          48.000    13891405.992    57837118.632        -248.385          47.000  
R04  15752849.958    84355913.034        2630.612          44.000    15752841.032    65610069.929        2046.031          44.000  
R12  18588423.633    99296049.201        2396.826          45.000                                                                  
R17  14770627.492    79040618.452       -2841.059          47.000    14770618.271    61475970.856       -2209.810          46.000  
R18  13573458.297    72456122.195         967.042          48.000    13573450.116    56354734.452         752.197          48.000  
R19  16039019.028    85797954.837        3913.212          33.000    16039009.822    66731719.624        3043.104          39.000  
E04  21136110.953   111071076.112        2886.163          38.000    21136112.321    85106422.694        2211.392          42.000  
E07  23219169.910   122017547.807       -2524.613          35.000    23219170.524    93493993.022       -1934.288          34.000  
E10  20438748.862   107406369.512        2702.707          41.000    20438747.003    82298385.074        2070.898          45.000  
E12  18655392.547    98034792.270        1899.307          42.000    18655385.763    75117589.888        1455.456          46.000  
E14  14728627.357    77399464.950        3504.236          40.000                                                                  
E19  18254700.501    95929151.301         763.539          40.000    18254694.971    73504163.058         585.076          47.000  
E20  20638075.098   108453887.635        -384.660          38.000                                                                  
E26  21377939.929   112341753.982       -2296.732          38.000    21377941.014    86079992.345       -1759.967          41.000  
J02  32244696.367   169446998.616          52.979          35.000    32244705.653   132036435.523          41.700          36.000  
J03  31646299.797   166302403.364         840.387          44.000                                                                  
J04  32835674.652   172552621.210        -292.859          43.000    32835665.989   134456552.975        -228.278          46.000  
J07  31521004.437   165643966.956         254.066          37.000    31520997.179   129073217.443         197.697          43.000  
C07  33873222.868   136393305.895       -1167.972          39.000    33873233.306   176386672.998       -1510.458          37.000  
C08  31517403.081   126907581.835         528.349          44.000    31517420.320   164119508.163         683.144          42.000  
C10  33470716.353   134772607.614       -1131.030          36.000    33470722.364   174290729.744       -1462.811          37.000  
C13  32344529.974   130238075.290         546.144          43.000    32344537.460   168426502.030         706.281          43.000  
C14  19548645.992    78714291.631       -1786.012          43.000    19548659.445   101794959.377       -2309.590          38.000  
C24                                                                  20530395.029   106907202.831        1420.211          38.000  
C27                                                                  16645015.838    86675002.444        1036.934          48.000  
C28                                                                  16733376.046    87135065.193       -1841.726          47.000  
> 2023 07 11 06 06 14.9810000  0 38                     
G05  15817497.402    83121617.103        1785.938          45.000    15817489.245    64770075.997        1391.196          40.000  
G06  16285946.012    85583261.770       -2218.504          43.000    16285941.892    66688267.456       -1728.771          42.000  
G07  17838054.534    93739804.980         245.488          42.000    17838047.362    73043980.338         191.463          37.000  
G09  18921957.465    99435624.959       -3206.682          37.000    18921951.993    77482345.768       -2499.269          35.000  
G11  14617147.112    76813704.015         248.387          46.000    14617138.630    59854837.015         193.631          49.000  
G13  15962117.981    83881639.435        3288.733          45.000                                                                  
G15  18834321.036    98975068.016        3884.833          38.000    18834317.385    77123423.425        3026.377          32.000  
G19  19591486.299   102953924.706       -3608.539          34.000                                                                  
G20  14928167.161    78448124.243         767.606          45.000                                                                  
G29  17947432.634    94314424.318        2218.474          39.000    17947425.419    73491730.341        1728.139          35.000  
G30  17277299.674    90792983.243        1757.394          43.000    17277296.387    70747856.554        1369.391          40.000  
R02  16121990.202    86030153.609       -2908.354          47.000    16121982.940    66912274.818       -2262.200          42.000  
R03  13891478.662    74362307.530        -319.398          48.000    13891465.643    57837367.131        -248.501          47.000  
R04  15752358.633    84353282.593        2630.437          44.000    15752349.775    65608024.028        2045.983          44.000  
R12  18587974.957    99293652.419        2396.742          44.000                                                                  
R17  14771158.540    79043459.757       -2841.390          47.000    14771149.095    61478180.752       -2210.012          46.000  
R18  13573277.131    72455155.390         966.674          48.000    13573268.980    56353982.497         751.754          48.000  
R19  16038287.605    85794042.004        3912.975          33.000    16038278.384    66728676.266        3043.799          39.000  
E04  21135561.720   111068189.815        2886.293          38.000    21135563.087    85104211.101        2211.594          41.000  
E07  23219650.549   122020072.368       -2524.175          35.000    23219650.939    93495927.487       -1934.522          33.000  
E10  20438234.651   107403666.899        2702.833          41.000    20438232.559    82296314.254        2070.938          45.000  
E12  18655031.226    98032892.957        1899.577          42.000    18655024.369    75116134.577        1455.546          46.000  
E14  14727960.617    77395961.350        3503.223          40.000                                                                  
E19  18254555.216    95928387.792         763.514          40.000    18254549.665    73503578.039         585.023          46.000  
E20  20638148.312   108454272.159        -384.608          38.000                                                                  
E26  21378376.931   112344050.792       -2296.725          38.000    21378378.132    86081752.247       -1759.821          40.000  
J02  32244686.284   169446945.181          53.503          35.000    32244695.481   132036393.882          41.677          36.000  
J03  31646139.807   166301562.828         840.708          44.000                                                                  
J04  32835730.292   172552914.078        -292.714          43.000    32835721.716   134456781.174        -227.935          46.000  
J07  31520956.170   165643712.930         254.542          38.000    31520948.805   129073019.502         198.104          43.000  
C07  33873512.825   136394473.518       -1167.476          39.000    33873523.335   176388182.987       -1509.750          37.000  
C08  31517271.820   126907053.339         528.721          44.000    31517288.991   164118824.710         683.625          42.000  
C10  33470997.316   134773738.801       -1131.299          36.000    33471003.378   174292192.620       -1462.920          37.000  
C13  32344394.231   130237529.100         546.340          43.000    32344401.896   168425795.686         706.641          43.000  
C14  19549089.499    78716077.664       -1785.803          43.000    19549102.937   101797269.124       -2309.477          37.000  
C24                                                                  20530122.341   106905782.674        1420.259          38.000  
C27                                                                  16644816.820    86673965.649        1036.672          48.000  
C28                                                                  16733729.725    87136907.039       -1841.857          47.000  
> 2023 07 11 06 06 15.9810000  0 38                     
G05  15817157.535    83119831.514        1785.437          45.000    15817149.519    64768684.602        1391.464          40.000  
G06  16286368.176    85585480.434       -2218.621          43.000    16286364.149    66689996.282       -1728.826          42.000  
G07  17838007.949    93739559.919         244.684          43.000    17838000.731    73043789.386         190.512          37.000  
G09  18922567.809    99438831.993       -3207.606          37.000    18922562.229    77484844.723       -2499.411          34.000  
G11  14617099.881    76813455.859         247.776          46.000    14617091.496    59854643.644         193.027          49.000  
G13  15961492.245    83878351.197        3288.008          45.000                                                                  
G15  18833581.800    98971183.588        3884.412          39.000    18833577.854    77120396.577        3026.697          32.000  
G19  19592172.897   102957532.820       -3608.299          34.000                                                                  
G20  14928021.123    78447356.801         767.175          45.000                                                                  
G29  17947010.630    94312206.743        2217.247          39.000    17947003.437    73490002.369        1727.271          35.000  
G30  17276965.395    90791226.189        1756.572          43.000    17276961.958    70746487.411        1369.251          40.000  
R02  16122535.224    86033062.120       -2908.572          47.000    16122528.015    66914536.985       -2262.335          42.000  
R03  13891538.530    74362627.450        -320.338          48.000    13891525.511    57837615.945        -249.100          47.000  
R04  15751867.539    84350652.506        2629.867          44.000    15751858.659    65605978.407        2045.501          44.000  
R12  18587526.328    99291256.067        2396.131          44.000                                                                  
R17  14771689.574    79046301.611       -2842.157          47.000    14771680.152    61480391.083       -2210.701          46.000  
R18  13573096.207    72454189.362         965.462          48.000    13573088.059    56353231.140         750.876          48.000  
R19  16037556.086    85790129.449        3912.444          32.000    16037547.008    66725633.218        3042.615          39.000  
E04  21135012.511   111065303.600        2886.176          38.000    21135013.842    85101999.599        2211.381          41.000  
E07  23220130.800   122022596.871       -2524.520          35.000    23220131.302    93497861.837       -1934.350          33.000  
E10  20437720.312   107400964.310        2702.563          42.000    20437718.351    82294243.433        2070.768          45.000  
E12  18654669.727    98030993.837        1899.016          43.000    18654662.905    75114679.410        1455.124          46.000  
E14  14727294.196    77392458.985        3501.903          41.000                                                                  
E19  18254410.108    95927624.598         762.953          40.000    18254404.493    73502993.257         584.645          46.000  
E20  20638221.501   108454656.993        -385.081          39.000                                                                  
E26  21378814.020   112346347.745       -2297.108          39.000    21378815.358    86083512.239       -1760.222          40.000  
J02  32244676.046   169446891.585          53.862          35.000    32244685.220   132036352.152          41.731          36.000  
J03  31645979.860   166300722.297         840.513          44.000                                                                  
J04  32835786.011   172553206.830        -292.742          43.000    32835777.476   134457009.301        -228.198          46.000  
J07  31520907.805   165643458.841         254.160          38.000    31520900.417   129072821.520         197.701          43.000  
C07  33873802.738   136395641.125       -1167.874          39.000    33873813.302   176389692.952       -1510.084          37.000  
C08  31517140.585   126906524.786         528.376          44.000    31517157.851   164118141.153         683.491          42.000  
C10  33471278.269   134774869.910       -1130.723          36.000    33471284.188   174293655.421       -1462.772          37.000  
C13  32344258.537   130236982.818         546.093          43.000    32344266.285   168425089.214         706.548          43.000  
C14  19549533.022    78717863.632       -1786.190          43.000    19549546.518   101799578.773       -2309.738          37.000  
C24                                                                  20529849.701   106904362.845        1419.355          38.000  
C27                                                                  16644617.751    86672929.336        1036.023          48.000  
C28                                                                  16734083.555    87138749.266       -1842.584          47.000  
> 2023 07 11 06 06 16.9810000  0 38                     
G05  15816817.795    83118046.253        1785.298          45.000    15816809.769    64767293.499        1391.060          40.000  
G06  16286790.478    85587699.641       -2219.356          43.000    16286786.657    66691725.514       -1729.466          42.000  
G07  17837961.419    93739315.509         243.708          42.000    17837954.286    73043598.909         190.552          37.000  
G09  18923178.033    99442039.163       -3206.943          37.000    18923172.607    77487343.838       -2499.520          34.000  
G11  14617052.829    76813208.322         247.567          46.000    14617044.422    59854450.756         192.879          49.000  
G13  15960866.455    83875063.482        3287.696          45.000                                                                  
G15  18832842.718    98967299.436        3884.445          38.000    18832838.721    77117369.999        3026.255          32.000  
G19  19592859.482   102961140.907       -3607.668          34.000                                                                  
G20  14927875.159    78446589.691         766.941          45.000                                                                  
G29  17946588.810    94309989.854        2216.877          39.000    17946581.604    73488274.907        1727.425          35.000  
G30  17276631.178    90789469.697        1756.427          43.000    17276627.605    70745118.716        1368.706          40.000  
R02  16123080.344    86035970.826       -2908.629          47.000    16123073.124    66916799.307       -2262.375          42.000  
R03  13891598.432    74362947.959        -320.662          48.000    13891585.180    57837865.225        -249.189          47.000  
R04  15751376.561    84348023.001        2629.333          44.000    15751367.591    65603933.237        2045.185          44.000  
R12  18587077.952    99288860.275        2395.927          44.000                                                                  
R17  14772220.897    79049144.259       -2842.921          47.000    14772211.393    61482602.011       -2211.029          46.000  
R18  13572915.494    72453224.316         964.838          48.000    13572907.340    56352480.549         750.391          48.000  
R19  16036824.777    85786217.402        3911.815          32.000    16036815.763    66722590.523        3042.416          39.000  
E04  21134463.471   111062417.704        2885.841          38.000    21134464.746    85099788.325        2211.408          41.000  
E07  23220611.038   122025121.471       -2524.626          34.000    23220611.874    93499796.285       -1934.476          34.000  
E10  20437206.081   107398261.945        2702.409          41.000    20437204.075    82292172.795        2070.670          45.000  
E12  18654308.524    98029095.087        1898.739          42.000    18654301.658    75113224.517        1454.928          46.000  
E14  14726628.155    77388958.074        3500.523          40.000                                                                  
E19  18254265.059    95926861.944         762.442          40.000    18254259.437    73502408.874         584.336          46.000  
E20  20638294.901   108455042.300        -385.643          38.000                                                                  
E26  21379251.213   112348644.995       -2297.235          39.000    21379252.387    86085272.452       -1760.133          40.000  
J02  32244665.948   169446838.123          53.659          35.000    32244675.093   132036310.460          41.764          36.000  
J03  31645820.081   166299881.941         840.521          44.000                                                                  
J04  32835841.682   172553499.664        -292.780          43.000    32835833.259   134457237.478        -228.021          46.000  
J07  31520859.431   165643204.891         254.230          38.000    31520852.088   129072623.622         198.118          43.000  
C07  33874092.743   136396808.788       -1167.587          39.000    33874103.327   176391203.021       -1509.637          37.000  
C08  31517009.224   126905996.251         528.605          44.000    31517026.510   164117457.642         683.847          42.000  
C10  33471559.182   134776001.175       -1131.013          36.000    33471565.219   174295118.384       -1462.625          37.000  
C13  32344122.869   130236436.578         546.339          43.000    32344130.610   168424382.816         706.577          43.000  
C14  19549976.577    78719649.667       -1786.135          43.000    19549990.052   101801888.514       -2309.641          37.000  
C24                                                                  20529577.157   106902943.481        1419.203          38.000  
C27                                                                  16644418.858    86671893.677        1035.507          48.000  
C28                                                                  16734437.398    87140592.047       -1842.879          47.000  
> 2023 07 11 06 06 17.9810000  0 38                     
G05  15816478.113    83116261.220        1784.606          45.000    15816470.091    64765902.562        1390.527          40.000  
G06  16287212.862    85589919.232       -2219.768          42.000    16287208.994    66693455.078       -1730.021          42.000  
G07  17837914.985    93739071.621         243.160          42.000    17837907.787    73043408.902         189.745          37.000  
G09  18923788.312    99445246.478       -3207.574          37.000    18923782.835    77489843.028       -2499.477          34.000  
G11  14617005.854    76812961.339         246.716          46.000    14616997.413    59854258.311         192.062          49.000  
G13  15960240.943    83871776.233        3286.809          45.000                                                                  
G15  18832103.696    98963415.487        3883.792          38.000    18832099.565    77114343.525        3025.913          32.000  
G19  19593546.037   102964748.948       -3608.461          34.000                                                                  
G20  14927729.149    78445822.839         766.453          45.000                                                                  
G29  17946166.939    94307773.557        2215.658          39.000    17946159.874    73486547.916        1726.542          35.000  
G30  17276296.964    90787713.684        1755.648          43.000    17276293.510    70743750.421        1367.885          40.000  
R02  16123625.568    86038879.686       -2909.075          47.000    16123618.226    66919061.764       -2262.885          42.000  
R03  13891658.405    74363269.004        -321.600          48.000    13891645.121    57838114.934        -250.003          47.000  
R04  15750885.585    84345393.989        2628.560          44.000    15750876.698    65601888.458        2044.428          44.000  
R12  18586629.530    99286464.991        2394.739          44.000                                                                  
R17  14772752.228    79051987.622       -2843.879          47.000    14772742.799    61484813.523       -2211.884          46.000  
R18  13572734.884    72452260.172         963.454          48.000    13572726.653    56351730.658         749.324          48.000  
R19  16036093.637    85782305.833        3910.664          32.000    16036084.484    66719548.135        3042.446          39.000  
E04  21133914.316   111059532.018        2884.970          38.000    21133915.605    85097577.228        2210.821          41.000  
E07  23221091.224   122027646.026       -2524.100          34.000    23221092.469    93501730.725       -1934.467          34.000  
E10  20436691.970   107395559.719        2701.742          41.000    20436689.865    82290102.249        2070.328          45.000  
E12  18653947.302    98027196.595        1898.011          43.000    18653940.453    75111769.835        1454.411          46.000  
E14  14725962.239    77385458.496        3498.550          41.000                                                                  
E19  18254119.903    95926099.677         761.930          40.000    18254114.434    73501824.815         583.702          46.000  
E20  20638368.210   108455427.984        -385.890          39.000                                                                  
E26  21379688.301   112350942.471       -2297.620          39.000    21379689.675    86087032.862       -1760.878          40.000  
J02  32244655.828   169446784.588          53.263          35.000    32244664.869   132036268.764          41.234          36.000  
J03  31645660.140   166299041.691         839.983          44.000                                                                  
J04  32835897.353   172553792.489        -292.921          43.000    32835888.925   134457465.659        -228.309          46.000  
J07  31520811.076   165642950.985         253.809          37.000    31520803.746   129072425.772         197.807          43.000  
C07  33874382.809   136397976.524       -1168.173          39.000    33874393.467   176392713.142       -1510.216          37.000  
C08  31516877.983   126905467.689         528.542          44.000    31516895.336   164116774.111         683.369          42.000  
C10  33471840.133   134777132.439       -1130.962          36.000    33471846.315   174296581.406       -1462.833          36.000  
C13  32343987.188   130235890.308         546.055          43.000    32343994.902   168423676.361         706.259          43.000  
C14  19550420.194    78721435.705       -1786.002          43.000    19550433.656   101804198.256       -2309.731          37.000  
C24                                                                  20529304.701   106901524.508        1418.526          38.000  
C27                                                                  16644219.973    86670858.608        1034.514          48.000  
C28                                                                  16734791.336    87142435.307       -1843.815          47.000  
> 2023 07 11 06 06 18.9810000  0 38                     
G05  15816138.468    83114476.372        1784.806          45.000    15816130.446    64764511.781        1390.602          40.000  
G06  16287635.267    85592139.199       -2219.962          43.000    16287631.389    66695184.906       -1729.814          42.000  
G07  17837868.636    93738828.246         243.230          42.000    17837861.526    73043219.271         189.496          37.000  
G09  18924398.585    99448453.849       -3207.234          37.000    18924393.096    77492342.299       -2499.176          34.000  
G11  14616959.030    76812714.888         246.054          46.000    14616950.458    59854066.249         191.969          49.000  
G13  15959615.511    83868489.357        3286.996          45.000                                                                  
G15  18831364.603    98959531.636        3884.218          38.000    18831360.600    77111317.133        3026.410          32.000  
G19  19594232.550   102968356.821       -3607.804          34.000                                                                  
G20  14927583.272    78445056.183         766.763          45.000                                                                  
G29  17945745.312    94305557.783        2216.181          39.000    17945738.189    73484821.364        1726.400          35.000  
G30  17275962.821    90785958.114        1755.674          43.000    17275959.463    70742382.449        1367.654          40.000  
R02  16124170.607    86041788.664       -2908.920          47.000    16124163.302    66921324.298       -2262.671          42.000  
R03  13891718.454    74363590.539        -321.556          48.000    13891705.048    57838365.025        -250.280          47.000  
R04  15750394.791    84342765.421        2628.400          44.000    15750385.771    65599844.011        2044.373          44.000  
R12  18586181.255    99284070.173        2394.544          44.000                                                                  
R17  14773283.739    79054831.619       -2844.305          47.000    14773274.265    61487025.511       -2212.078          46.000  
R18  13572554.403    72451296.843         963.039          48.000    13572546.213    56350981.398         749.004          48.000  
R19  16035362.466    85778394.570        3911.339          33.000    16035353.350    66716506.082        3041.624          39.000  
E04  21133365.215   111056646.494        2885.831          39.000    21133366.468    85095366.258        2210.955          42.000  
E07  23221571.679   122030170.616       -2524.176          34.000    23221572.876    93503665.150       -1934.208          36.000  
E10  20436177.730   107392857.569        2702.189          41.000    20436175.572    82288031.773        2070.504          45.000  
E12  18653585.982    98025298.327        1898.169          43.000    18653579.303    75110315.325        1454.319          46.000  
E14  14725296.501    77381960.212        3497.647          41.000                                                                  
E19  18253974.921    95925337.838         761.763          40.000    18253969.325    73501241.069         583.565          47.000  
E20  20638441.723   108455814.076        -386.284          39.000                                                                  
E26  21380125.539   112353240.105       -2297.551          39.000    21380126.923    86088793.375       -1760.527          40.000  
J02  32244645.626   169446730.988          53.888          35.000    32244654.691   132036226.979          41.893          36.000  
J03  31645500.153   166298201.478         840.327          44.000                                                                  
J04  32835953.101   172554085.277        -292.762          43.000    32835944.536   134457693.793        -227.946          46.000  
J07  31520762.691   165642697.067         254.305          37.000    31520755.453   129072227.925         197.780          43.000  
C07  33874672.877   136399144.213       -1167.798          39.000    33874683.429   176394223.250       -1510.077          37.000  
C08  31516746.663   126904939.047         528.908          44.000    31516763.987   164116090.458         683.806          42.000  
C10  33472121.141   134778263.792       -1131.188          36.000    33472127.257   174298044.471       -1462.730          36.000  
C13  32343851.515   130235343.977         546.307          43.000    32343859.235   168422969.807         706.945          43.000  
C14  19550863.814    78723221.730       -1785.962          43.000    19550877.306   101806507.985       -2309.412          37.000  
C24                                                                  20529032.250   106900105.912        1418.273          38.000  
C27                                                                  16644021.296    86669824.058        1034.386          48.000  
C28                                                                  16735145.370    87144278.988       -1843.639          47.000  
> 2023 07 11 06 06 19.9810000  0 38                     
G05  15815798.957    83112691.836        1784.269          45.000    15815790.866    64763121.220        1390.604          40.000  
G06  16288057.734    85594359.640       -2220.479          43.000    16288054.026    66696915.119       -1730.159          42.000  
G07  17837822.477    93738585.499         242.478          42.000    17837815.315    73043030.128         188.625          37.000  
G09  18925008.897    99451661.415       -3207.931          37.000    18925003.465    77494841.663       -2499.184          34.000  
G11  14616912.261    76812469.007         245.642          46.000    14616903.695    59853874.663         191.300          49.000  
G13  15958990.116    83865203.009        3285.936          45.000                                                                  
G15  18830625.572    98955648.059        3883.347          39.000    18830621.529    77108290.945        3026.223          32.000  
G19  19594919.111   102971964.672       -3608.167          34.000                                                                  
G20  14927437.530    78444289.870         766.088          45.000                                                                  
G29  17945323.779    94303342.712        2214.583          39.000    17945316.699    73483095.308        1725.738          35.000  
G30  17275628.882    90784203.076        1754.926          43.000    17275625.515    70741014.879        1367.347          40.000  
R02  16124715.712    86044697.831       -2909.190          47.000    16124708.531    66923586.971       -2262.800          42.000  
R03  13891778.666    74363912.702        -322.435          48.000    13891765.148    57838615.587        -250.864          47.000  
R04  15749904.069    84340137.387        2627.639          44.000    15749894.892    65597799.995        2043.798          44.000  
R12  18585733.115    99281675.901        2393.971          44.000                                                                  
R17  14773815.362    79057676.278       -2844.965          47.000    14773805.937    61489238.026       -2212.942          46.000  
R18  13572374.106    72450334.444         961.889          48.000    13572365.991    56350232.869         748.162          48.000  
R19  16034631.435    85774483.784        3910.444          33.000    16034622.342    66713464.354        3041.546          39.000  
E04  21132816.219   111053761.266        2884.971          39.000    21132817.308    85093155.499        2210.688          41.000  
E07  23222052.294   122032695.264       -2524.646          33.000    23222053.218    93505599.589       -1934.441          35.000  
E10  20435663.538   107390155.601        2701.932          41.000    20435661.323    82285961.445        2070.232          44.000  
E12  18653224.834    98023400.381        1897.829          43.000    18653218.036    75108861.063        1453.974          46.000  
E14  14724630.979    77378463.324        3496.106          41.000                                                                  
E19  18253830.016    95924576.491         761.304          40.000    18253824.405    73500657.694         583.154          46.000  
E20  20638515.205   108456200.579        -386.662          39.000                                                                  
E26  21380562.815   112355538.032       -2297.962          39.000    21380564.100    86090554.123       -1760.909          40.000  
J02  32244635.351   169446677.426          53.435          35.000    32244644.614   132036185.242          42.230          36.000  
J03  31645340.217   166297361.431         839.834          44.000                                                                  
J04  32836008.749   172554378.099        -292.836          43.000    32836000.279   134457921.974        -228.137          46.000  
J07  31520714.393   165642443.258         253.683          37.000    31520707.173   129072030.144         197.751          43.000  
C07  33874962.877   136400311.994       -1167.858          39.000    33874973.403   176395733.457       -1510.231          37.000  
C08  31516615.361   126904410.463         528.325          44.000    31516632.595   164115406.864         683.462          42.000  
C10  33472402.073   134779395.246       -1131.644          36.000    33472408.185   174299507.658       -1462.918          36.000  
C13  32343715.801   130234797.667         546.218          43.000    32343723.546   168422263.331         706.465          43.000  
C14  19551307.447    78725007.799       -1786.148          43.000    19551320.991   101808817.783       -2310.055          37.000  
C24                                                                  20528759.780   106898687.746        1417.916          38.000  
C27                                                                  16643822.752    86668790.143        1033.546          48.000  
C28                                                                  16735499.532    87146123.205       -1844.479          47.000  
> 2023 07 11 06 06 20.9810000  0 38                     
G05  15815459.412    83110907.391        1783.878          45.000    15815451.290    64761730.747        1390.056          41.000  
G06  16288480.333    85596580.357       -2220.796          43.000    16288476.771    66698645.548       -1730.629          42.000  
G07  17837776.331    93738343.194         241.773          43.000    17837769.207    73042841.293         188.277          37.000  
G09  18925619.301    99454868.926       -3207.836          37.000    18925613.799    77497341.042       -2499.848          34.000  
G11  14616865.655    76812223.537         245.198          46.000    14616857.087    59853683.392         190.910          49.000  
G13  15958364.815    83861916.955        3285.681          45.000                                                                  
G15  18829886.641    98951764.496        3883.463          39.000    18829882.667    77105264.807        3026.438          32.000  
G19  19595605.655   102975572.282       -3607.428          34.000                                                                  
G20  14927291.742    78443523.647         765.917          45.000                                                                  
G29  17944902.421    94301128.075        2214.183          39.000    17944895.322    73481369.622        1725.181          35.000  
G30  17275294.985    90782448.393        1754.365          43.000    17275291.601    70739647.587        1367.139          40.000  
R02  16125260.836    86047606.960       -2909.252          47.000    16125253.612    66925849.627       -2262.773          42.000  
