% program   : RTKPOST ver.2.4.3 b34
% inp file  : C:\Users\TARO\Dropbox\github\rtklib_matlab\example\data\rover_1hz.obs
% inp file  : C:\Users\TARO\Dropbox\github\rtklib_matlab\example\data\base_1hz.obs
% inp file  : C:\Users\TARO\Dropbox\github\rtklib_matlab\example\data\base.nav
% obs start : 2023/07/11 06:04:30.0 GPST (week2270 194670.0s)
% obs end   : 2023/07/11 06:25:00.0 GPST (week2270 195900.0s)
% ref pos   : 35.134744725  136.977582287   122.4783
%
% (lat/lon/height=WGS84/ellipsoidal,Q=1:fix,2:float,3:sbas,4:dgps,5:single,6:ppp,ns=# of satellites)
%  GPST                  latitude(deg) longitude(deg)  height(m)   Q  ns   sdn(m)   sde(m)   sdu(m)  sdne(m)  sdeu(m)  sdun(m) age(s)  ratio
2023/07/11 06:04:30.000   35.165396001  136.881417831    59.1516   1  19   0.0045   0.0045   0.0097   0.0027   0.0011  -0.0030   0.03    5.7
2023/07/11 06:04:31.000   35.165395998  136.881417825    59.1531   1  19   0.0045   0.0045   0.0097   0.0027   0.0011  -0.0030   0.03    5.5
2023/07/11 06:04:32.000   35.165395999  136.881417827    59.1502   1  19   0.0045   0.0045   0.0097   0.0027   0.0011  -0.0030   0.03    5.5
2023/07/11 06:04:33.000   35.165395991  136.881417816    59.1498   1  19   0.0045   0.0045   0.0097   0.0027   0.0011  -0.0030   0.03    5.9
2023/07/11 06:04:34.000   35.165396004  136.881417826    59.1462   1  19   0.0045   0.0045   0.0097   0.0027   0.0011  -0.0030   0.03    5.4
2023/07/11 06:04:35.000   35.165395992  136.881417829    59.1482   1  19   0.0045   0.0045   0.0097   0.0027   0.0011  -0.0030   0.03    5.6
2023/07/11 06:04:36.000   35.165396000  136.881417826    59.1419   1  19   0.0045   0.0045   0.0097   0.0027   0.0011  -0.0030   0.03    5.4
2023/07/11 06:04:37.000   35.165395998  136.881417821    59.1444   1  19   0.0045   0.0045   0.0097   0.0027   0.0011  -0.0030   0.03    5.6
2023/07/11 06:04:38.000   35.165396001  136.881417854    59.1461   1  19   0.0045   0.0045   0.0097   0.0027   0.0011  -0.0030   0.03    6.3
2023/07/11 06:04:39.000   35.165395998  136.881417824    59.1457   1  19   0.0045   0.0045   0.0097   0.0027   0.0011  -0.0030   0.03    5.6
2023/07/11 06:04:40.000   35.165395993  136.881417821    59.1393   1  19   0.0045   0.0045   0.0097   0.0027   0.0011  -0.0030   0.03    5.9
2023/07/11 06:04:41.000   35.165396018  136.881417842    59.1432   1  19   0.0045   0.0045   0.0097   0.0027   0.0011  -0.0030   0.03    5.5
2023/07/11 06:04:42.000   35.165395988  136.881417823    59.1435   1  19   0.0045   0.0045   0.0097   0.0027   0.0011  -0.0030   0.03    5.0
2023/07/11 06:04:43.000   35.165395985  136.881417814    59.1417   1  19   0.0045   0.0045   0.0097   0.0027   0.0011  -0.0030   0.03    4.6
2023/07/11 06:04:44.000   35.165395995  136.881417837    59.1390   1  19   0.0045   0.0045   0.0097   0.0027   0.0011  -0.0030   0.03    5.6
2023/07/11 06:04:45.000   35.165396006  136.881417858    59.1418   1  19   0.0045   0.0045   0.0097   0.0027   0.0011  -0.0030   0.03    5.7
2023/07/11 06:04:46.000   35.165396006  136.881417835    59.1397   1  19   0.0045   0.0045   0.0097   0.0027   0.0011  -0.0030   0.03    5.5
2023/07/11 06:04:47.000   35.165396007  136.881417849    59.1394   1  19   0.0045   0.0045   0.0097   0.0027   0.0011  -0.0030   0.03    5.3
2023/07/11 06:04:48.000   35.165396011  136.881417809    59.1364   1  19   0.0045   0.0045   0.0097   0.0027   0.0011  -0.0030   0.03    5.9
2023/07/11 06:04:49.000   35.165396008  136.881417839    59.1370   1  19   0.0045   0.0045   0.0097   0.0027   0.0011  -0.0030   0.03    5.3
2023/07/11 06:04:50.000   35.165396006  136.881417823    59.1363   1  19   0.0045   0.0045   0.0097   0.0027   0.0011  -0.0030   0.03    4.6
2023/07/11 06:04:51.000   35.165396001  136.881417825    59.1375   1  19   0.0045   0.0045   0.0097   0.0027   0.0012  -0.0030   0.03    4.8
2023/07/11 06:04:52.000   35.165396011  136.881417800    59.1371   1  19   0.0045   0.0045   0.0097   0.0027   0.0012  -0.0030   0.03    4.6
2023/07/11 06:04:53.000   35.165395999  136.881417834    59.1359   1  19   0.0045   0.0045   0.0097   0.0027   0.0012  -0.0030   0.03    4.6
2023/07/11 06:04:54.000   35.165395996  136.881417824    59.1379   1  19   0.0045   0.0045   0.0097   0.0027   0.0012  -0.0030   0.03    4.5
2023/07/11 06:04:55.000   35.165396008  136.881417827    59.1354   1  19   0.0045   0.0045   0.0097   0.0027   0.0012  -0.0030   0.03    4.9
2023/07/11 06:04:56.000   35.165395995  136.881417824    59.1388   1  19   0.0045   0.0045   0.0097   0.0027   0.0012  -0.0030   0.03    4.6
2023/07/11 06:04:57.000   35.165396003  136.881417817    59.1336   1  19   0.0045   0.0045   0.0097   0.0027   0.0012  -0.0030   0.03    4.7
2023/07/11 06:04:58.000   35.165395995  136.881417822    59.1378   1  19   0.0045   0.0045   0.0097   0.0027   0.0012  -0.0030   0.03    4.6
2023/07/11 06:04:59.000   35.165395995  136.881417814    59.1347   1  19   0.0045   0.0045   0.0097   0.0027   0.0012  -0.0030   0.03    4.4
2023/07/11 06:05:00.000   35.165395995  136.881417794    59.1348   1  19   0.0045   0.0045   0.0097   0.0027   0.0012  -0.0030   0.03    4.3
2023/07/11 06:05:01.000   35.165395996  136.881417805    59.1374   1  19   0.0045   0.0045   0.0097   0.0027   0.0012  -0.0030   0.03    4.4
2023/07/11 06:05:02.000   35.165395998  136.881417816    59.1358   1  19   0.0045   0.0045   0.0097   0.0027   0.0012  -0.0030   0.03    4.4
2023/07/11 06:05:03.000   35.165395986  136.881417806    59.1352   1  19   0.0045   0.0045   0.0097   0.0027   0.0012  -0.0030   0.03    4.3
2023/07/11 06:05:04.000   35.165395985  136.881417802    59.1322   1  19   0.0045   0.0045   0.0097   0.0027   0.0012  -0.0030   0.03    4.5
2023/07/11 06:05:05.000   35.165396016  136.881416434    59.1326   1  19   0.0045   0.0045   0.0097   0.0027   0.0012  -0.0030   0.03    3.6
2023/07/11 06:05:06.000   35.165395942  136.881412653    59.1446   1  19   0.0045   0.0045   0.0097   0.0027   0.0012  -0.0030   0.03    3.7
2023/07/11 06:05:07.000   35.165395483  136.881407776    59.1643   1  19   0.0045   0.0045   0.0097   0.0027   0.0012  -0.0030   0.03    3.5
2023/07/11 06:05:08.000   35.165394125  136.881401310    59.1599   1  19   0.0045   0.0045   0.0097   0.0027   0.0012  -0.0030   0.03    5.0
2023/07/11 06:05:09.000   35.165390942  136.881392737    59.1838   1  19   0.0045   0.0045   0.0097   0.0027   0.0012  -0.0030   0.03    3.7
2023/07/11 06:05:10.000   35.165385204  136.881384123    59.1926   1  19   0.0045   0.0045   0.0097   0.0027   0.0012  -0.0030   0.03    5.3
2023/07/11 06:05:11.000   35.165376410  136.881375133    59.2024   1  19   0.0045   0.0045   0.0097   0.0027   0.0012  -0.0030   0.03    4.0
2023/07/11 06:05:12.000   35.165363947  136.881366658    59.2149   1  19   0.0045   0.0045   0.0097   0.0027   0.0012  -0.0030   0.03    4.6
2023/07/11 06:05:13.000   35.165348335  136.881357141    59.2019   1  19   0.0045   0.0045   0.0097   0.0027   0.0012  -0.0030   0.03    5.2
2023/07/11 06:05:14.000   35.165331785  136.881344265    59.1961   1  19   0.0045   0.0045   0.0097   0.0027   0.0012  -0.0030   0.03    4.4
2023/07/11 06:05:15.000   35.165317526  136.881324804    59.1635   1  19   0.0045   0.0045   0.0097   0.0027   0.0012  -0.0030   0.03    4.8
2023/07/11 06:05:16.000   35.165308021  136.881299451    59.1510   1  19   0.0045   0.0045   0.0097   0.0027   0.0012  -0.0030   0.03    6.1
2023/07/11 06:05:17.000   35.165304252  136.881273179    59.1423   1  19   0.0045   0.0045   0.0097   0.0027   0.0012  -0.0030   0.03    3.7
2023/07/11 06:05:18.000   35.165303004  136.881248073    59.1463   1  19   0.0045   0.0045   0.0097   0.0027   0.0012  -0.0030   0.03    3.9
2023/07/11 06:05:19.000   35.165303450  136.881222678    59.1475   1  19   0.0045   0.0045   0.0097   0.0027   0.0012  -0.0030   0.03    4.4
2023/07/11 06:05:20.000   35.165306003  136.881195865    59.1676   1  19   0.0045   0.0045   0.0097   0.0027   0.0012  -0.0030   0.03    3.8
2023/07/11 06:05:21.000   35.165309727  136.881170946    59.1733   1  18   0.0051   0.0049   0.0106   0.0034  -0.0026  -0.0044   0.03    4.5
2023/07/11 06:05:22.000   35.165312417  136.881147758    59.1773   1  18   0.0051   0.0049   0.0106   0.0034  -0.0026  -0.0044   0.03    4.4
2023/07/11 06:05:23.000   35.165313520  136.881126657    59.1860   1  18   0.0051   0.0049   0.0106   0.0034  -0.0026  -0.0044   0.03    5.2
2023/07/11 06:05:24.000   35.165312123  136.881109180    59.1782   1  18   0.0051   0.0049   0.0106   0.0034  -0.0026  -0.0044   0.03    4.6
2023/07/11 06:05:25.000   35.165308453  136.881094589    59.1666   1  18   0.0051   0.0049   0.0106   0.0034  -0.0026  -0.0044   0.03    6.2
2023/07/11 06:05:26.000   35.165302149  136.881083403    59.1431   1  18   0.0051   0.0049   0.0106   0.0034  -0.0026  -0.0044   0.03    4.9
2023/07/11 06:05:27.000   35.165294154  136.881074904    59.1270   1  18   0.0051   0.0049   0.0106   0.0034  -0.0026  -0.0044   0.03    5.3
2023/07/11 06:05:28.000   35.165285550  136.881068950    59.1141   1  18   0.0051   0.0049   0.0106   0.0034  -0.0026  -0.0044   0.03    4.8
2023/07/11 06:05:29.000   35.165278121  136.881065598    59.0886   1  18   0.0051   0.0049   0.0106   0.0034  -0.0026  -0.0044   0.03    5.9
2023/07/11 06:05:30.000   35.165269591  136.881062858    59.0601   1  18   0.0051   0.0049   0.0106   0.0034  -0.0026  -0.0044   0.03    5.7
2023/07/11 06:05:31.000   35.165261703  136.881060624    59.0528   1  18   0.0051   0.0049   0.0106   0.0034  -0.0026  -0.0044   0.03    5.9
2023/07/11 06:05:32.000   35.165256021  136.881059124    59.0011   1  18   0.0051   0.0049   0.0106   0.0034  -0.0026  -0.0044   0.03    5.5
2023/07/11 06:05:33.000   35.165250702  136.881058018    58.9600   1  18   0.0051   0.0049   0.0106   0.0034  -0.0026  -0.0044   0.03    4.9
2023/07/11 06:05:34.000   35.165247151  136.881057274    58.9289   1  18   0.0051   0.0049   0.0106   0.0034  -0.0026  -0.0044   0.03    5.6
2023/07/11 06:05:35.000   35.165246814  136.881057256    58.9288   1  18   0.0051   0.0049   0.0106   0.0034  -0.0026  -0.0044   0.03    5.9
2023/07/11 06:05:36.000   35.165246806  136.881057236    58.9341   1  18   0.0051   0.0049   0.0106   0.0034  -0.0026  -0.0044   0.03    5.7
2023/07/11 06:05:37.000   35.165246787  136.881057238    58.9373   1  18   0.0051   0.0049   0.0106   0.0034  -0.0026  -0.0044   0.03    5.1
2023/07/11 06:05:38.000   35.165246698  136.881057234    58.9257   1  18   0.0051   0.0049   0.0106   0.0034  -0.0026  -0.0044   0.03    5.4
2023/07/11 06:05:39.000   35.165246675  136.881057205    58.9248   1  18   0.0051   0.0049   0.0106   0.0034  -0.0026  -0.0044   0.03    5.6
2023/07/11 06:05:40.000   35.165246678  136.881057231    58.9221   1  18   0.0051   0.0049   0.0106   0.0034  -0.0026  -0.0044   0.03    5.8
2023/07/11 06:05:41.000   35.165246680  136.881057202    58.9295   1  18   0.0051   0.0049   0.0106   0.0034  -0.0026  -0.0044   0.03    7.2
2023/07/11 06:05:42.000   35.165246682  136.881057210    58.9249   1  18   0.0051   0.0049   0.0106   0.0034  -0.0026  -0.0044   0.03    5.8
2023/07/11 06:05:43.000   35.165246696  136.881057216    58.9262   1  18   0.0051   0.0049   0.0106   0.0034  -0.0026  -0.0044   0.03    5.6
2023/07/11 06:05:44.000   35.165246706  136.881057206    58.9255   1  18   0.0051   0.0049   0.0106   0.0034  -0.0026  -0.0044   0.03    6.0
2023/07/11 06:05:45.000   35.165246689  136.881057253    58.9236   1  18   0.0051   0.0049   0.0106   0.0034  -0.0026  -0.0044   0.03    5.5
2023/07/11 06:05:46.000   35.165246695  136.881057224    58.9259   1  18   0.0051   0.0049   0.0106   0.0034  -0.0026  -0.0044   0.03    6.1
2023/07/11 06:05:47.000   35.165246620  136.881057203    58.9261   1  18   0.0051   0.0049   0.0106   0.0034  -0.0025  -0.0044   0.03    6.0
2023/07/11 06:05:48.000   35.165242671  136.881056824    58.8908   1  18   0.0051   0.0049   0.0106   0.0034  -0.0025  -0.0044   0.03    5.3
2023/07/11 06:05:49.000   35.165234949  136.881056604    58.7893   1  18   0.0051   0.0049   0.0106   0.0034  -0.0025  -0.0044   0.03    7.5
2023/07/11 06:05:50.000   35.165225961  136.881056040    58.7260   1  18   0.0051   0.0049   0.0106   0.0034  -0.0025  -0.0044   0.03    5.4
2023/07/11 06:05:51.000   35.165216195  136.881055290    58.6460   1  18   0.0051   0.0049   0.0106   0.0034  -0.0025  -0.0044   0.03    4.3
2023/07/11 06:05:52.000   35.165204188  136.881053457    58.5613   1  18   0.0051   0.0049   0.0106   0.0034  -0.0025  -0.0044   0.03    4.9
2023/07/11 06:05:53.000   35.165190035  136.881045442    58.4905   1  18   0.0051   0.0049   0.0106   0.0034  -0.0025  -0.0044   0.03    3.6
2023/07/11 06:05:54.000   35.165176299  136.881028969    58.2663   2  18   0.5039   0.4855   1.0432   0.3372  -0.2618  -0.4378   0.03    2.4
2023/07/11 06:05:55.000   35.165166200  136.881006898    58.5210   1  18   0.0052   0.0052   0.0108   0.0033  -0.0031  -0.0043   0.03    4.1
2023/07/11 06:05:56.000   35.165159684  136.880977052    58.5577   1  17   0.0052   0.0054   0.0110   0.0031  -0.0035  -0.0041   0.03    3.1
2023/07/11 06:05:57.000   35.165158558  136.880938105    58.5722   1  16   0.0053   0.0062   0.0120   0.0038  -0.0053  -0.0049   0.03    3.0
2023/07/11 06:05:58.000   35.165163804  136.880892333    58.5670   1  18   0.0053   0.0062   0.0120   0.0038  -0.0053  -0.0049   0.03    4.0
2023/07/11 06:05:59.000   35.165172922  136.880848182    58.6293   1  18   0.0052   0.0061   0.0120   0.0039  -0.0052  -0.0050   0.03    6.1
2023/07/11 06:06:00.000   35.165180817  136.880808465    58.6805   1  18   0.0052   0.0061   0.0120   0.0039  -0.0052  -0.0050   0.03    8.1
2023/07/11 06:06:01.000   35.165185777  136.880774092    58.7156   1  18   0.0051   0.0049   0.0106   0.0034  -0.0025  -0.0044   0.03    7.1
2023/07/11 06:06:02.000   35.165188531  136.880740029    58.7439   1  18   0.0051   0.0049   0.0106   0.0034  -0.0025  -0.0044   0.03    3.9
2023/07/11 06:06:03.000   35.165187685  136.880712617    58.9304   2  18   0.5037   0.4854   1.0433   0.3369  -0.2605  -0.4375   0.03    1.9
2023/07/11 06:06:04.000   35.165180348  136.880684355    58.6993   1  17   0.0052   0.0053   0.0109   0.0037  -0.0013  -0.0040   0.03    7.9
2023/07/11 06:06:05.000   35.165169899  136.880665550    58.6798   1  17   0.0052   0.0053   0.0109   0.0037  -0.0013  -0.0040   0.03    7.2
2023/07/11 06:06:06.000   35.165151776  136.880650088    58.6734   1  17   0.0052   0.0053   0.0109   0.0037  -0.0012  -0.0040   0.03    6.5
2023/07/11 06:06:07.000   35.165121375  136.880637571    58.6373   1  17   0.0052   0.0057   0.0112   0.0036  -0.0026  -0.0039   0.03    4.1
2023/07/11 06:06:08.000   35.165079239  136.880627062    58.5352   1  16   0.0057   0.0082   0.0141   0.0052  -0.0075  -0.0059   0.03    3.2
2023/07/11 06:06:09.000   35.165031685  136.880623466    63.3248   2  16   0.5516   0.7743   1.3753   0.4886  -0.7522  -0.5934   0.03    1.9
2023/07/11 06:06:10.000   35.164978558  136.880652646    58.3394   2  16   0.5695   1.1083   1.8196   0.5925  -1.2290  -0.7217   0.03    1.8
2023/07/11 06:06:11.000   35.164900696  136.880588429    58.5187   1  15   0.0057   0.0082   0.0141   0.0052  -0.0075  -0.0059   0.03    3.1
2023/07/11 06:06:12.000   35.164832838  136.880563511    64.1140   2  16   0.5393   0.7449   1.3748   0.4630  -0.7560  -0.5961   0.03    2.0
2023/07/11 06:06:13.000   35.164755229  136.880564354    58.4354   1  16   0.0057   0.0082   0.0141   0.0052  -0.0075  -0.0059   0.03    5.6
2023/07/11 06:06:14.000   35.164675120  136.880553802    58.3927   1  15   0.0057   0.0082   0.0145   0.0052  -0.0077  -0.0062   0.03    7.8
2023/07/11 06:06:15.000   35.164590608  136.880544343    58.3909   1  17   0.0054   0.0066   0.0121   0.0043  -0.0047  -0.0047   0.03    4.8
2023/07/11 06:06:16.000   35.164512546  136.880552094    60.3889   2  17   0.4654   0.5028   1.0677   0.3456  -0.1906  -0.3827   0.03    2.3
2023/07/11 06:06:17.000   35.164412380  136.880530056    58.3042   1  17   0.0054   0.0066   0.0124   0.0043  -0.0048  -0.0049   0.03    4.2
2023/07/11 06:06:18.000   35.164318447  136.880526110    58.2615   1  18   0.0054   0.0066   0.0124   0.0043  -0.0048  -0.0049   0.03    3.1
2023/07/11 06:06:19.000   35.164225697  136.880522549    59.0711   2  17   0.4744   0.5255   1.0847   0.3652  -0.0845  -0.3591   0.03    1.2
2023/07/11 06:06:20.000   35.164133139  136.880533048    60.1940   2  18   0.4610   0.4853   1.0460   0.3331  -0.2538  -0.4002   0.03    1.1
2023/07/11 06:06:21.000   35.164030489  136.880524414    58.4899   2  18   0.4610   0.4853   1.0460   0.3330  -0.2537  -0.4002   0.03    1.2
2023/07/11 06:06:22.000   35.163930976  136.880526703    58.7558   2  18   0.4610   0.4853   1.0460   0.3330  -0.2535  -0.4002   0.03    1.2
2023/07/11 06:06:23.000   35.163833505  136.880529917    58.3962   2  18   0.4610   0.4853   1.0461   0.3330  -0.2534  -0.4002   0.03    1.0
2023/07/11 06:06:24.000   35.163730166  136.880524713    57.3011   2  19   0.4485   0.4852   1.0107   0.3328  -0.2526  -0.3626   0.03    1.2
2023/07/11 06:06:25.000   35.163624693  136.880526461    57.9535   2  19   0.4485   0.4852   1.0107   0.3327  -0.2525  -0.3626   0.03    1.4
2023/07/11 06:06:26.000   35.163517914  136.880527230    57.6912   2  19   0.4485   0.4852   1.0108   0.3327  -0.2523  -0.3626   0.03    1.1
2023/07/11 06:06:27.000   35.163407890  136.880532558    56.8616   1  19   0.0045   0.0049   0.0103   0.0034  -0.0024  -0.0036   0.03    6.6
2023/07/11 06:06:28.000   35.163296679  136.880535145    56.2369   1  19   0.0045   0.0049   0.0103   0.0034  -0.0024  -0.0036   0.03    4.8
2023/07/11 06:06:29.000   35.163183332  136.880530959    56.2194   2  18   0.4608   0.5434   1.0818   0.3695  -0.3971  -0.4150   0.03    1.4
2023/07/11 06:06:30.000   35.163069595  136.880538355    54.7771   1  18   0.0048   0.0062   0.0122   0.0042  -0.0056  -0.0049   0.03    5.3
2023/07/11 06:06:31.000   35.162957923  136.880544440    54.0192   1  17   0.0052   0.0107   0.0187   0.0058  -0.0124  -0.0070   0.03   11.7
2023/07/11 06:06:32.000   35.162848764  136.880559789    53.2977   1  16   0.0052   0.0107   0.0192   0.0058  -0.0125  -0.0068   0.03   10.3
2023/07/11 06:06:33.000   35.162740974  136.880586687    52.2838   2  14   0.7027   1.0854   1.9471   0.6213  -1.2077  -0.5475   0.03    1.3
2023/07/11 06:06:34.000   35.162635647  136.880617790    51.6450   2  17   0.5103   1.0515   1.8097   0.5715  -1.2093  -0.6929   0.03    1.4
2023/07/11 06:06:49.000   35.161205201  136.881569190    28.5607   2   4  18.1584   4.5856  23.6455  -8.9875  10.1454 -20.5124   0.03   15.0
2023/07/11 06:06:50.000   35.161310845  136.881550681    42.2718   2   4  18.1594   4.5863  23.6445  -8.9885  10.1462 -20.5126   0.03    2.1
2023/07/11 06:06:51.000   35.160579431  136.881769327   138.5076   2   4   9.9646   2.4196  16.2142  -4.6526   5.9920 -12.6296   0.03    1.3
2023/07/11 06:06:52.000   35.160971765  136.881648909    86.5626   1   4   8.2548   2.1707  14.6618  -4.2330   5.6414 -11.0013   0.03   12.4
2023/07/11 06:06:53.000   35.161119818  136.881600848    67.7618   2   4   9.9712   2.4231  16.2186  -4.6580   5.9978 -12.6356   0.03    2.4
2023/07/11 06:06:54.000   35.161153537  136.881586481    64.0153   2   4   9.9745   2.4248  16.2209  -4.6606   6.0007 -12.6386   0.03    1.2
2023/07/11 06:06:55.000   35.161156155  136.881581977    64.1374   2   4   9.9777   2.4265  16.2232  -4.6633   6.0036 -12.6416   0.03    1.3
2023/07/11 06:06:56.000   35.161173496  136.881573884    61.1279   2   4   9.9810   2.4282  16.2255  -4.6660   6.0065 -12.6445   0.03    1.1
2023/07/11 06:06:57.000   35.161175841  136.881570456    60.9844   2   4   9.9843   2.4299  16.2278  -4.6686   6.0094 -12.6475   0.03    1.1
2023/07/11 06:06:58.000   35.161175627  136.881569041    61.3796   2   4   9.9875   2.4316  16.2301  -4.6713   6.0123 -12.6505   0.03    1.4
2023/07/11 06:06:59.000   35.161178018  136.881569889    61.6601   2   4   9.9908   2.4333  16.2324  -4.6740   6.0152 -12.6535   0.03    1.3
2023/07/11 06:07:00.000   35.161193404  136.881565427    59.6701   2   4   9.9941   2.4350  16.2347  -4.6767   6.0181 -12.6565   0.03    1.2
2023/07/11 06:07:01.000   35.161186779  136.881565939    60.6109   2   4   9.9974   2.4367  16.2370  -4.6793   6.0210 -12.6595   0.03    1.0
2023/07/11 06:07:02.000   35.161184213  136.881564674    60.5460   1   4   0.1304   0.0308   0.2124  -0.0614   0.0788  -0.1658   0.03    8.7
2023/07/11 06:07:03.000   35.161184383  136.881564647    60.5472   1   4   0.1305   0.0308   0.2124  -0.0614   0.0788  -0.1659   0.03    3.4
2023/07/11 06:07:04.000   35.161174678  136.881566668    62.4443   2   4  10.0072   2.4418  16.2440  -4.6873   6.0297 -12.6685   0.03    1.3
2023/07/11 06:07:05.000   35.161183477  136.881563185    61.7727   1   4   0.1306   0.0309   0.2125  -0.0615   0.0789  -0.1660   0.03    5.7
2023/07/11 06:07:06.000   35.161184765  136.881561915    61.6172   2   4  10.0138   2.4452  16.2486  -4.6927   6.0355 -12.6745   0.03    2.1
2023/07/11 06:07:07.000   35.161189844  136.881558782    61.1863   2   4  10.0171   2.4469  16.2510  -4.6954   6.0384 -12.6776   0.03    2.7
2023/07/11 06:07:08.000   35.161189020  136.881559976    61.5416   2   4  10.0204   2.4486  16.2533  -4.6981   6.0413 -12.6806   0.03    1.1
2023/07/11 06:07:09.000   35.161199657  136.881556985    60.1433   2   4  10.0237   2.4503  16.2557  -4.7007   6.0442 -12.6836   0.03    1.4
2023/07/11 06:07:10.000   35.161446413  136.881478189    29.0189   1   4  18.0399   4.4344  23.5563  -8.9441  10.2205 -20.6144   0.03    9.4
2023/07/11 06:07:11.000   35.161449167  136.881476546    29.1173   2   4  18.1793   4.6011  23.6258  -9.0089  10.1644 -20.5159   0.03    1.2
2023/07/11 06:07:12.000   35.161449191  136.881476652    29.2554   2   4  18.1803   4.6018  23.6249  -9.0099  10.1653 -20.5161   0.03    1.2
2023/07/11 06:07:13.000   35.161451552  136.881477010    29.2359   1   4  18.0428   4.4370  23.5536  -8.9473  10.2228 -20.6148   0.03    3.5
2023/07/11 06:07:14.000   35.160983414  136.881607470    96.0537   2   4   6.8051   2.0361  12.2030  -3.4707   4.6774  -9.0469   0.03    1.8
2023/07/11 06:07:15.000   35.161270831  136.881543926    53.2063   2   6   4.5061   1.5868   8.4263  -2.3698   3.2583  -6.1138   0.03    1.2
2023/07/11 06:07:16.000   35.161088973  136.881700823    94.6408   2   6   1.0153   1.5613   3.0032   0.8663  -1.7988  -1.4170   0.03    3.1
2023/07/11 06:07:17.000   35.161251023  136.881541779    72.5012   2   7   0.9111   0.9941   2.1210   0.6366  -0.9851  -1.1937   0.03    1.5
2023/07/11 06:07:18.000   35.161409048  136.881959306    57.8502   2   5   2.3183   5.2773   3.7072   3.4338  -1.0859  -0.6764   0.03    0.0
2023/07/11 06:07:19.000   35.161101409  136.881573398    79.2093   2   8   0.6582   0.7675   1.5154   0.4377  -0.4701  -0.7210   0.03    1.3
2023/07/11 06:07:20.000   35.161155992  136.881639965    53.6344   2  14   0.5444   0.6500   1.3531   0.4692  -0.6180  -0.5730   0.03    1.0
2023/07/11 06:07:21.000   35.161084216  136.881628875    60.8314   2  13   0.7672   1.2000   2.1790   0.7395  -1.3978  -0.7766   0.03    1.9
2023/07/11 06:07:24.000   35.160916730  136.881850017    56.2064   2   9   0.8455   1.4663   2.5949   0.9783  -1.7487  -1.1861   0.03    1.2
2023/07/11 06:07:25.000   35.160793527  136.881854859    54.3293   2  13   0.7038   1.3652   2.0500   0.8402  -1.3976  -0.7682   0.03    1.1
2023/07/11 06:07:26.000   35.160701192  136.881905063    53.1355   2  13   0.7549   1.3749   2.1460   0.8662  -1.3603  -0.6459   0.03    1.0
2023/07/11 06:07:27.000   35.160611514  136.881960331    54.7933   2  14   0.6779   1.3592   2.0004   0.8256  -1.4184  -0.8221   0.03    1.1
2023/07/11 06:07:28.000   35.160497012  136.881993658    53.1776   2  14   0.6779   1.3593   2.0005   0.8257  -1.4185  -0.8222   0.03    1.4
2023/07/11 06:07:29.000   35.160393351  136.882051968    54.0251   2  14   0.7114   1.5546   2.0108   0.9190  -1.4715  -0.8485   0.03    1.5
2023/07/11 06:07:30.000   35.160295922  136.882119557    55.5280   2  10   0.7982   1.8365   2.4677   1.0406  -1.7913  -0.8840   0.03    1.3
2023/07/11 06:07:31.000   35.160241111  136.882059653    88.3974   2  11   0.6900   0.8084   1.4513   0.5583  -0.7635  -0.5571   0.03    1.1
2023/07/11 06:07:32.000   35.160151222  136.882158229    90.2605   2   9   1.1642   1.1018   1.8113   0.9948  -0.7650  -0.7681   0.03    2.0
2023/07/11 06:07:33.000   35.160086997  136.882256020     5.2114   2   9   0.6135   0.6733   3.1761   0.4956   1.0462   0.5243   0.03    1.0
2023/07/11 06:07:34.000   35.159872539  136.882392068    49.6872   2   8   0.7340   0.6629   2.0132   0.2704  -0.1246  -0.9200   0.03    1.1
2023/07/11 06:07:35.000   35.159784803  136.882421876    57.0864   2  10   0.7984   0.6388   1.4339  -0.1274   0.4243  -0.8497   0.03    1.1
2023/07/11 06:07:36.000   35.159695923  136.882474261    57.2635   2  16   0.5380   0.5194   1.1787   0.3476  -0.2440  -0.5490   0.03    1.1
2023/07/11 06:07:37.000   35.159604356  136.882523113    58.8766   2  18   0.4690   0.4894   1.0238   0.3441  -0.2613  -0.3892   0.03    1.1
2023/07/11 06:07:38.000   35.159519360  136.882579532    57.8062   2  19   0.4471   0.4850   1.0136   0.3303  -0.2424  -0.3620   0.03    1.2
2023/07/11 06:07:39.000   35.159436217  136.882634950    56.8042   2  19   0.4471   0.4850   1.0136   0.3303  -0.2423  -0.3620   0.03    1.1
2023/07/11 06:07:40.000   35.159355921  136.882679698    57.4497   2  19   0.4470   0.4850   1.0137   0.3303  -0.2422  -0.3620   0.03    1.1
2023/07/11 06:07:41.000   35.159281961  136.882729420    57.4709   2  19   0.4470   0.4850   1.0137   0.3302  -0.2420  -0.3620   0.03    1.0
2023/07/11 06:07:42.000   35.159215180  136.882770733    57.5319   2  19   0.4470   0.4850   1.0137   0.3302  -0.2419  -0.3620   0.03    1.1
2023/07/11 06:07:43.000   35.159155416  136.882820074    58.8290   1  17   0.0053   0.0122   0.0206   0.0063  -0.0141  -0.0078   0.03    5.7
2023/07/11 06:07:44.000   35.159107318  136.882854621    58.9018   1  17   0.0053   0.0117   0.0205   0.0063  -0.0139  -0.0078   0.03    6.6
2023/07/11 06:07:45.000   35.159064427  136.882881449    58.9326   1  17   0.0053   0.0116   0.0205   0.0063  -0.0139  -0.0078   0.03    6.9
2023/07/11 06:07:46.000   35.159027494  136.882897946    58.9414   1  17   0.0051   0.0106   0.0186   0.0057  -0.0123  -0.0070   0.03    6.0
2023/07/11 06:07:47.000   35.158996461  136.882908029    58.9449   1  17   0.0051   0.0106   0.0186   0.0057  -0.0123  -0.0070   0.03    7.6
2023/07/11 06:07:48.000   35.158973033  136.882915204    58.9386   1  17   0.0049   0.0075   0.0138   0.0046  -0.0076  -0.0055   0.03    8.1
2023/07/11 06:07:49.000   35.158957121  136.882913846    58.5599   2  18   0.4765   0.6179   1.1930   0.4150  -0.5463  -0.4846   0.03    1.7
2023/07/11 06:07:50.000   35.158948732  136.882912920    59.4429   2  17   0.4845   0.6225   1.2144   0.4229  -0.5302  -0.4636   0.03    1.1
2023/07/11 06:07:51.000   35.158950813  136.882933400    56.3912   2  17   0.4844   0.6226   1.2144   0.4229  -0.5301  -0.4636   0.03    1.1
2023/07/11 06:07:52.000   35.158951690  136.882932031    56.9167   2  17   0.4844   0.6226   1.2143   0.4229  -0.5300  -0.4636   0.03    1.1
2023/07/11 06:07:53.000   35.158953120  136.882932994    57.0371   2  17   0.4844   0.6226   1.2143   0.4229  -0.5299  -0.4636   0.03    1.1
2023/07/11 06:07:54.000   35.158952904  136.882932157    57.3984   2  17   0.4844   0.6226   1.2143   0.4229  -0.5298  -0.4636   0.03    1.1
2023/07/11 06:07:55.000   35.158953988  136.882933015    57.3733   2  17   0.4844   0.6226   1.2143   0.4229  -0.5297  -0.4636   0.03    1.1
2023/07/11 06:07:56.000   35.158955240  136.882934551    57.2357   2  17   0.4844   0.6226   1.2143   0.4229  -0.5296  -0.4636   0.03    1.9
2023/07/11 06:07:57.000   35.158954481  136.882935698    57.6459   2  17   0.4844   0.6226   1.2143   0.4228  -0.5295  -0.4636   0.03    1.8
2023/07/11 06:07:58.000   35.158955553  136.882937942    57.4112   2  17   0.4844   0.6226   1.2143   0.4228  -0.5294  -0.4636   0.03    1.8
2023/07/11 06:07:59.000   35.158956447  136.882939483    57.2073   2  17   0.4844   0.6226   1.2143   0.4228  -0.5293  -0.4636   0.03    1.7
2023/07/11 06:08:00.000   35.158955723  136.882938775    57.2193   2  17   0.4843   0.6226   1.2143   0.4228  -0.5292  -0.4636   0.03    1.7
2023/07/11 06:08:01.000   35.158956420  136.882938994    57.1787   2  17   0.4843   0.6226   1.2143   0.4228  -0.5291  -0.4636   0.03    1.8
2023/07/11 06:08:02.000   35.158955783  136.882939905    57.0973   2  17   0.4843   0.6226   1.2143   0.4228  -0.5290  -0.4636   0.03    1.7
2023/07/11 06:08:03.000   35.158956789  136.882941103    56.9535   2  17   0.4843   0.6226   1.2142   0.4228  -0.5289  -0.4636   0.03    1.8
2023/07/11 06:08:04.000   35.158957033  136.882941708    57.1358   2  17   0.4843   0.6226   1.2142   0.4227  -0.5289  -0.4636   0.03    1.7
2023/07/11 06:08:05.000   35.158957650  136.882942349    57.2094   2  17   0.4843   0.6226   1.2142   0.4227  -0.5288  -0.4636   0.03    2.0
2023/07/11 06:08:06.000   35.158957685  136.882942872    57.1811   2  17   0.4843   0.6226   1.2142   0.4227  -0.5287  -0.4636   0.03    1.7
2023/07/11 06:08:07.000   35.158957761  136.882943252    56.9234   2  18   0.4763   0.6179   1.1928   0.4147  -0.5447  -0.4845   0.03    1.7
2023/07/11 06:08:08.000   35.158957784  136.882943829    57.4000   2  17   0.4842   0.6226   1.2142   0.4227  -0.5285  -0.4636   0.03    1.7
2023/07/11 06:08:09.000   35.158958530  136.882944278    57.3336   2  17   0.4842   0.6226   1.2142   0.4227  -0.5284  -0.4636   0.03    1.6
2023/07/11 06:08:10.000   35.158958738  136.882944885    57.4195   2  17   0.4842   0.6226   1.2142   0.4227  -0.5283  -0.4636   0.03    1.6
2023/07/11 06:08:11.000   35.158959345  136.882945534    57.2209   2  17   0.4842   0.6226   1.2142   0.4227  -0.5282  -0.4636   0.03    1.5
2023/07/11 06:08:12.000   35.158958850  136.882944987    57.3941   2  17   0.4842   0.6226   1.2142   0.4226  -0.5281  -0.4636   0.03    1.5
2023/07/11 06:08:13.000   35.158958765  136.882944601    57.0059   2  18   0.4762   0.6179   1.1928   0.4146  -0.5442  -0.4845   0.03    1.4
2023/07/11 06:08:14.000   35.158959345  136.882946438    56.9335   2  18   0.4762   0.6179   1.1928   0.4146  -0.5441  -0.4845   0.03    1.4
2023/07/11 06:08:15.000   35.158960554  136.882946786    57.2990   2  17   0.4842   0.6227   1.2141   0.4226  -0.5278  -0.4636   0.03    1.5
2023/07/11 06:08:16.000   35.158960584  136.882946734    57.3667   2  17   0.4841   0.6227   1.2141   0.4226  -0.5277  -0.4636   0.03    1.5
2023/07/11 06:08:17.000   35.158960791  136.882947238    57.3268   2  17   0.4841   0.6227   1.2141   0.4226  -0.5276  -0.4636   0.03    1.4
2023/07/11 06:08:18.000   35.158962065  136.882948162    57.1415   2  17   0.4841   0.6227   1.2141   0.4226  -0.5275  -0.4635   0.03    1.5
2023/07/11 06:08:19.000   35.158959909  136.882946397    56.6379   2  18   0.4762   0.6179   1.1927   0.4146  -0.5437  -0.4844   0.03    1.3
2023/07/11 06:08:20.000   35.158962328  136.882949310    56.8247   2  17   0.4841   0.6227   1.2141   0.4225  -0.5273  -0.4635   0.03    1.4
2023/07/11 06:08:21.000   35.158962389  136.882950203    56.9015   2  17   0.4841   0.6227   1.2141   0.4225  -0.5272  -0.4635   0.03    1.4
2023/07/11 06:08:22.000   35.158962340  136.882949968    56.8432   2  17   0.4841   0.6227   1.2141   0.4225  -0.5271  -0.4635   0.03    1.4
2023/07/11 06:08:23.000   35.158962042  136.882949572    57.0340   2  17   0.4841   0.6227   1.2141   0.4225  -0.5270  -0.4635   0.03    1.5
2023/07/11 06:08:24.000   35.158960776  136.882948670    58.0605   2  18   0.4582   0.6190   1.0112   0.4098  -0.4819  -0.3316   0.03    1.8
2023/07/11 06:08:25.000   35.158960704  136.882948670    58.0667   2  18   0.4582   0.6190   1.0112   0.4098  -0.4819  -0.3316   0.03    1.8
2023/07/11 06:08:26.000   35.158960959  136.882947494    58.1303   2  18   0.4581   0.6190   1.0112   0.4098  -0.4818  -0.3316   0.03    1.9
2023/07/11 06:08:27.000   35.158960714  136.882948234    58.1603   2  18   0.4581   0.6191   1.0112   0.4098  -0.4818  -0.3316   0.03    1.8
2023/07/11 06:08:28.000   35.158960819  136.882947936    57.9740   2  18   0.4581   0.6191   1.0112   0.4098  -0.4817  -0.3316   0.03    1.9
2023/07/11 06:08:29.000   35.158961165  136.882947714    57.8791   2  18   0.4581   0.6191   1.0111   0.4098  -0.4816  -0.3316   0.03    1.8
2023/07/11 06:08:30.000   35.158961416  136.882948218    57.9399   2  18   0.4581   0.6191   1.0111   0.4098  -0.4816  -0.3316   0.03    2.0
2023/07/11 06:08:31.000   35.158961451  136.882948305    58.0035   2  18   0.4581   0.6191   1.0111   0.4098  -0.4815  -0.3316   0.03    1.9
2023/07/11 06:08:32.000   35.158961681  136.882949002    58.0297   2  18   0.4581   0.6191   1.0111   0.4098  -0.4815  -0.3316   0.03    1.9
2023/07/11 06:08:33.000   35.158960098  136.882947898    57.6496   2  19   0.4469   0.6136   0.9966   0.3995  -0.4959  -0.3566   0.03    1.6
2023/07/11 06:08:34.000   35.158959283  136.882947455    57.5567   2  19   0.4469   0.6136   0.9965   0.3995  -0.4958  -0.3566   0.03    1.8
2023/07/11 06:08:35.000   35.158961353  136.882947979    58.0252   2  18   0.4581   0.6192   1.0111   0.4098  -0.4813  -0.3316   0.03    1.8
2023/07/11 06:08:36.000   35.158961390  136.882949535    58.1593   2  18   0.4581   0.6192   1.0110   0.4098  -0.4812  -0.3316   0.03    2.0
2023/07/11 06:08:37.000   35.158960574  136.882948528    58.1638   2  18   0.4581   0.6192   1.0110   0.4098  -0.4812  -0.3316   0.03    1.8
2023/07/11 06:08:38.000   35.158959796  136.882948013    58.4380   2  18   0.4580   0.6192   1.0110   0.4098  -0.4811  -0.3317   0.03    1.8
2023/07/11 06:08:39.000   35.158960048  136.882947007    58.3252   2  18   0.4580   0.6192   1.0110   0.4098  -0.4811  -0.3317   0.03    2.0
2023/07/11 06:08:40.000   35.158959734  136.882947000    58.4495   2  18   0.4580   0.6192   1.0110   0.4098  -0.4810  -0.3317   0.03    1.9
2023/07/11 06:08:41.000   35.158958896  136.882946193    58.5244   2  18   0.4580   0.6192   1.0110   0.4098  -0.4810  -0.3317   0.03    1.8
2023/07/11 06:08:42.000   35.158958977  136.882945406    58.2688   2  18   0.4580   0.6192   1.0110   0.4098  -0.4809  -0.3317   0.03    1.8
2023/07/11 06:08:43.000   35.158958859  136.882944823    58.2537   2  18   0.4580   0.6193   1.0109   0.4098  -0.4809  -0.3317   0.03    1.9
2023/07/11 06:08:44.000   35.158957794  136.882943895    58.3382   2  18   0.4580   0.6193   1.0109   0.4098  -0.4808  -0.3317   0.03    1.9
2023/07/11 06:08:45.000   35.158957931  136.882943410    58.3560   2  18   0.4580   0.6193   1.0109   0.4098  -0.4807  -0.3317   0.03    1.9
2023/07/11 06:08:46.000   35.158958634  136.882943880    58.1348   2  18   0.4580   0.6193   1.0109   0.4098  -0.4807  -0.3317   0.03    1.9
2023/07/11 06:08:47.000   35.158958239  136.882942507    58.2675   2  18   0.4580   0.6193   1.0109   0.4098  -0.4806  -0.3317   0.03    1.8
2023/07/11 06:08:48.000   35.158957975  136.882940662    58.1620   2  18   0.4580   0.6193   1.0109   0.4098  -0.4806  -0.3317   0.03    1.9
2023/07/11 06:08:49.000   35.158957014  136.882940403    58.3213   2  18   0.4580   0.6193   1.0108   0.4098  -0.4805  -0.3317   0.03    1.8
2023/07/11 06:08:50.000   35.158956439  136.882940067    58.1553   2  18   0.4579   0.6193   1.0108   0.4098  -0.4805  -0.3317   0.03    1.8
2023/07/11 06:08:51.000   35.158955708  136.882938766    58.2086   2  18   0.4579   0.6193   1.0108   0.4098  -0.4804  -0.3317   0.03    1.8
2023/07/11 06:08:52.000   35.158954415  136.882939668    58.0408   2  18   0.4579   0.6194   1.0108   0.4098  -0.4803  -0.3318   0.03    2.1
2023/07/11 06:08:53.000   35.158936779  136.882924497    58.9528   1  17   0.0056   0.0071   0.0103   0.0053  -0.0047  -0.0032   0.03    4.2
2023/07/11 06:08:54.000   35.158925665  136.882946389    58.1338   2  19   0.4467   0.6138   0.9963   0.3995  -0.4948  -0.3567   0.03    1.0
2023/07/11 06:08:55.000   35.158901400  136.882953909    58.0719   2  19   0.4467   0.6138   0.9963   0.3995  -0.4947  -0.3567   0.03    1.0
2023/07/11 06:08:56.000   35.158873231  136.882959358    58.1913   2  18   0.4583   0.6155   1.0775   0.4052  -0.5131  -0.4115   0.03    1.1
2023/07/11 06:08:57.000   35.158845270  136.882968009    57.8809   2  19   0.4467   0.6138   0.9962   0.3995  -0.4946  -0.3567   0.03    1.0
2023/07/11 06:08:58.000   35.158816882  136.882970955    60.9090   2  19   0.4353   0.5430   0.9185   0.3617  -0.3663  -0.2974   0.03    1.1
2023/07/11 06:08:59.000   35.158795838  136.882999718    59.4704   2  20   0.4260   0.4846   0.8665   0.3300  -0.2440  -0.2475   0.03    1.1
2023/07/11 06:09:00.000   35.158776357  136.883019313    60.0063   2  20   0.4259   0.4846   0.8666   0.3300  -0.2439  -0.2475   0.03    1.1
2023/07/11 06:09:01.000   35.158757901  136.883034704    60.0089   2  20   0.4259   0.4846   0.8666   0.3299  -0.2438  -0.2475   0.03    1.4
2023/07/11 06:09:02.000   35.158740046  136.883066626    58.7664   2  20   0.4259   0.4846   0.8666   0.3299  -0.2437  -0.2474   0.03    1.4
2023/07/11 06:09:03.000   35.158712129  136.883087337    59.3618   1  20   0.0043   0.0049   0.0088   0.0033  -0.0024  -0.0024   0.03    3.2
2023/07/11 06:09:04.000   35.158698872  136.883133060    59.5280   1  20   0.0043   0.0049   0.0088   0.0033  -0.0024  -0.0024   0.03    3.4
2023/07/11 06:09:05.000   35.158698189  136.883197507    59.7308   2  20   0.4259   0.4846   0.8667   0.3298  -0.2435  -0.2474   0.03    2.7
2023/07/11 06:09:06.000   35.158699505  136.883256048    60.0324   2  19   0.4536   0.4866   0.8953   0.3399  -0.2505  -0.2559   0.03    2.6
2023/07/11 06:09:07.000   35.158696592  136.883304726    60.0700   1  15   0.0058   0.0051   0.0109   0.0039  -0.0028  -0.0046   0.03    3.6
2023/07/11 06:09:08.000   35.158704901  136.883369760    61.1188   2  13   0.6827   0.5008   1.3573   0.4046  -0.3511  -0.7342   0.03    1.1
2023/07/11 06:09:09.000   35.158717429  136.883434869    61.0702   2  12   0.8091   0.6205   1.5847   0.1053   0.4139  -0.9447   0.03    1.2
2023/07/11 06:09:10.000   35.158719477  136.883501945    61.9878   2  12   0.8091   0.6205   1.5847   0.1047   0.4142  -0.9446   0.03    1.9
2023/07/11 06:09:11.000   35.158736850  136.883576850    61.4319   2  12   0.8091   0.6205   1.5846   0.1042   0.4145  -0.9446   0.03    1.1
2023/07/11 06:09:12.000   35.158743321  136.883655139    61.8534   2  13   0.7758   0.6204   1.5728   0.0933   0.4167  -0.9208   0.03    1.0
2023/07/11 06:09:13.000   35.158750882  136.883742342    62.7929   2  13   0.6504   0.6104   1.3419   0.2360   0.2872  -0.7078   0.03    1.8
2023/07/11 06:09:14.000   35.158758712  136.883832487    64.4090   2  15   0.4855   0.6036   1.1447   0.2845   0.2433  -0.4760   0.03    1.1
2023/07/11 06:09:15.000   35.158788536  136.883929195    61.5334   2  18   0.4435   0.4846   0.9543   0.3287  -0.2374  -0.3299   0.03    1.1
2023/07/11 06:09:16.000   35.158798966  136.884028223    62.3640   2  20   0.4257   0.4845   0.8669   0.3296  -0.2425  -0.2473   0.03    1.0
2023/07/11 06:09:17.000   35.158818070  136.884132039    61.4709   2  20   0.4257   0.4845   0.8669   0.3295  -0.2425  -0.2473   0.03    1.2
2023/07/11 06:09:18.000   35.158829009  136.884244217    61.8191   2  20   0.4256   0.4845   0.8669   0.3295  -0.2424  -0.2473   0.03    1.3
2023/07/11 06:09:19.000   35.158843088  136.884354323    61.2814   2  20   0.4256   0.4845   0.8669   0.3295  -0.2423  -0.2473   0.03    1.3
2023/07/11 06:09:20.000   35.158849569  136.884464342    60.4091   1  20   0.0049   0.0050   0.0092   0.0036  -0.0025  -0.0029   0.03    3.3
2023/07/11 06:09:21.000   35.158871856  136.884583018    60.8754   2  19   0.4335   0.4846   0.9308   0.3284  -0.2362  -0.2986   0.03    2.0
2023/07/11 06:09:22.000   35.158883920  136.884697152    61.0048   2  19   0.4335   0.4846   0.9309   0.3284  -0.2361  -0.2986   0.03    1.2
2023/07/11 06:09:23.000   35.158891958  136.884807960    59.5209   1  20   0.0047   0.0050   0.0092   0.0035  -0.0023  -0.0023   0.03    3.1
2023/07/11 06:09:24.000   35.158909639  136.884923955    61.2928   2  20   0.4370   0.4858   0.8873   0.3346  -0.2552  -0.2825   0.03    1.7
2023/07/11 06:09:25.000   35.158926529  136.885031463    60.3437   2  19   0.4335   0.4846   0.9309   0.3283  -0.2357  -0.2986   0.03    1.0
2023/07/11 06:09:26.000   35.158943104  136.885149264    59.6058   2  18   0.4794   0.4858   1.1056   0.3337  -0.2496  -0.4555   0.03    1.4
2023/07/11 06:09:27.000   35.158952342  136.885253770    60.4750   2  19   0.4449   0.4847   1.0180   0.3266  -0.2262  -0.3612   0.03    1.1
2023/07/11 06:09:28.000   35.158964926  136.885355883    58.3084   1  20   0.0050   0.0052   0.0094   0.0035  -0.0021  -0.0025   0.03    3.1
2023/07/11 06:09:29.000   35.158981851  136.885458073    59.2460   2  20   0.4254   0.4845   0.8671   0.3292  -0.2414  -0.2472   0.03    2.9
2023/07/11 06:09:30.000   35.158993871  136.885546660    59.5229   2  20   0.4254   0.4845   0.8671   0.3292  -0.2414  -0.2472   0.03    2.8
2023/07/11 06:09:31.000   35.159007214  136.885627641    58.8352   2  19   0.4471   0.4857   0.9595   0.3338  -0.2513  -0.3385   0.03    1.0
2023/07/11 06:09:32.000   35.159010881  136.885688473    60.4519   2  15   0.5568   0.4936   1.1706   0.3553  -0.2854  -0.5557   0.03    1.0
2023/07/11 06:09:33.000   35.159023809  136.885738564    58.0734   2  18   0.4793   0.4858   1.1058   0.3334  -0.2484  -0.4554   0.03    1.2
2023/07/11 06:09:34.000   35.159029593  136.885777818    58.1458   2  18   0.4592   0.4858   0.9880   0.3344  -0.2531  -0.3732   0.03    1.1
2023/07/11 06:09:35.000   35.159022417  136.885800332    60.8849   2  18   0.4579   0.4846   1.0544   0.3263  -0.2247  -0.4003   0.03    1.1
2023/07/11 06:09:36.000   35.159036065  136.885830564    58.1239   2  18   0.4579   0.4846   1.0545   0.3262  -0.2246  -0.4003   0.03    1.0
2023/07/11 06:09:37.000   35.159038855  136.885866146    58.9160   2  20   0.4253   0.4844   0.8673   0.3290  -0.2408  -0.2471   0.03    1.1
2023/07/11 06:09:38.000   35.159046715  136.885906239    57.8365   2  20   0.4253   0.4844   0.8673   0.3290  -0.2407  -0.2471   0.03    1.0
2023/07/11 06:09:39.000   35.159052051  136.885960668    59.2792   2  20   0.4253   0.4844   0.8673   0.3290  -0.2406  -0.2471   0.03    1.3
2023/07/11 06:09:40.000   35.159062963  136.886022014    59.0687   2  20   0.4253   0.4844   0.8673   0.3290  -0.2405  -0.2471   0.03    1.0
2023/07/11 06:09:41.000   35.159069023  136.886088903    58.9267   2  20   0.4252   0.4844   0.8674   0.3290  -0.2404  -0.2471   0.03    1.0
2023/07/11 06:09:42.000   35.159080964  136.886160015    58.1122   2  20   0.4252   0.4844   0.8674   0.3289  -0.2403  -0.2470   0.03    1.9
2023/07/11 06:09:43.000   35.159087105  136.886233458    58.4098   2  16   0.4810   0.4911   0.8868   0.3526  -0.2324  -0.2385   0.03    1.2
2023/07/11 06:09:44.000   35.159100406  136.886309768    58.7654   2  19   0.4335   0.6409   0.9695   0.3896  -0.4750  -0.3213   0.03    1.0
2023/07/11 06:09:48.000   35.159188263  136.886612137    26.8548   2   6   2.0651   2.1121   6.7024   1.9473  -3.5644  -3.5815   0.03    0.0
2023/07/11 06:09:49.000   35.159130433  136.886542908    63.1149   1   9   0.0477   0.0659   0.0223   0.0553   0.0297   0.0258   0.03    4.6
2023/07/11 06:09:50.000   35.159159963  136.886587863    60.5097   2   6   1.4001   0.9117   2.5592  -0.6836   1.1499  -1.4261   0.03    1.3
2023/07/11 06:09:51.000   35.159186704  136.886624266    41.3051   1   6   0.0361   0.0185   0.0432  -0.0100   0.0207  -0.0352   0.03    3.0
2023/07/11 06:09:52.000   35.159173273  136.886664051    37.3226   1   7   0.0339   0.0151   0.0188   0.0198  -0.0066  -0.0111   0.03    4.0
2023/07/11 06:09:53.000   35.159092663  136.886362864    98.3922   2   6   1.0199   3.5848   6.7414   1.5175  -4.8226  -2.1219   0.03    1.0
2023/07/11 06:09:54.000   35.159113281  136.886712465    51.5673   2   7   0.8006   0.6291   1.3774   0.2695  -0.0875  -0.5815   0.03    1.4
2023/07/11 06:09:55.000   35.159118635  136.886723360    52.9079   2   7   0.8006   0.6290   1.3775   0.2693  -0.0870  -0.5813   0.03    1.0
2023/07/11 06:09:56.000   35.159138830  136.886732886    53.9161   2   7   0.8006   0.6290   1.3775   0.2692  -0.0864  -0.5810   0.03    1.2
2023/07/11 06:09:57.000   35.159150072  136.886725649    55.1489   2   7   0.7813   0.6244   1.3448   0.2926   0.1234  -0.6240   0.03    1.1
2023/07/11 06:09:58.000   35.159007786  136.886811420    70.6580   2   6   2.3174   1.1586   2.6760  -1.4193   1.4747  -2.3068   0.03    1.0
2023/07/11 06:09:59.000   35.159005781  136.886810567    70.8144   2   6   2.3161   1.1583   2.6739  -1.4185   1.4737  -2.3048   0.03    1.0
2023/07/11 06:10:00.000   35.159173541  136.886735899    55.3552   2   5   2.0644   1.0116   2.5962  -1.1714   1.3126  -2.1476   0.03    2.1
2023/07/11 06:10:01.000   35.159153584  136.886742553    57.3533   2   7   0.7921   0.6961   1.4139   0.1580   0.3813  -0.6964   0.03    2.1
2023/07/11 06:10:02.000   35.159151281  136.886751650    60.1688   2   5   1.0167   0.7428   1.4817  -0.3852   0.5109  -0.8901   0.03    1.0
2023/07/11 06:10:03.000   35.159133211  136.886749313    56.6755   2   7   0.8116   0.7032   1.4382   0.0850   0.3456  -0.6624   0.03    1.2
2023/07/11 06:10:04.000   35.159124412  136.886736493    54.4674   2   5   1.0903   0.8230   1.6001  -0.4387   0.6449  -0.8378   0.03    1.0
2023/07/11 06:10:05.000   35.159119773  136.886737059    55.0060   2   5   1.0906   0.8230   1.6001  -0.4389   0.6449  -0.8376   0.03    1.0
2023/07/11 06:10:06.000   35.159164125  136.886714206    54.4116   2   5   1.0557   0.8115   1.6200  -0.3917   0.6840  -0.9213   0.03    1.0
2023/07/11 06:10:07.000   35.159166643  136.886708459    53.1938   2   6   0.8355   0.6701   1.4167   0.3767   0.3294  -0.5845   0.03    1.1
2023/07/11 06:10:08.000   35.159145905  136.886698895    53.4677   2   7   0.8086   0.6616   1.4164   0.3456   0.3253  -0.5889   0.03    2.0
2023/07/11 06:10:09.000   35.159127584  136.886701795    54.5471   2   9   0.7132   0.6549   1.4018   0.3939   0.2947  -0.5187   0.03    1.6
2023/07/11 06:10:10.000   35.159127853  136.886712054    56.9943   2   9   0.7131   0.6497   1.3868   0.3926   0.2649  -0.5210   0.03    1.4
2023/07/11 06:10:11.000   35.159124919  136.886701035    54.8298   2   9   0.7132   0.6549   1.4019   0.3937   0.2952  -0.5186   0.03    1.1
2023/07/11 06:10:12.000   35.159124082  136.886698592    54.4999   2   9   0.7132   0.6548   1.4020   0.3937   0.2954  -0.5185   0.03    1.1
2023/07/11 06:10:13.000   35.159123419  136.886696377    54.2501   2   9   0.7132   0.6548   1.4021   0.3936   0.2957  -0.5184   0.03    1.2
2023/07/11 06:10:14.000   35.159123124  136.886695412    54.4220   2   9   0.7132   0.6548   1.4022   0.3935   0.2959  -0.5183   0.03    1.2
2023/07/11 06:10:15.000   35.159123463  136.886693020    54.2180   2   9   0.7133   0.6548   1.4022   0.3935   0.2962  -0.5182   0.03    1.3
2023/07/11 06:10:16.000   35.159122501  136.886691437    54.5014   2   9   0.7133   0.6548   1.4023   0.3934   0.2964  -0.5181   0.03    1.1
2023/07/11 06:10:17.000   35.159115368  136.886700438    55.9409   2   8   0.7940   0.7448   1.5161   0.1759   0.5407  -0.6849   0.03    1.4
2023/07/11 06:10:18.000   35.159129074  136.886739512    62.2135   2   7   0.8036   0.8403   1.6739   0.2808   0.7540  -0.6178   0.03    1.1
2023/07/11 06:10:19.000   35.159128026  136.886693363    53.7296   2   8   1.0201   0.7921   1.8574  -0.3769   0.7630  -1.0752   0.03    1.5
2023/07/11 06:10:20.000   35.159128766  136.886736200    62.1013   2   7   0.8038   0.8403   1.6742   0.2803   0.7544  -0.6179   0.03    1.1
2023/07/11 06:10:21.000   35.159129569  136.886735137    61.8481   2   7   0.8038   0.8403   1.6744   0.2800   0.7545  -0.6180   0.03    1.1
2023/07/11 06:10:22.000   35.159135302  136.886731707    60.5181   2   5   0.8177   0.8413   1.6936   0.2684   0.7617  -0.6479   0.03    1.3
2023/07/11 06:10:23.000   35.159137328  136.886729957    60.1610   2   5   0.8178   0.8413   1.6938   0.2682   0.7618  -0.6481   0.03    1.2
2023/07/11 06:10:29.000   35.158931707  136.886848298    83.4360   2   5   3.4106   1.9771   4.6316  -2.4180   2.8682  -3.8018   0.03    1.0
2023/07/11 06:10:30.000   35.158923228  136.886851797    84.6818   2   5   3.4081   1.9760   4.6272  -2.4163   2.8659  -3.7982   0.03    1.0
2023/07/11 06:10:31.000   35.159154326  136.886710109    60.2599   2   6   0.7953   0.7257   1.5050   0.4247   0.5242  -0.5335   0.03    1.0
2023/07/11 06:10:32.000   35.159153996  136.886709924    60.4807   2   6   0.7953   0.7257   1.5050   0.4246   0.5243  -0.5333   0.03    1.7
2023/07/11 06:10:33.000   35.158913355  136.886856372    85.8607   2   5   3.4007   1.9729   4.6142  -2.4111   2.8589  -3.7875   0.03    1.0
2023/07/11 06:10:34.000   35.159182800  136.886667496    58.4162   2   4   0.9645   0.8639   1.8270  -0.2773   0.9104  -0.9318   0.03    1.0
2023/07/11 06:10:35.000   35.159179427  136.886665857    58.6472   2   4   0.9647   0.8640   1.8272  -0.2778   0.9106  -0.9320   0.03    1.0
2023/07/11 06:10:36.000   35.159178292  136.886666535    58.8820   2   4   0.9649   0.8640   1.8273  -0.2783   0.9108  -0.9323   0.03    1.1
2023/07/11 06:10:39.000   35.159180858  136.886662170    58.8522   2   4   0.9656   0.8643   1.8278  -0.2797   0.9115  -0.9329   0.03    1.3
2023/07/11 06:10:40.000   35.159167708  136.886666067    58.9642   2   4   1.0442   0.8697   1.8285  -0.3417   0.9140  -0.9423   0.03    1.3
2023/07/11 06:10:41.000   35.159165079  136.886668924    59.1750   2   4   1.0444   0.8698   1.8287  -0.3421   0.9142  -0.9424   0.03    1.2
2023/07/11 06:10:42.000   35.159161983  136.886669990    59.2801   2   4   1.0446   0.8698   1.8288  -0.3425   0.9144  -0.9426   0.03    1.1
2023/07/11 06:10:44.000   35.159159459  136.886669634    59.2960   2   4   1.0451   0.8700   1.8291  -0.3433   0.9148  -0.9430   0.03    1.1
2023/07/11 06:10:45.000   35.159169584  136.886666015    59.4069   2   4   0.9668   0.8647   1.8288  -0.2826   0.9128  -0.9343   0.03    1.0
2023/07/11 06:10:46.000   35.159151607  136.886672670    60.4088   2   5   0.8392   0.6908   1.5307   0.4599   0.5547  -0.5150   0.03    2.4
2023/07/11 06:10:47.000   35.159142984  136.886675720    62.7292   2   7   0.7224   0.6882   1.4940   0.4669   0.5363  -0.4816   0.03    1.5
2023/07/11 06:10:48.000   35.159133236  136.886665703    66.1043   2   6   1.2813   0.9025   1.8823  -0.6566   0.7239  -1.0968   0.03    0.0
2023/07/11 06:10:49.000   35.158979022  136.886895021    95.7623   2   6   1.2709   1.0082   2.5810  -0.8042   1.3392  -1.6203   0.03    1.4
2023/07/11 06:10:50.000   35.159158233  136.886755075    62.4419   2  12   0.6764   0.8325   1.0567   0.6427   0.4106   0.1389   0.03    2.9
2023/07/11 06:10:51.000   35.159152937  136.886729404    74.8089   2  18   0.4433   0.5038   1.0451   0.3213  -0.2752  -0.3572   0.03    1.1
2023/07/11 06:10:52.000   35.159097591  136.886749053    83.6171   2   5   3.4963   1.0935   5.7861   1.6213  -1.7560  -4.1180   0.03    0.0
2023/07/11 06:10:54.000   35.159161998  136.886828995    67.4556   2  13   0.6936   0.9497   1.3333   0.6246   0.6011  -0.4263   0.03    1.5
2023/07/11 06:10:55.000   35.159205959  136.886851258    65.3437   2  18   0.4474   0.5032   1.0422   0.3363  -0.1297  -0.3422   0.03    1.1
2023/07/11 06:10:56.000   35.159218372  136.886824501    60.0885   2  18   0.4497   0.5245   0.9066   0.3635  -0.1264  -0.2262   0.03    1.6
2023/07/11 06:10:57.000   35.159234948  136.886841285    60.6053   2  19   0.4308   0.5021   0.8805   0.3423  -0.1889  -0.2231   0.03    1.6
2023/07/11 06:10:58.000   35.159252385  136.886856449    58.5842   2  19   0.4307   0.5021   0.8805   0.3422  -0.1888  -0.2231   0.03    1.6
2023/07/11 06:10:59.000   35.159246471  136.886825140    61.8572   2  20   0.4238   0.4841   0.8689   0.3270  -0.2336  -0.2463   0.03    1.2
2023/07/11 06:11:00.000   35.159256502  136.886840407    58.9746   2  20   0.4238   0.4841   0.8690   0.3269  -0.2335  -0.2463   0.03    1.3
2023/07/11 06:11:01.000   35.159244386  136.886836405    58.1389   1  20   0.0043   0.0049   0.0089   0.0033  -0.0023  -0.0024   0.03    3.2
2023/07/11 06:11:02.000   35.159249896  136.886838112    58.1389   1  20   0.0043   0.0049   0.0089   0.0033  -0.0023  -0.0024   0.03    3.5
2023/07/11 06:11:03.000   35.159250554  136.886838244    58.1436   1  20   0.0043   0.0049   0.0089   0.0033  -0.0023  -0.0024   0.03    4.2
2023/07/11 06:11:04.000   35.159250525  136.886838238    58.1462   1  20   0.0043   0.0049   0.0089   0.0033  -0.0023  -0.0024   0.03    4.1
2023/07/11 06:11:05.000   35.159251690  136.886838518    58.1350   1  20   0.0043   0.0049   0.0089   0.0033  -0.0023  -0.0024   0.03    3.8
2023/07/11 06:11:06.000   35.159259633  136.886839408    58.1403   1  20   0.0043   0.0049   0.0089   0.0033  -0.0023  -0.0024   0.03    4.4
2023/07/11 06:11:07.000   35.159277580  136.886837816    58.1241   1  20   0.0043   0.0049   0.0089   0.0033  -0.0023  -0.0024   0.03    3.4
2023/07/11 06:11:08.000   35.159314864  136.886831457    59.0028   2  20   0.4237   0.4841   0.8691   0.3267  -0.2328  -0.2462   0.03    3.0
2023/07/11 06:11:09.000   35.159354961  136.886819652    59.0203   2  20   0.4237   0.4841   0.8691   0.3267  -0.2327  -0.2462   0.03    2.1
2023/07/11 06:11:10.000   35.159406539  136.886808177    58.7084   2  19   0.4457   0.6152   0.9946   0.3991  -0.4873  -0.3570   0.03    1.1
2023/07/11 06:11:11.000   35.159466630  136.886793603    58.6816   2  19   0.4457   0.6152   0.9946   0.3991  -0.4873  -0.3570   0.03    1.1
2023/07/11 06:11:12.000   35.159533495  136.886777923    58.8093   2  19   0.4457   0.6152   0.9946   0.3991  -0.4872  -0.3570   0.03    1.0
2023/07/11 06:11:13.000   35.159604754  136.886758536    59.3213   2  18   0.4570   0.9511   1.4281   0.4817  -0.9902  -0.4795   0.03    1.7
2023/07/11 06:11:14.000   35.159682158  136.886740752    58.1660   1  18   0.0050   0.0109   0.0149   0.0058  -0.0107  -0.0053   0.03    3.9
2023/07/11 06:11:15.000   35.159767357  136.886714935    59.3136   2  18   0.4569   0.9509   1.4279   0.4816  -0.9899  -0.4794   0.03    1.1
2023/07/11 06:11:16.000   35.159859801  136.886703174    58.4388   2  17   0.4655   0.9508   1.4561   0.4820  -0.9890  -0.4521   0.03    1.1
2023/07/11 06:11:17.000   35.159943674  136.886666747    58.1589   2  19   0.4456   0.6153   0.9945   0.3991  -0.4870  -0.3570   0.03    1.5
2023/07/11 06:11:18.000   35.160031679  136.886649760    58.3514   2  19   0.4410   0.6115   0.9863   0.3916  -0.4743  -0.3454   0.03    1.1
2023/07/11 06:11:19.000   35.160128635  136.886625054    58.6255   2  21   0.4135   0.4831   0.8525   0.3221  -0.2203  -0.2122   0.03    1.0
2023/07/11 06:11:20.000   35.160220096  136.886595927    59.1098   2  20   0.4235   0.4840   0.8694   0.3264  -0.2317  -0.2462   0.03    1.1
2023/07/11 06:11:21.000   35.160319684  136.886577465    58.2632   1  20   0.0054   0.0074   0.0103   0.0051  -0.0035  -0.0019   0.03    7.5
2023/07/11 06:11:22.000   35.160417011  136.886552843    58.3000   1  18   0.0058   0.0091   0.0125   0.0060  -0.0065  -0.0043   0.03    4.3
2023/07/11 06:11:23.000   35.160515791  136.886527089    58.2957   1  19   0.0064   0.0103   0.0116   0.0070  -0.0064  -0.0041   0.03    3.6
2023/07/11 06:11:24.000   35.160614755  136.886507728    59.9585   2  17   0.4626   0.7269   1.2121   0.4370  -0.6838  -0.4576   0.03    1.0
2023/07/11 06:11:25.000   35.160716921  136.886485665    59.3003   2  15   0.5744   1.0666   2.1041   0.6266  -1.3034  -0.8379   0.03    2.4
2023/07/11 06:11:26.000   35.160820121  136.886472537    60.0976   2  12   0.8014   1.2383   2.6073   0.7884  -1.5152  -1.2764   0.03    1.1
2023/07/11 06:11:27.000   35.160861714  136.886394076    72.1013   2   7   2.3020   1.8932   6.2577   1.8448  -3.1756  -3.6914   0.03    1.0
2023/07/11 06:11:30.000   35.161207493  136.886478684    36.5149   2   9   1.0873   1.7219   1.9764   0.8948  -1.1961   0.3735   0.03    1.7
2023/07/11 06:11:31.000   35.161332054  136.886379705    58.4074   1  12   0.0119   0.0176   0.0300  -0.0062  -0.0202   0.0142   0.03    3.3
2023/07/11 06:11:32.000   35.161457705  136.886313110    66.1268   2  17   0.4334   0.5610   0.9605   0.3402  -0.4087  -0.2663   0.03    1.0
2023/07/11 06:11:33.000   35.161525857  136.886272217    61.0524   2  18   0.4455   0.6156   0.9950   0.3989  -0.4854  -0.3572   0.03    1.1
2023/07/11 06:11:34.000   35.161628255  136.886241258    60.2520   2  19   0.4455   0.6154   0.9943   0.3990  -0.4860  -0.3571   0.03    1.1
2023/07/11 06:11:35.000   35.161738873  136.886227057    60.6623   2  19   0.4937   0.5516   0.8701   0.4166  -0.2146  -0.2319   0.03    1.1
2023/07/11 06:11:36.000   35.161830629  136.886183479    59.5078   2  20   0.4232   0.4840   0.8697   0.3260  -0.2302  -0.2461   0.03    1.1
2023/07/11 06:11:37.000   35.161936244  136.886162635    59.2949   2  20   0.4232   0.4840   0.8697   0.3260  -0.2302  -0.2460   0.03    1.1
2023/07/11 06:11:38.000   35.162038843  136.886125890    57.9220   2  19   0.4412   0.5245   0.8903   0.3625  -0.1217  -0.1929   0.03    1.0
2023/07/11 06:11:39.000   35.162144090  136.886108300    58.7165   1  20   0.0058   0.0067   0.0100   0.0053   0.0026   0.0018   0.03    6.9
2023/07/11 06:11:40.000   35.162248578  136.886080983    58.7717   1  20   0.0058   0.0067   0.0100   0.0053   0.0026   0.0018   0.03    6.1
2023/07/11 06:11:41.000   35.162352467  136.886047323    59.0865   2  20   0.4231   0.4840   0.8698   0.3258  -0.2298  -0.2460   0.03    1.5
2023/07/11 06:11:42.000   35.162457280  136.886020812    58.8233   2  20   0.4231   0.4840   0.8698   0.3258  -0.2297  -0.2460   0.03    1.3
2023/07/11 06:11:43.000   35.162563527  136.885997785    59.6791   2  20   0.4231   0.4839   0.8699   0.3258  -0.2296  -0.2460   0.03    1.3
2023/07/11 06:11:44.000   35.162674480  136.885980668    58.7240   2  19   0.4454   0.6155   0.9942   0.3989  -0.4854  -0.3571   0.03    2.5
2023/07/11 06:11:45.000   35.162780990  136.885943919    58.3297   2  18   0.4496   0.7220   1.1182   0.4268  -0.6548  -0.3984   0.03    1.6
2023/07/11 06:11:46.000   35.162894331  136.885924235    58.1221   2  19   0.4234   0.5028   0.8936   0.3221  -0.2837  -0.2388   0.03    1.2
2023/07/11 06:11:47.000   35.163007605  136.885899881    59.5748   2  20   0.4230   0.4839   0.8699   0.3257  -0.2292  -0.2460   0.03    1.1
2023/07/11 06:11:48.000   35.163121811  136.885860891    59.5231   2  20   0.4230   0.4839   0.8700   0.3257  -0.2291  -0.2460   0.03    1.1
2023/07/11 06:11:49.000   35.163239371  136.885824560    59.8598   2  20   0.4230   0.4839   0.8700   0.3256  -0.2291  -0.2460   0.03    1.3
2023/07/11 06:11:50.000   35.163358572  136.885800435    59.6820   2  19   0.4442   0.4851   0.9617   0.3290  -0.2338  -0.3358   0.03    1.9
2023/07/11 06:11:51.000   35.163480445  136.885773964    59.6730   2  19   0.4236   0.4876   0.8792   0.3278  -0.2448  -0.2522   0.03    1.6
2023/07/11 06:11:52.000   35.163593441  136.885735391    59.3203   2  20   0.4229   0.4839   0.8701   0.3256  -0.2288  -0.2459   0.03    1.6
2023/07/11 06:11:53.000   35.163720270  136.885704720    59.0365   1  20   0.0062   0.0080   0.0098   0.0061   0.0037   0.0024   0.03    4.5
2023/07/11 06:11:54.000   35.163840752  136.885678314    59.7209   2  20   0.4229   0.4839   0.8701   0.3255  -0.2286  -0.2459   0.03    2.5
2023/07/11 06:11:55.000   35.163963981  136.885655256    59.2801   2  18   0.4239   0.5892   0.8808   0.3244  -0.2126  -0.2537   0.03    1.1
2023/07/11 06:11:56.000   35.164080041  136.885616631    58.9554   2  20   0.4228   0.4839   0.8701   0.3254  -0.2284  -0.2459   0.03    1.1
2023/07/11 06:11:57.000   35.164206238  136.885608734    58.4805   2  19   0.4328   0.5433   0.9200   0.3588  -0.3548  -0.2967   0.03    2.3
2023/07/11 06:11:58.000   35.164323945  136.885578033    59.6309   2  19   0.4453   0.6156   0.9941   0.3989  -0.4846  -0.3572   0.03    1.1
2023/07/11 06:11:59.000   35.164442374  136.885575284    58.0206   2  18   0.4494   0.7217   1.1181   0.4265  -0.6539  -0.3982   0.03    2.9
