% program   : RTKPOST ver.2.4.3 b34
% inp file  : C:\Users\Taro\Dropbox\github\rtklib_matlab\example\data\rover_1hz.obs
% inp file  : C:\Users\Taro\Dropbox\github\rtklib_matlab\example\data\base.nav
% obs start : 2023/07/11 06:04:30.0 GPST (week2270 194670.0s)
% obs end   : 2023/07/11 06:25:00.0 GPST (week2270 195900.0s)
%
% (lat/lon/height=WGS84/ellipsoidal,Q=1:fix,2:float,3:sbas,4:dgps,5:single,6:ppp,ns=# of satellites)
%  GPST                  latitude(deg) longitude(deg)  height(m)   Q  ns   sdn(m)   sde(m)   sdu(m)  sdne(m)  sdeu(m)  sdun(m) age(s)  ratio
2023/07/11 06:04:30.000   35.165393934  136.881442407    39.6452   5  20   3.4239   3.9531   8.3145   1.5390   1.6229  -1.1829   0.00    0.0
2023/07/11 06:04:31.000   35.165393682  136.881442635    39.5607   5  20   3.4238   3.9532   8.3150   1.5387   1.6246  -1.1825   0.00    0.0
2023/07/11 06:04:32.000   35.165394228  136.881442726    39.4483   5  20   3.4237   3.9532   8.3155   1.5383   1.6264  -1.1821   0.00    0.0
2023/07/11 06:04:33.000   35.165393680  136.881442906    39.3624   5  20   3.4237   3.9532   8.3160   1.5380   1.6281  -1.1816   0.00    0.0
2023/07/11 06:04:34.000   35.165393771  136.881443343    39.4357   5  20   3.4236   3.9532   8.3166   1.5377   1.6298  -1.1812   0.00    0.0
2023/07/11 06:04:35.000   35.165393773  136.881442727    39.2016   5  20   3.4235   3.9533   8.3171   1.5374   1.6316  -1.1808   0.00    0.0
2023/07/11 06:04:36.000   35.165393898  136.881443326    39.2295   5  20   3.4234   3.9533   8.3176   1.5371   1.6333  -1.1804   0.00    0.0
2023/07/11 06:04:37.000   35.165393421  136.881443466    39.2678   5  20   3.4234   3.9533   8.3182   1.5368   1.6351  -1.1800   0.00    0.0
2023/07/11 06:04:38.000   35.165392804  136.881443537    39.3533   5  20   3.4233   3.9534   8.3187   1.5365   1.6368  -1.1795   0.00    0.0
2023/07/11 06:04:39.000   35.165392530  136.881443041    39.3566   5  20   3.4232   3.9534   8.3192   1.5362   1.6385  -1.1791   0.00    0.0
2023/07/11 06:04:40.000   35.165392452  136.881442460    39.4205   5  20   3.4231   3.9534   8.3197   1.5358   1.6403  -1.1787   0.00    0.0
2023/07/11 06:04:41.000   35.165392053  136.881442441    39.5281   5  20   3.4231   3.9534   8.3203   1.5355   1.6420  -1.1783   0.00    0.0
2023/07/11 06:04:42.000   35.165391467  136.881442381    39.5619   5  20   3.4230   3.9535   8.3208   1.5352   1.6437  -1.1779   0.00    0.0
2023/07/11 06:04:43.000   35.165391827  136.881441458    39.4888   5  20   3.4229   3.9535   8.3213   1.5349   1.6454  -1.1774   0.00    0.0
2023/07/11 06:04:44.000   35.165391681  136.881441200    39.4852   5  20   3.4228   3.9535   8.3219   1.5346   1.6472  -1.1770   0.00    0.0
2023/07/11 06:04:45.000   35.165391611  136.881441297    39.6056   5  20   3.4227   3.9536   8.3224   1.5343   1.6489  -1.1766   0.00    0.0
2023/07/11 06:04:46.000   35.165391656  136.881441585    39.6506   5  20   3.4227   3.9536   8.3229   1.5340   1.6506  -1.1762   0.00    0.0
2023/07/11 06:04:47.000   35.165391840  136.881441251    39.4946   5  20   3.4226   3.9536   8.3234   1.5336   1.6523  -1.1758   0.00    0.0
2023/07/11 06:04:48.000   35.165391657  136.881441045    39.4432   5  20   3.4225   3.9537   8.3240   1.5333   1.6541  -1.1753   0.00    0.0
2023/07/11 06:04:49.000   35.165392288  136.881440171    39.3343   5  20   3.4224   3.9537   8.3245   1.5330   1.6558  -1.1749   0.00    0.0
2023/07/11 06:04:50.000   35.165392423  136.881440276    39.4113   5  20   3.4224   3.9537   8.3250   1.5327   1.6575  -1.1745   0.00    0.0
2023/07/11 06:04:51.000   35.165392527  136.881439272    39.1507   5  20   3.4223   3.9537   8.3256   1.5324   1.6592  -1.1741   0.00    0.0
2023/07/11 06:04:52.000   35.165392498  136.881438532    39.1758   5  20   3.4222   3.9538   8.3261   1.5321   1.6609  -1.1737   0.00    0.0
2023/07/11 06:04:53.000   35.165391853  136.881437796    39.0200   5  20   3.4221   3.9538   8.3266   1.5318   1.6626  -1.1732   0.00    0.0
2023/07/11 06:04:54.000   35.165391270  136.881438291    39.2007   5  20   3.4221   3.9538   8.3271   1.5314   1.6644  -1.1728   0.00    0.0
2023/07/11 06:04:55.000   35.165390861  136.881438349    39.2035   5  20   3.4220   3.9539   8.3277   1.5311   1.6661  -1.1724   0.00    0.0
2023/07/11 06:04:56.000   35.165391240  136.881438739    39.4474   5  20   3.4219   3.9539   8.3282   1.5308   1.6678  -1.1720   0.00    0.0
2023/07/11 06:04:57.000   35.165390875  136.881438300    39.3639   5  20   3.4218   3.9539   8.3287   1.5305   1.6695  -1.1716   0.00    0.0
2023/07/11 06:04:58.000   35.165390344  136.881437490    39.2679   5  20   3.4217   3.9540   8.3293   1.5302   1.6712  -1.1712   0.00    0.0
2023/07/11 06:04:59.000   35.165391060  136.881437278    39.0989   5  20   3.4217   3.9540   8.3298   1.5299   1.6729  -1.1707   0.00    0.0
2023/07/11 06:05:00.000   35.165390700  136.881437346    39.0572   5  20   3.4216   3.9540   8.3303   1.5295   1.6746  -1.1703   0.00    0.0
2023/07/11 06:05:01.000   35.165390594  136.881437078    39.1958   5  20   3.4215   3.9540   8.3309   1.5292   1.6763  -1.1699   0.00    0.0
2023/07/11 06:05:02.000   35.165390703  136.881436616    39.1696   5  20   3.4214   3.9541   8.3314   1.5289   1.6780  -1.1695   0.00    0.0
2023/07/11 06:05:03.000   35.165390109  136.881436673    39.1047   5  20   3.4214   3.9541   8.3319   1.5286   1.6797  -1.1691   0.00    0.0
2023/07/11 06:05:04.000   35.165390241  136.881437013    39.1199   5  20   3.4213   3.9541   8.3325   1.5283   1.6814  -1.1687   0.00    0.0
2023/07/11 06:05:05.000   35.165390737  136.881435886    39.1987   5  20   3.4212   3.9542   8.3330   1.5280   1.6831  -1.1682   0.00    0.0
2023/07/11 06:05:06.000   35.165391262  136.881432554    39.2109   5  20   3.4211   3.9542   8.3335   1.5276   1.6848  -1.1678   0.00    0.0
2023/07/11 06:05:07.000   35.165391191  136.881428205    39.4622   5  20   3.4211   3.9542   8.3340   1.5273   1.6865  -1.1674   0.00    0.0
2023/07/11 06:05:08.000   35.165389499  136.881421609    39.7586   5  20   3.4210   3.9543   8.3346   1.5270   1.6882  -1.1670   0.00    0.0
2023/07/11 06:05:09.000   35.165385937  136.881412970    39.8234   5  20   3.4209   3.9543   8.3351   1.5267   1.6899  -1.1666   0.00    0.0
2023/07/11 06:05:10.000   35.165380121  136.881403598    39.8629   5  20   3.4208   3.9543   8.3356   1.5264   1.6916  -1.1662   0.00    0.0
2023/07/11 06:05:11.000   35.165371755  136.881393131    39.4810   5  20   3.4207   3.9544   8.3362   1.5261   1.6933  -1.1657   0.00    0.0
2023/07/11 06:05:12.000   35.165358276  136.881384404    39.5554   5  20   3.4207   3.9544   8.3367   1.5257   1.6950  -1.1653   0.00    0.0
2023/07/11 06:05:13.000   35.165341864  136.881374725    39.8299   5  20   3.4206   3.9544   8.3372   1.5254   1.6966  -1.1649   0.00    0.0
2023/07/11 06:05:14.000   35.165324616  136.881361895    40.0599   5  20   3.4205   3.9545   8.3378   1.5251   1.6983  -1.1645   0.00    0.0
2023/07/11 06:05:15.000   35.165310381  136.881342260    39.9952   5  20   3.4204   3.9545   8.3383   1.5248   1.7000  -1.1641   0.00    0.0
2023/07/11 06:05:16.000   35.165301861  136.881316104    39.6342   5  20   3.4204   3.9545   8.3388   1.5245   1.7017  -1.1636   0.00    0.0
2023/07/11 06:05:17.000   35.165298835  136.881289202    39.5005   5  20   3.4203   3.9546   8.3394   1.5241   1.7034  -1.1632   0.00    0.0
2023/07/11 06:05:18.000   35.165297940  136.881263464    39.3089   5  20   3.4202   3.9546   8.3399   1.5238   1.7051  -1.1628   0.00    0.0
2023/07/11 06:05:19.000   35.165298562  136.881238597    39.3714   5  20   3.4201   3.9546   8.3404   1.5235   1.7068  -1.1624   0.00    0.0
2023/07/11 06:05:20.000   35.165299639  136.881211115    39.5913   5  20   3.4201   3.9547   8.3410   1.5232   1.7084  -1.1620   0.00    0.0
2023/07/11 06:05:21.000   35.165294247  136.881172096    41.3424   5  19   3.7054   4.3120   8.7209   2.1841  -1.2033  -2.2311   0.00    0.0
2023/07/11 06:05:22.000   35.165297000  136.881148878    41.2482   5  19   3.7053   4.3119   8.7216   2.1837  -1.2011  -2.2310   0.00    0.0
2023/07/11 06:05:23.000   35.165299044  136.881128668    41.2097   5  19   3.7052   4.3119   8.7223   2.1833  -1.1989  -2.2309   0.00    0.0
2023/07/11 06:05:24.000   35.165297775  136.881111427    41.2327   5  19   3.7050   4.3118   8.7230   2.1829  -1.1967  -2.2307   0.00    0.0
2023/07/11 06:05:25.000   35.165292982  136.881096443    41.3805   5  19   3.7049   4.3118   8.7236   2.1826  -1.1945  -2.2306   0.00    0.0
2023/07/11 06:05:26.000   35.165286688  136.881085267    41.2702   5  19   3.7047   4.3117   8.7243   2.1822  -1.1922  -2.2304   0.00    0.0
2023/07/11 06:05:27.000   35.165279437  136.881077332    41.2142   5  19   3.7046   4.3116   8.7250   2.1818  -1.1900  -2.2303   0.00    0.0
2023/07/11 06:05:28.000   35.165269921  136.881071370    41.4020   5  19   3.7044   4.3116   8.7257   2.1815  -1.1878  -2.2301   0.00    0.0
2023/07/11 06:05:29.000   35.165263018  136.881067380    41.4770   5  19   3.7043   4.3115   8.7264   2.1811  -1.1856  -2.2300   0.00    0.0
2023/07/11 06:05:30.000   35.165254412  136.881064876    41.3434   5  19   3.7041   4.3115   8.7270   2.1807  -1.1833  -2.2299   0.00    0.0
2023/07/11 06:05:31.000   35.165246452  136.881063103    41.4233   5  19   3.7040   4.3114   8.7277   2.1804  -1.1811  -2.2297   0.00    0.0
2023/07/11 06:05:32.000   35.165240821  136.881061390    41.4299   5  19   3.7038   4.3114   8.7284   2.1800  -1.1788  -2.2296   0.00    0.0
2023/07/11 06:05:33.000   35.165235626  136.881059937    41.0540   5  19   3.7037   4.3113   8.7291   2.1796  -1.1766  -2.2294   0.00    0.0
2023/07/11 06:05:34.000   35.165234500  136.881059792    40.5939   5  19   3.7035   4.3113   8.7298   2.1792  -1.1743  -2.2293   0.00    0.0
2023/07/11 06:05:35.000   35.165232090  136.881060326    40.7375   5  19   3.7034   4.3112   8.7304   2.1789  -1.1721  -2.2291   0.00    0.0
2023/07/11 06:05:36.000   35.165231618  136.881061109    40.7733   5  19   3.7033   4.3112   8.7311   2.1785  -1.1698  -2.2290   0.00    0.0
2023/07/11 06:05:37.000   35.165231087  136.881061583    40.7977   5  19   3.7031   4.3111   8.7318   2.1781  -1.1675  -2.2289   0.00    0.0
2023/07/11 06:05:38.000   35.165230899  136.881061489    40.8775   5  19   3.7030   4.3111   8.7325   2.1778  -1.1652  -2.2287   0.00    0.0
2023/07/11 06:05:39.000   35.165230739  136.881061994    41.0385   5  19   3.7028   4.3110   8.7332   2.1774  -1.1629  -2.2286   0.00    0.0
2023/07/11 06:05:40.000   35.165231347  136.881062218    40.9001   5  19   3.7027   4.3110   8.7338   2.1770  -1.1607  -2.2284   0.00    0.0
2023/07/11 06:05:41.000   35.165231324  136.881062257    41.0717   5  19   3.7025   4.3109   8.7345   2.1766  -1.1584  -2.2283   0.00    0.0
2023/07/11 06:05:42.000   35.165231679  136.881062586    40.9547   5  19   3.7024   4.3109   8.7352   2.1763  -1.1561  -2.2282   0.00    0.0
2023/07/11 06:05:43.000   35.165232062  136.881063400    40.8359   5  19   3.7022   4.3108   8.7359   2.1759  -1.1538  -2.2280   0.00    0.0
2023/07/11 06:05:44.000   35.165231848  136.881063896    41.0415   5  19   3.7021   4.3108   8.7366   2.1755  -1.1514  -2.2279   0.00    0.0
2023/07/11 06:05:45.000   35.165232612  136.881063721    41.0379   5  19   3.7019   4.3107   8.7373   2.1752  -1.1491  -2.2277   0.00    0.0
2023/07/11 06:05:46.000   35.165232913  136.881063960    40.9448   5  19   3.7018   4.3107   8.7379   2.1748  -1.1468  -2.2276   0.00    0.0
2023/07/11 06:05:47.000   35.165232095  136.881063420    41.1454   5  19   3.7016   4.3106   8.7386   2.1744  -1.1445  -2.2275   0.00    0.0
2023/07/11 06:05:48.000   35.165229257  136.881063485    40.8108   5  19   3.7015   4.3106   8.7393   2.1740  -1.1421  -2.2273   0.00    0.0
2023/07/11 06:05:49.000   35.165221540  136.881062937    40.6929   5  19   3.7013   4.3105   8.7400   2.1737  -1.1398  -2.2272   0.00    0.0
2023/07/11 06:05:50.000   35.165211395  136.881061489    40.7667   5  19   3.7012   4.3105   8.7407   2.1733  -1.1375  -2.2270   0.00    0.0
2023/07/11 06:05:51.000   35.165201691  136.881059939    40.6573   5  19   3.7011   4.3104   8.7414   2.1729  -1.1351  -2.2269   0.00    0.0
2023/07/11 06:05:52.000   35.165188968  136.881057913    40.6404   5  19   3.7009   4.3104   8.7420   2.1725  -1.1328  -2.2267   0.00    0.0
2023/07/11 06:05:53.000   35.165174880  136.881049273    40.5693   5  19   3.7008   4.3103   8.7427   2.1722  -1.1304  -2.2266   0.00    0.0
2023/07/11 06:05:54.000   35.165160294  136.881031884    40.8071   5  19   3.7006   4.3103   8.7434   2.1718  -1.1280  -2.2265   0.00    0.0
2023/07/11 06:05:55.000   35.165151367  136.881009259    40.8847   5  19   3.7005   4.3102   8.7441   2.1714  -1.1256  -2.2263   0.00    0.0
2023/07/11 06:05:56.000   35.165144331  136.880979415    40.8169   5  19   3.7003   4.3102   8.7448   2.1710  -1.1233  -2.2262   0.00    0.0
2023/07/11 06:05:57.000   35.165143977  136.880939879    41.1131   5  18   3.7035   4.7820   9.1733   2.0939  -2.6442  -2.1255   0.00    0.0
2023/07/11 06:05:58.000   35.165149083  136.880890206    41.8524   5  19   3.7000   4.3101   8.7462   2.1703  -1.1185  -2.2259   0.00    0.0
2023/07/11 06:05:59.000   35.165157243  136.880854592    40.9255   5  19   3.6999   4.3100   8.7468   2.1699  -1.1160  -2.2258   0.00    0.0
2023/07/11 06:06:00.000   35.165164757  136.880812630    41.3064   5  19   3.6997   4.3099   8.7475   2.1695  -1.1136  -2.2256   0.00    0.0
2023/07/11 06:06:01.000   35.165169768  136.880774822    41.5690   5  19   3.6996   4.3099   8.7482   2.1692  -1.1112  -2.2255   0.00    0.0
2023/07/11 06:06:02.000   35.165173840  136.880741065    41.1788   5  19   3.6994   4.3098   8.7489   2.1688  -1.1088  -2.2254   0.00    0.0
2023/07/11 06:06:03.000   35.165171004  136.880712280    41.0120   5  19   3.6993   4.3098   8.7496   2.1684  -1.1064  -2.2252   0.00    0.0
2023/07/11 06:06:04.000   35.165165086  136.880689230    41.1238   5  19   3.6991   4.3097   8.7503   2.1680  -1.1039  -2.2251   0.00    0.0
2023/07/11 06:06:05.000   35.165154760  136.880670667    41.0792   5  19   3.6990   4.3097   8.7509   2.1676  -1.1015  -2.2249   0.00    0.0
2023/07/11 06:06:06.000   35.165138501  136.880662197    42.2264   5  19   3.6988   4.3097   8.7516   2.1673  -1.0990  -2.2248   0.00    0.0
2023/07/11 06:06:07.000   35.165114050  136.880657694    43.6785   5  19   3.6987   4.3096   8.7523   2.1669  -1.0966  -2.2246   0.00    0.0
2023/07/11 06:06:08.000   35.165066701  136.880622518    49.4266   5  19   3.6986   4.3095   8.7530   2.1665  -1.0941  -2.2245   0.00    0.0
2023/07/11 06:06:09.000   35.165007120  136.880579591    55.4869   5  19   3.6984   4.3095   8.7537   2.1661  -1.0917  -2.2243   0.00    0.0
2023/07/11 06:06:10.000   35.164945116  136.880549743    59.4144   5  19   3.6983   4.3094   8.7544   2.1658  -1.0892  -2.2242   0.00    0.0
2023/07/11 06:06:11.000   35.164905559  136.880675870    39.1892   5  18   3.7944   5.5934  10.3090   2.7781  -4.5375  -3.0934   0.00    0.0
2023/07/11 06:06:12.000   35.164823775  136.880608186    42.1398   5  18   3.7943   5.5932  10.3093   2.7778  -4.5366  -3.0933   0.00    0.0
2023/07/11 06:06:13.000   35.164746301  136.880596319    41.0108   5  18   3.7941   5.5931  10.3096   2.7775  -4.5356  -3.0931   0.00    0.0
2023/07/11 06:06:14.000   35.164669080  136.880605834    39.2478   5  18   3.7940   5.5929  10.3099   2.7772  -4.5347  -3.0930   0.00    0.0
2023/07/11 06:06:15.000   35.164591007  136.880592123    40.3347   5  19   3.4204   5.5445  10.2399   2.9858  -4.6300  -2.7556   0.00    0.0
2023/07/11 06:06:16.000   35.164500596  136.880573185    44.4603   5  20   3.2892   4.2744   8.6308   2.3670  -1.4027  -1.5575   0.00    0.0
2023/07/11 06:06:17.000   35.164415864  136.880573669    44.9942   5  20   3.2890   4.2744   8.6316   2.3667  -1.4008  -1.5577   0.00    0.0
2023/07/11 06:06:18.000   35.164317860  136.880559831    45.9519   5  20   3.2888   4.2743   8.6324   2.3664  -1.3988  -1.5579   0.00    0.0
2023/07/11 06:06:19.000   35.164221470  136.880558127    44.8275   5  20   3.2887   4.2742   8.6333   2.3661  -1.3968  -1.5580   0.00    0.0
2023/07/11 06:06:20.000   35.164117449  136.880535484    42.1490   5  20   3.2885   4.2741   8.6341   2.3658  -1.3948  -1.5582   0.00    0.0
2023/07/11 06:06:21.000   35.164011653  136.880525811    41.1608   5  20   3.2884   4.2741   8.6349   2.3655  -1.3928  -1.5583   0.00    0.0
2023/07/11 06:06:22.000   35.163911678  136.880527994    41.3392   5  20   3.2882   4.2740   8.6357   2.3652  -1.3908  -1.5585   0.00    0.0
2023/07/11 06:06:23.000   35.163809015  136.880527801    41.4642   5  19   3.3558   4.2851   8.9379   2.3207  -1.1037  -1.9934   0.00    0.0
2023/07/11 06:06:24.000   35.163709052  136.880525472    40.3477   5  20   3.2879   4.2739   8.6374   2.3646  -1.3869  -1.5588   0.00    0.0
2023/07/11 06:06:25.000   35.163604119  136.880527784    40.9933   5  20   3.2877   4.2738   8.6382   2.3643  -1.3849  -1.5589   0.00    0.0
2023/07/11 06:06:26.000   35.163497242  136.880527600    40.5072   5  20   3.2876   4.2737   8.6390   2.3640  -1.3829  -1.5591   0.00    0.0
2023/07/11 06:06:27.000   35.163387723  136.880530447    39.8731   5  20   3.2874   4.2736   8.6398   2.3637  -1.3808  -1.5592   0.00    0.0
2023/07/11 06:06:28.000   35.163275862  136.880532559    39.4383   5  20   3.2873   4.2736   8.6407   2.3634  -1.3788  -1.5594   0.00    0.0
2023/07/11 06:06:29.000   35.163162164  136.880533732    38.7281   5  20   3.2871   4.2735   8.6415   2.3631  -1.3768  -1.5595   0.00    0.0
2023/07/11 06:06:30.000   35.163048898  136.880533634    38.1115   5  20   3.2869   4.2734   8.6423   2.3629  -1.3748  -1.5597   0.00    0.0
2023/07/11 06:06:31.000   35.162935988  136.880536074    37.9643   5  20   3.2868   4.2734   8.6431   2.3626  -1.3728  -1.5598   0.00    0.0
2023/07/11 06:06:32.000   35.162831635  136.880582088    32.8919   5  18   3.5769   8.5843  14.3738   3.9749  -9.3476  -4.2686   0.00    0.0
2023/07/11 06:06:33.000   35.162725631  136.880604699    31.4168   5  18   3.5766   8.5828  14.3739   3.9742  -9.3461  -4.2681   0.00    0.0
2023/07/11 06:06:34.000   35.162618205  136.880646866    30.8385   5  18   3.5764   8.5814  14.3739   3.9735  -9.3446  -4.2676   0.00    0.0
2023/07/11 06:06:35.000   35.162564081  136.880662328    29.5165   5  16   4.0693   9.3074  14.7752   4.6584  -9.0883  -3.5760   0.00    0.0
2023/07/11 06:06:36.000   35.162529164  136.880763147    26.1793   5  17   3.5779  10.5152  16.6045   3.8787 -11.7394  -4.1476   0.00    0.0
2023/07/11 06:06:37.000   35.162521356  136.880832113    35.1124   5  13   4.2346  10.8782  18.4285   4.2196 -12.5874  -4.7456   0.00    0.0
2023/07/11 06:06:48.000   35.161109854  136.881694629    51.9925   5   5  80.8977  22.8657  78.2139 -41.4896  40.4290 -77.8127   0.00    0.0
2023/07/11 06:06:49.000   35.161096661  136.881550720     5.1509   5   8  11.1503   7.7487  25.8040  -1.5689   6.8997 -13.4041   0.00    0.0
2023/07/11 06:07:17.000   35.161129057  136.881553461    63.5563   5  12   4.8106   6.3531  13.3805   3.4787  -4.8373  -4.9208   0.00    0.0
2023/07/11 06:07:18.000   35.161273481  136.881699634    19.7990   5  10   5.4665  12.9984  29.0532   6.7006 -16.1674  -7.5420   0.00    0.0
2023/07/11 06:07:19.000   35.161132637  136.881605033    31.2158   5  15   3.6624   6.2995  11.6598   3.1990  -4.4391  -2.6780   0.00    0.0
2023/07/11 06:07:20.000   35.161117781  136.881629194    33.1638   5  14   4.2218   5.9493  12.2393   3.6345  -5.4411  -3.7798   0.00    0.0
2023/07/11 06:07:21.000   35.161067541  136.881644785    41.8216   5  14   4.8723  10.6431  20.3561   5.5614 -12.6089  -5.4539   0.00    0.0
2023/07/11 06:07:22.000   35.161041926  136.881641766    34.1127   5  11   6.3488  13.9081  18.5228   8.1492 -10.6369  -3.3767   0.00    0.0
2023/07/11 06:07:23.000   35.160960881  136.881714674    91.9986   5  11   5.3297   8.5158  18.4099   5.5874   7.1609   6.1474   0.00    0.0
2023/07/11 06:07:24.000   35.160782274  136.881572559    84.9033   5  14   4.7113   6.2746  12.3722   4.1308  -5.2046  -4.1413   0.00    0.0
2023/07/11 06:07:25.000   35.160792542  136.881799675    64.8225   5  17   3.8058   6.0524  10.8331   3.5551  -4.4532  -2.1755   0.00    0.0
2023/07/11 06:07:26.000   35.160758521  136.882087807    36.2507   5  15   4.4227   9.6316  17.3258   4.6587 -10.5147  -2.8207   0.00    0.0
2023/07/11 06:07:27.000   35.160569985  136.881853627    46.0923   5  16   4.2556   6.9898  11.1109   4.3931  -3.3468  -0.2121   0.00    0.0
2023/07/11 06:07:28.000   35.160462254  136.881907809    45.3720   5  16   4.2553   6.9902  11.1111   4.3931  -3.3462  -0.2280   0.00    0.0
2023/07/11 06:07:29.000   35.160367815  136.882021992    37.8273   5  16   4.2550   6.9906  11.1113   4.3931  -3.3457  -0.2429   0.00    0.0
2023/07/11 06:07:30.000   35.160265141  136.882058807    37.7454   5  14   4.7880  13.5822  16.6050   6.6985 -11.1081  -4.6235   0.00    0.0
2023/07/11 06:07:31.000   35.160327127  136.882134532    65.0081   5  18   3.6441   5.6525  10.3193   3.2138  -4.4253  -2.5207   0.00    0.0
2023/07/11 06:07:32.000   35.160286356  136.882232729    60.0432   5  17   3.5338   5.5589  11.1813   3.0019  -4.7940  -3.2797   0.00    0.0
2023/07/11 06:07:33.000   35.160088466  136.882296334   -12.2443   5  15   3.9336   5.1669  11.5455   3.3043   3.7590   2.1753   0.00    0.0
2023/07/11 06:07:36.000   35.159664474  136.882483907    42.8365   5  17   3.7558   4.6559   9.7347   2.1267   1.5802  -3.1357   0.00    0.0
2023/07/11 06:07:37.000   35.159589563  136.882533744    39.8016   5  18   3.6525   4.2901   9.3502   2.4702  -1.5492  -2.7318   0.00    0.0
2023/07/11 06:07:38.000   35.159494365  136.882590007    41.4294   5  19   3.4588   4.2705   9.2704   2.3709  -1.3760  -2.4550   0.00    0.0
2023/07/11 06:07:39.000   35.159418895  136.882644291    38.6504   5  20   3.2760   4.2688   8.6993   2.3423  -1.2255  -1.5721   0.00    0.0
2023/07/11 06:07:40.000   35.159338810  136.882692181    38.6132   5  20   3.2758   4.2687   8.7001   2.3420  -1.2232  -1.5723   0.00    0.0
2023/07/11 06:07:41.000   35.159264827  136.882739597    39.4351   5  20   3.2757   4.2686   8.7009   2.3417  -1.2209  -1.5724   0.00    0.0
2023/07/11 06:07:42.000   35.159197874  136.882780936    39.2859   5  20   3.2755   4.2686   8.7017   2.3414  -1.2185  -1.5726   0.00    0.0
2023/07/11 06:07:43.000   35.159141556  136.882817562    40.3987   5  20   3.2753   4.2685   8.7026   2.3411  -1.2162  -1.5728   0.00    0.0
2023/07/11 06:07:44.000   35.159095617  136.882873185    37.1154   5  18   3.5595   8.4805  14.3754   3.9218  -9.2366  -4.2339   0.00    0.0
2023/07/11 06:07:45.000   35.159052616  136.882899051    37.4611   5  18   3.5592   8.4790  14.3754   3.9210  -9.2350  -4.2334   0.00    0.0
2023/07/11 06:07:46.000   35.159016149  136.882915570    37.6582   5  18   3.5590   8.4776  14.3754   3.9203  -9.2334  -4.2329   0.00    0.0
2023/07/11 06:07:47.000   35.158984860  136.882925228    37.7641   5  18   3.5587   8.4761  14.3754   3.9195  -9.2318  -4.2324   0.00    0.0
2023/07/11 06:07:48.000   35.158960561  136.882933525    37.4174   5  18   3.5585   8.4746  14.3754   3.9188  -9.2302  -4.2319   0.00    0.0
2023/07/11 06:07:49.000   35.158943748  136.882931003    38.3997   5  19   3.4090   5.5256  10.2772   2.9666  -4.5390  -2.7668   0.00    0.0
2023/07/11 06:07:50.000   35.158934471  136.882927644    39.4528   5  18   3.6410   5.6492  10.3275   3.2099  -4.4047  -2.5217   0.00    0.0
2023/07/11 06:07:51.000   35.158934546  136.882943673    37.6105   5  19   3.4088   5.5252  10.2780   2.9661  -4.5370  -2.7670   0.00    0.0
2023/07/11 06:07:52.000   35.158934840  136.882947016    37.3243   5  19   3.4086   5.5250  10.2784   2.9659  -4.5360  -2.7672   0.00    0.0
2023/07/11 06:07:53.000   35.158934392  136.882943671    37.9731   5  19   3.4085   5.5248  10.2788   2.9657  -4.5349  -2.7673   0.00    0.0
2023/07/11 06:07:54.000   35.158934176  136.882945072    37.9149   5  19   3.4084   5.5246  10.2792   2.9655  -4.5339  -2.7674   0.00    0.0
2023/07/11 06:07:55.000   35.158934345  136.882944693    38.0436   5  19   3.4083   5.5244  10.2796   2.9653  -4.5329  -2.7676   0.00    0.0
2023/07/11 06:07:56.000   35.158933632  136.882943215    38.2261   5  19   3.4082   5.5242  10.2800   2.9651  -4.5319  -2.7677   0.00    0.0
2023/07/11 06:07:57.000   35.158932794  136.882942319    38.7347   5  19   3.4080   5.5240  10.2804   2.9649  -4.5309  -2.7678   0.00    0.0
2023/07/11 06:07:58.000   35.158932956  136.882942518    38.7787   5  19   3.4079   5.5238  10.2807   2.9647  -4.5299  -2.7680   0.00    0.0
2023/07/11 06:07:59.000   35.158932537  136.882941346    38.9769   5  19   3.4078   5.5236  10.2811   2.9645  -4.5289  -2.7681   0.00    0.0
2023/07/11 06:08:00.000   35.158931965  136.882939838    39.3524   5  19   3.4077   5.5234  10.2815   2.9642  -4.5279  -2.7682   0.00    0.0
2023/07/11 06:08:01.000   35.158931705  136.882939001    39.5807   5  19   3.4076   5.5232  10.2819   2.9640  -4.5269  -2.7684   0.00    0.0
2023/07/11 06:08:02.000   35.158931041  136.882938779    39.6710   5  19   3.4074   5.5230  10.2823   2.9638  -4.5258  -2.7685   0.00    0.0
2023/07/11 06:08:03.000   35.158930814  136.882938104    39.9484   5  19   3.4073   5.5228  10.2827   2.9636  -4.5248  -2.7686   0.00    0.0
2023/07/11 06:08:04.000   35.158930800  136.882937588    40.0239   5  19   3.4072   5.5226  10.2831   2.9634  -4.5238  -2.7688   0.00    0.0
2023/07/11 06:08:05.000   35.158930559  136.882936415    40.4357   5  19   3.4071   5.5224  10.2835   2.9632  -4.5228  -2.7689   0.00    0.0
2023/07/11 06:08:06.000   35.158930822  136.882935391    40.5804   5  19   3.4070   5.5222  10.2839   2.9630  -4.5218  -2.7690   0.00    0.0
2023/07/11 06:08:07.000   35.158930575  136.882935142    40.7043   5  19   3.4068   5.5220  10.2843   2.9627  -4.5207  -2.7692   0.00    0.0
2023/07/11 06:08:08.000   35.158930059  136.882935017    40.8206   5  19   3.4067   5.5218  10.2847   2.9625  -4.5197  -2.7693   0.00    0.0
2023/07/11 06:08:09.000   35.158929353  136.882934684    40.7682   5  19   3.4066   5.5216  10.2850   2.9623  -4.5187  -2.7694   0.00    0.0
2023/07/11 06:08:10.000   35.158929564  136.882934553    40.7529   5  20   3.3386   5.5184   9.1953   2.9412  -4.4238  -2.1334   0.00    0.0
2023/07/11 06:08:11.000   35.158929753  136.882934644    40.7223   5  20   3.3385   5.5182   9.1955   2.9411  -4.4231  -2.1335   0.00    0.0
2023/07/11 06:08:12.000   35.158929782  136.882934367    40.5980   5  20   3.3383   5.5180   9.1957   2.9409  -4.4223  -2.1337   0.00    0.0
2023/07/11 06:08:13.000   35.158930688  136.882935252    40.5396   5  20   3.3382   5.5178   9.1959   2.9408  -4.4215  -2.1338   0.00    0.0
2023/07/11 06:08:14.000   35.158931061  136.882936540    40.4649   5  20   3.3381   5.5176   9.1961   2.9406  -4.4208  -2.1340   0.00    0.0
2023/07/11 06:08:15.000   35.158930868  136.882935355    40.5090   5  20   3.3380   5.5174   9.1963   2.9405  -4.4200  -2.1341   0.00    0.0
2023/07/11 06:08:16.000   35.158930790  136.882934675    40.4720   5  20   3.3379   5.5172   9.1965   2.9403  -4.4192  -2.1342   0.00    0.0
2023/07/11 06:08:17.000   35.158931071  136.882934510    40.5892   5  20   3.3378   5.5170   9.1967   2.9401  -4.4184  -2.1344   0.00    0.0
2023/07/11 06:08:18.000   35.158931972  136.882935262    40.7258   5  20   3.3377   5.5169   9.1969   2.9400  -4.4177  -2.1345   0.00    0.0
2023/07/11 06:08:19.000   35.158931852  136.882935731    40.7747   5  20   3.3375   5.5167   9.1971   2.9398  -4.4169  -2.1346   0.00    0.0
2023/07/11 06:08:20.000   35.158932205  136.882935523    40.8097   5  20   3.3374   5.5165   9.1973   2.9397  -4.4161  -2.1348   0.00    0.0
2023/07/11 06:08:21.000   35.158932803  136.882936866    40.6154   5  20   3.3373   5.5163   9.1975   2.9395  -4.4154  -2.1349   0.00    0.0
2023/07/11 06:08:22.000   35.158932544  136.882936991    40.6539   5  20   3.3372   5.5161   9.1977   2.9394  -4.4146  -2.1351   0.00    0.0
2023/07/11 06:08:23.000   35.158932250  136.882937171    40.5742   5  20   3.3371   5.5159   9.1979   2.9392  -4.4138  -2.1352   0.00    0.0
2023/07/11 06:08:24.000   35.158932771  136.882937805    40.5526   5  20   3.3370   5.5157   9.1981   2.9391  -4.4130  -2.1353   0.00    0.0
2023/07/11 06:08:25.000   35.158931949  136.882936752    40.5804   5  20   3.3369   5.5155   9.1983   2.9389  -4.4123  -2.1355   0.00    0.0
2023/07/11 06:08:26.000   35.158932424  136.882936274    40.6839   5  20   3.3367   5.5154   9.1985   2.9388  -4.4115  -2.1356   0.00    0.0
2023/07/11 06:08:27.000   35.158932672  136.882935324    40.7262   5  20   3.3366   5.5152   9.1987   2.9386  -4.4107  -2.1357   0.00    0.0
2023/07/11 06:08:28.000   35.158932780  136.882934515    40.5175   5  20   3.3365   5.5150   9.1989   2.9384  -4.4099  -2.1359   0.00    0.0
2023/07/11 06:08:29.000   35.158932703  136.882934446    40.5188   5  20   3.3364   5.5148   9.1991   2.9383  -4.4091  -2.1360   0.00    0.0
2023/07/11 06:08:30.000   35.158932554  136.882934361    40.5388   5  20   3.3363   5.5146   9.1993   2.9381  -4.4084  -2.1361   0.00    0.0
2023/07/11 06:08:31.000   35.158933177  136.882935662    40.5649   5  20   3.3362   5.5144   9.1995   2.9380  -4.4076  -2.1363   0.00    0.0
2023/07/11 06:08:32.000   35.158933416  136.882936186    40.5835   5  20   3.3360   5.5142   9.1997   2.9378  -4.4068  -2.1364   0.00    0.0
2023/07/11 06:08:33.000   35.158934010  136.882937461    40.4741   5  20   3.3359   5.5140   9.1999   2.9377  -4.4060  -2.1366   0.00    0.0
2023/07/11 06:08:34.000   35.158934178  136.882938213    40.4686   5  20   3.3358   5.5139   9.2001   2.9375  -4.4052  -2.1367   0.00    0.0
2023/07/11 06:08:35.000   35.158934487  136.882937970    40.5406   5  20   3.3357   5.5137   9.2003   2.9373  -4.4045  -2.1368   0.00    0.0
2023/07/11 06:08:36.000   35.158934265  136.882938940    40.6346   5  20   3.3356   5.5135   9.2005   2.9372  -4.4037  -2.1370   0.00    0.0
2023/07/11 06:08:37.000   35.158934188  136.882939843    40.5395   5  20   3.3355   5.5133   9.2006   2.9370  -4.4029  -2.1371   0.00    0.0
2023/07/11 06:08:38.000   35.158934127  136.882940474    40.5578   5  20   3.3354   5.5131   9.2008   2.9369  -4.4021  -2.1372   0.00    0.0
2023/07/11 06:08:39.000   35.158934618  136.882940561    40.4684   5  20   3.3352   5.5129   9.2010   2.9367  -4.4013  -2.1374   0.00    0.0
2023/07/11 06:08:40.000   35.158934563  136.882939875    40.5232   5  20   3.3351   5.5127   9.2012   2.9366  -4.4006  -2.1375   0.00    0.0
2023/07/11 06:08:41.000   35.158933769  136.882938404    40.5848   5  20   3.3350   5.5125   9.2014   2.9364  -4.3998  -2.1376   0.00    0.0
2023/07/11 06:08:42.000   35.158934183  136.882937266    40.3180   5  20   3.3349   5.5123   9.2016   2.9362  -4.3990  -2.1378   0.00    0.0
2023/07/11 06:08:43.000   35.158934309  136.882936865    40.2298   5  20   3.3348   5.5121   9.2018   2.9361  -4.3982  -2.1379   0.00    0.0
2023/07/11 06:08:44.000   35.158934126  136.882936411    40.0634   5  20   3.3347   5.5120   9.2020   2.9359  -4.3974  -2.1380   0.00    0.0
2023/07/11 06:08:45.000   35.158934385  136.882936099    40.1043   5  20   3.3346   5.5118   9.2022   2.9358  -4.3966  -2.1382   0.00    0.0
2023/07/11 06:08:46.000   35.158934793  136.882936917    39.7796   5  20   3.3344   5.5116   9.2024   2.9356  -4.3958  -2.1383   0.00    0.0
2023/07/11 06:08:47.000   35.158934931  136.882937087    39.6328   5  20   3.3343   5.5114   9.2026   2.9354  -4.3951  -2.1384   0.00    0.0
2023/07/11 06:08:48.000   35.158934776  136.882936113    39.6095   5  20   3.3342   5.5112   9.2028   2.9353  -4.3943  -2.1386   0.00    0.0
2023/07/11 06:08:49.000   35.158934374  136.882936541    39.6942   5  20   3.3341   5.5110   9.2030   2.9351  -4.3935  -2.1387   0.00    0.0
2023/07/11 06:08:50.000   35.158933843  136.882936481    39.5103   5  20   3.3340   5.5108   9.2032   2.9350  -4.3927  -2.1388   0.00    0.0
2023/07/11 06:08:51.000   35.158933644  136.882936412    39.3113   5  20   3.3339   5.5106   9.2034   2.9348  -4.3919  -2.1390   0.00    0.0
2023/07/11 06:08:52.000   35.158933100  136.882936579    38.7232   5  20   3.3337   5.5104   9.2036   2.9346  -4.3911  -2.1391   0.00    0.0
2023/07/11 06:08:53.000   35.158924333  136.882940203    38.8150   5  20   3.3336   5.5103   9.2038   2.9345  -4.3903  -2.1392   0.00    0.0
2023/07/11 06:08:54.000   35.158902541  136.882941542    38.9490   5  20   3.3335   5.5101   9.2040   2.9343  -4.3895  -2.1394   0.00    0.0
2023/07/11 06:08:55.000   35.158877035  136.882947558    39.0416   5  20   3.3334   5.5099   9.2042   2.9341  -4.3888  -2.1395   0.00    0.0
2023/07/11 06:08:56.000   35.158848704  136.882953203    39.7316   5  20   3.3333   5.5097   9.2044   2.9340  -4.3880  -2.1396   0.00    0.0
2023/07/11 06:08:57.000   35.158820696  136.882960882    38.8557   5  20   3.3332   5.5095   9.2046   2.9338  -4.3872  -2.1397   0.00    0.0
2023/07/11 06:08:58.000   35.158800388  136.882979532    39.5148   5  20   3.3330   5.5093   9.2048   2.9337  -4.3864  -2.1399   0.00    0.0
2023/07/11 06:08:59.000   35.158774678  136.882993854    40.5627   5  21   3.2207   4.2431   7.9002   2.3648  -1.6228  -0.7269   0.00    0.0
2023/07/11 06:09:00.000   35.158755094  136.883012089    40.6438   5  21   3.2206   4.2430   7.9007   2.3645  -1.6215  -0.7272   0.00    0.0
2023/07/11 06:09:01.000   35.158736387  136.883031261    40.1870   5  21   3.2204   4.2429   7.9013   2.3643  -1.6203  -0.7275   0.00    0.0
2023/07/11 06:09:02.000   35.158720516  136.883064007    38.1810   5  21   3.2203   4.2428   7.9019   2.3640  -1.6190  -0.7278   0.00    0.0
2023/07/11 06:09:03.000   35.158702749  136.883102363    38.2643   5  21   3.2201   4.2427   7.9024   2.3637  -1.6177  -0.7280   0.00    0.0
2023/07/11 06:09:04.000   35.158686984  136.883142417    39.1239   5  21   3.2199   4.2426   7.9030   2.3635  -1.6165  -0.7283   0.00    0.0
2023/07/11 06:09:05.000   35.158679196  136.883195134    39.6221   5  21   3.2198   4.2425   7.9036   2.3632  -1.6152  -0.7286   0.00    0.0
2023/07/11 06:09:06.000   35.158679842  136.883253742    39.7013   5  21   3.2196   4.2424   7.9041   2.3629  -1.6139  -0.7289   0.00    0.0
2023/07/11 06:09:07.000   35.158677607  136.883309890    39.9172   5  21   3.2195   4.2423   7.9047   2.3626  -1.6127  -0.7292   0.00    0.0
2023/07/11 06:09:08.000   35.158690607  136.883370183    42.2764   5  20   3.5068   4.2603   7.9959   2.4751  -1.4581   1.0665   0.00    0.0
2023/07/11 06:09:09.000   35.158685813  136.883442345    44.1570   5  19   3.5460   4.2602   7.9968   2.4756  -1.4563   1.0831   0.00    0.0
2023/07/11 06:09:10.000   35.158692136  136.883498595    43.2973   5  17   3.8445   4.6782   9.3306   1.8679   1.9997  -2.2950   0.00    0.0
2023/07/11 06:09:11.000   35.158646118  136.883592768    57.0573   5  15   4.6424   4.8021  11.2806   0.9149   3.2479  -4.6637   0.00    0.0
2023/07/11 06:09:12.000   35.158644752  136.883675407    59.8873   5  15   4.6423   4.8022  11.2815   0.9132   3.2497  -4.6639   0.00    0.0
2023/07/11 06:09:13.000   35.158667504  136.883758842    58.1134   5  16   4.2494   4.6991  10.2475   1.6374   2.4288  -3.5961   0.00    0.0
2023/07/11 06:09:14.000   35.158726558  136.883841935    50.5524   5  16   3.9774   4.7797  11.1908   1.3933   3.1485  -4.2784   0.00    0.0
2023/07/11 06:09:15.000   35.158783500  136.883929190    38.6777   5  19   3.3349   4.2754   9.0970   2.2628  -0.4072  -2.0502   0.00    0.0
2023/07/11 06:09:16.000   35.158790824  136.884024312    41.6062   5  21   3.2181   4.2415   7.9098   2.3602  -1.6012  -0.7319   0.00    0.0
2023/07/11 06:09:17.000   35.158808182  136.884127691    41.4910   5  21   3.2179   4.2414   7.9104   2.3600  -1.5999  -0.7322   0.00    0.0
2023/07/11 06:09:18.000   35.158816664  136.884242239    42.4705   5  21   3.2178   4.2413   7.9109   2.3597  -1.5987  -0.7325   0.00    0.0
2023/07/11 06:09:19.000   35.158828234  136.884348135    41.9874   5  21   3.2176   4.2412   7.9115   2.3594  -1.5974  -0.7328   0.00    0.0
2023/07/11 06:09:20.000   35.158843464  136.884464432    41.7049   5  21   3.2175   4.2411   7.9121   2.3591  -1.5961  -0.7331   0.00    0.0
2023/07/11 06:09:21.000   35.158856493  136.884575954    41.4264   5  21   3.2173   4.2410   7.9126   2.3589  -1.5948  -0.7334   0.00    0.0
2023/07/11 06:09:22.000   35.158865343  136.884694661    44.4787   5  21   3.2171   4.2409   7.9132   2.3586  -1.5935  -0.7337   0.00    0.0
2023/07/11 06:09:23.000   35.158882613  136.884804388    41.0384   5  21   3.2170   4.2408   7.9137   2.3583  -1.5922  -0.7340   0.00    0.0
2023/07/11 06:09:24.000   35.158891630  136.884921983    42.3285   5  21   3.2168   4.2407   7.9143   2.3581  -1.5910  -0.7343   0.00    0.0
2023/07/11 06:09:25.000   35.158906211  136.885032510    43.6969   5  21   3.2167   4.2406   7.9149   2.3578  -1.5897  -0.7346   0.00    0.0
2023/07/11 06:09:26.000   35.158919901  136.885150950    46.1168   5  21   3.2165   4.2405   7.9154   2.3575  -1.5884  -0.7349   0.00    0.0
2023/07/11 06:09:27.000   35.158936454  136.885252497    42.6227   5  21   3.2164   4.2404   7.9160   2.3572  -1.5871  -0.7352   0.00    0.0
2023/07/11 06:09:28.000   35.158951327  136.885350954    39.7384   5  21   3.2162   4.2403   7.9166   2.3570  -1.5858  -0.7355   0.00    0.0
2023/07/11 06:09:29.000   35.158965528  136.885453522    39.5826   5  21   3.2160   4.2402   7.9171   2.3567  -1.5845  -0.7358   0.00    0.0
2023/07/11 06:09:30.000   35.158976378  136.885545792    40.5688   5  21   3.2159   4.2401   7.9177   2.3564  -1.5832  -0.7361   0.00    0.0
2023/07/11 06:09:31.000   35.158986387  136.885624412    40.3077   5  21   3.2157   4.2400   7.9183   2.3562  -1.5819  -0.7364   0.00    0.0
2023/07/11 06:09:32.000   35.158983466  136.885690951    46.7462   5  21   3.2156   4.2399   7.9188   2.3559  -1.5806  -0.7367   0.00    0.0
2023/07/11 06:09:33.000   35.158984275  136.885739538    49.6362   5  21   3.2154   4.2398   7.9194   2.3556  -1.5793  -0.7370   0.00    0.0
2023/07/11 06:09:34.000   35.158992619  136.885776396    47.3997   5  21   3.2153   4.2397   7.9200   2.3553  -1.5780  -0.7373   0.00    0.0
2023/07/11 06:09:35.000   35.158998921  136.885801181    45.3194   5  21   3.2151   4.2396   7.9205   2.3551  -1.5767  -0.7376   0.00    0.0
2023/07/11 06:09:36.000   35.159007753  136.885834433    45.1439   5  21   3.2150   4.2395   7.9211   2.3548  -1.5754  -0.7379   0.00    0.0
2023/07/11 06:09:37.000   35.159020741  136.885862547    40.1824   5  21   3.2148   4.2395   7.9217   2.3545  -1.5740  -0.7382   0.00    0.0
2023/07/11 06:09:38.000   35.159029710  136.885900768    38.0184   5  21   3.2146   4.2394   7.9223   2.3543  -1.5727  -0.7386   0.00    0.0
2023/07/11 06:09:39.000   35.159032001  136.885955859    40.7220   5  21   3.2145   4.2393   7.9228   2.3540  -1.5714  -0.7389   0.00    0.0
2023/07/11 06:09:40.000   35.159043943  136.886016160    40.4290   5  21   3.2143   4.2392   7.9234   2.3537  -1.5701  -0.7392   0.00    0.0
2023/07/11 06:09:41.000   35.159050761  136.886083078    39.8940   5  21   3.2142   4.2391   7.9240   2.3534  -1.5688  -0.7395   0.00    0.0
2023/07/11 06:09:42.000   35.159061620  136.886153656    39.0338   5  21   3.2140   4.2390   7.9245   2.3532  -1.5675  -0.7398   0.00    0.0
2023/07/11 06:09:43.000   35.159070422  136.886225553    39.5289   5  21   3.2139   4.2389   7.9251   2.3529  -1.5661  -0.7401   0.00    0.0
2023/07/11 06:09:44.000   35.159082874  136.886303901    39.6233   5  19   3.3480   5.8713   9.2406   2.7938  -4.1797  -2.2055   0.00    0.0
2023/07/11 06:09:45.000   35.159106502  136.886406136    34.0579   5  17   4.3782   9.8002  12.6598   5.2586  -8.8778  -4.0046   0.00    0.0
2023/07/11 06:09:46.000   35.159105262  136.886453176    34.3953   5  14   4.5293   9.9810  12.8718   5.2694  -8.8690  -3.6620   0.00    0.0
2023/07/11 06:09:47.000   35.159068004  136.886464093    43.2839   5  20   3.4591   4.4030   7.9819   2.6567  -1.1512   0.8025   0.00    0.0
2023/07/11 06:09:48.000   35.159096864  136.886564769    51.2968   5  21   3.2131   4.2384   7.9279   2.3515  -1.5595  -0.7416   0.00    0.0
2023/07/11 06:09:49.000   35.159114333  136.886556653    49.3531   5  21   3.2129   4.2383   7.9285   2.3512  -1.5582  -0.7420   0.00    0.0
2023/07/11 06:09:50.000   35.159124225  136.886606667    42.4617   5  21   3.2128   4.2382   7.9291   2.3510  -1.5569  -0.7423   0.00    0.0
2023/07/11 06:09:51.000   35.159123032  136.886639921    27.7466   5  21   3.2126   4.2381   7.9296   2.3507  -1.5555  -0.7426   0.00    0.0
2023/07/11 06:09:52.000   35.159088737  136.886659922    26.9037   5  20   3.2128   4.6400   8.4390   2.3320  -2.8049  -0.6483   0.00    0.0
2023/07/11 06:10:50.000   35.159098443  136.886719390    41.5051   5  21   3.2035   4.2326   7.9633   2.3343  -1.4736  -0.7616   0.00    0.0
2023/07/11 06:10:51.000   35.159116106  136.886687966    62.1784   5  21   3.2033   4.2325   7.9638   2.3340  -1.4722  -0.7620   0.00    0.0
2023/07/11 06:10:52.000   35.159153381  136.886714537    38.0837   5  21   3.2031   4.2324   7.9644   2.3337  -1.4707  -0.7623   0.00    0.0
2023/07/11 06:10:53.000   35.159133367  136.886828569    37.4086   5  19   3.5096   4.2588   8.5309   2.4483  -1.4667   1.4237   0.00    0.0
2023/07/11 06:10:54.000   35.159133689  136.886915320    67.7139   5  21   3.2028   4.2322   7.9655   2.3332  -1.4679  -0.7630   0.00    0.0
2023/07/11 06:10:55.000   35.159171461  136.886864578    57.3869   5  21   3.2027   4.2321   7.9661   2.3329  -1.4664  -0.7633   0.00    0.0
2023/07/11 06:10:56.000   35.159203764  136.886862997    50.5196   5  21   3.2025   4.2320   7.9667   2.3326  -1.4650  -0.7637   0.00    0.0
2023/07/11 06:10:57.000   35.159223124  136.886871698    46.2919   5  21   3.2024   4.2320   7.9673   2.3323  -1.4635  -0.7640   0.00    0.0
2023/07/11 06:10:58.000   35.159244163  136.886882706    44.8054   5  21   3.2022   4.2319   7.9678   2.3320  -1.4621  -0.7644   0.00    0.0
2023/07/11 06:10:59.000   35.159230598  136.886834404    45.3555   5  21   3.2021   4.2318   7.9684   2.3318  -1.4606  -0.7647   0.00    0.0
2023/07/11 06:11:00.000   35.159236366  136.886819658    41.2634   5  21   3.2019   4.2317   7.9690   2.3315  -1.4591  -0.7650   0.00    0.0
2023/07/11 06:11:01.000   35.159243629  136.886827087    41.0113   5  21   3.2017   4.2316   7.9695   2.3312  -1.4577  -0.7654   0.00    0.0
2023/07/11 06:11:02.000   35.159245251  136.886825310    40.0669   5  21   3.2016   4.2315   7.9701   2.3309  -1.4562  -0.7657   0.00    0.0
2023/07/11 06:11:03.000   35.159242065  136.886825130    40.4640   5  21   3.2014   4.2314   7.9707   2.3306  -1.4548  -0.7660   0.00    0.0
2023/07/11 06:11:04.000   35.159238824  136.886823994    40.9347   5  21   3.2013   4.2313   7.9713   2.3303  -1.4533  -0.7664   0.00    0.0
2023/07/11 06:11:05.000   35.159238985  136.886827055    41.3128   5  21   3.2011   4.2312   7.9718   2.3301  -1.4518  -0.7667   0.00    0.0
2023/07/11 06:11:06.000   35.159245943  136.886828576    40.9116   5  21   3.2010   4.2311   7.9724   2.3298  -1.4504  -0.7671   0.00    0.0
2023/07/11 06:11:07.000   35.159262484  136.886828366    41.0746   5  21   3.2008   4.2310   7.9730   2.3295  -1.4489  -0.7674   0.00    0.0
2023/07/11 06:11:08.000   35.159291977  136.886820917    40.9652   5  21   3.2007   4.2309   7.9735   2.3292  -1.4474  -0.7678   0.00    0.0
2023/07/11 06:11:09.000   35.159333224  136.886809333    40.7311   5  21   3.2005   4.2309   7.9741   2.3289  -1.4459  -0.7681   0.00    0.0
2023/07/11 06:11:10.000   35.159384565  136.886797682    40.6437   5  21   3.2003   4.2308   7.9747   2.3286  -1.4445  -0.7685   0.00    0.0
2023/07/11 06:11:11.000   35.159442471  136.886775023    42.1000   5  21   3.2002   4.2307   7.9753   2.3284  -1.4430  -0.7689   0.00    0.0
2023/07/11 06:11:12.000   35.159511330  136.886772123    40.6207   5  20   3.3172   5.4833   9.2304   2.9101  -4.2761  -2.1569   0.00    0.0
2023/07/11 06:11:13.000   35.159577936  136.886729887    44.2569   5  21   3.1999   4.2305   7.9764   2.3278  -1.4400  -0.7697   0.00    0.0
2023/07/11 06:11:14.000   35.159657588  136.886705773    44.8686   5  20   3.2005   4.6167   8.5046   2.3001  -2.7425  -0.6249   0.00    0.0
2023/07/11 06:11:15.000   35.159744071  136.886704987    42.4090   5  21   3.1996   4.2303   7.9775   2.3272  -1.4370  -0.7704   0.00    0.0
2023/07/11 06:11:16.000   35.159838692  136.886691612    41.9436   5  20   3.2002   4.6162   8.5062   2.2993  -2.7409  -0.6245   0.00    0.0
2023/07/11 06:11:17.000   35.159926133  136.886660670    41.6387   5  21   3.1993   4.2301   7.9787   2.3267  -1.4340  -0.7712   0.00    0.0
2023/07/11 06:11:18.000   35.160009904  136.886637880    41.5782   5  21   3.1991   4.2300   7.9792   2.3264  -1.4326  -0.7716   0.00    0.0
2023/07/11 06:11:19.000   35.160107153  136.886623403    40.1883   5  21   3.1990   4.2299   7.9798   2.3261  -1.4311  -0.7720   0.00    0.0
2023/07/11 06:11:20.000   35.160198488  136.886588431    41.8516   5  21   3.1988   4.2299   7.9804   2.3258  -1.4296  -0.7724   0.00    0.0
2023/07/11 06:11:21.000   35.160297811  136.886577160    42.0685   5  21   3.1986   4.2298   7.9809   2.3255  -1.4281  -0.7729   0.00    0.0
2023/07/11 06:11:22.000   35.160395248  136.886546832    41.7265   5  21   3.1985   4.2297   7.9815   2.3253  -1.4266  -0.7733   0.00    0.0
2023/07/11 06:11:23.000   35.160481883  136.886465519    48.6363   5  21   3.1983   4.2296   7.9821   2.3250  -1.4250  -0.7737   0.00    0.0
2023/07/11 06:11:24.000   35.160589339  136.886507696    45.8114   5  20   3.3158   5.4809   9.2326   2.9079  -4.2658  -2.1587   0.00    0.0
2023/07/11 06:11:25.000   35.160682412  136.886462740    54.6361   5  19   3.3944   7.9918  12.5045   3.5609  -8.2000  -3.2844   0.00    0.0
2023/07/11 06:11:26.000   35.160768932  136.886364840    67.0429   5  20   3.1987   4.6133   8.5142   2.2954  -2.7330  -0.6226   0.00    0.0
2023/07/11 06:11:27.000   35.160827452  136.886425902    58.7769   5  18   3.7577   5.8634   9.2692   2.9245  -4.0596  -2.1175   0.00    0.0
2023/07/11 06:11:32.000   35.161440564  136.886313502    49.4510   5  19   3.2535   4.6266   8.6268   2.3411  -2.8191  -1.0959   0.00    0.0
2023/07/11 06:11:33.000   35.161500525  136.886262245    40.4269   5  20   3.2518   4.2531   8.1261   2.3798  -1.6331  -1.2224   0.00    0.0
2023/07/11 06:11:34.000   35.161600426  136.886231014    42.9166   5  21   3.1966   4.2286   7.9883   2.3219  -1.4083  -0.7782   0.00    0.0
2023/07/11 06:11:35.000   35.161716539  136.886227615    43.9591   5  20   3.5787   4.6609   8.1891   2.9231   1.2446   1.5132   0.00    0.0
2023/07/11 06:11:36.000   35.161810290  136.886183648    40.7924   5  21   3.1963   4.2284   7.9895   2.3213  -1.4053  -0.7790   0.00    0.0
2023/07/11 06:11:37.000   35.161920241  136.886170811    41.3026   5  21   3.1962   4.2283   7.9901   2.3210  -1.4037  -0.7794   0.00    0.0
2023/07/11 06:11:38.000   35.162024986  136.886139499    40.9198   5  21   3.1960   4.2282   7.9906   2.3207  -1.4022  -0.7798   0.00    0.0
2023/07/11 06:11:39.000   35.162127993  136.886111438    39.1052   5  21   3.1959   4.2282   7.9912   2.3204  -1.4007  -0.7803   0.00    0.0
2023/07/11 06:11:40.000   35.162234374  136.886087273    38.6194   5  21   3.1957   4.2281   7.9918   2.3201  -1.3991  -0.7807   0.00    0.0
2023/07/11 06:11:41.000   35.162334245  136.886048201    40.6153   5  21   3.1956   4.2280   7.9923   2.3199  -1.3976  -0.7811   0.00    0.0
2023/07/11 06:11:42.000   35.162439327  136.886020697    40.4220   5  21   3.1954   4.2279   7.9929   2.3196  -1.3960  -0.7815   0.00    0.0
2023/07/11 06:11:43.000   35.162546913  136.886001394    41.5785   5  21   3.1952   4.2278   7.9935   2.3193  -1.3945  -0.7819   0.00    0.0
2023/07/11 06:11:44.000   35.162654467  136.885980589    40.6165   5  20   3.3135   5.4768   9.2363   2.9042  -4.2484  -2.1619   0.00    0.0
2023/07/11 06:11:45.000   35.162758611  136.885944737    40.8443   5  20   3.3134   5.4766   9.2365   2.9040  -4.2475  -2.1620   0.00    0.0
2023/07/11 06:11:46.000   35.162872444  136.885914682    41.4419   5  21   3.1948   4.2275   7.9952   2.3184  -1.3898  -0.7832   0.00    0.0
2023/07/11 06:11:47.000   35.162981260  136.885891601    43.0101   5  21   3.1946   4.2274   7.9958   2.3181  -1.3883  -0.7836   0.00    0.0
2023/07/11 06:11:48.000   35.163100156  136.885859596    40.8269   5  21   3.1945   4.2274   7.9963   2.3179  -1.3867  -0.7840   0.00    0.0
2023/07/11 06:11:49.000   35.163220432  136.885829585    40.6381   5  21   3.1943   4.2273   7.9969   2.3176  -1.3852  -0.7845   0.00    0.0
2023/07/11 06:11:50.000   35.163340420  136.885798391    40.5501   5  21   3.1942   4.2272   7.9975   2.3173  -1.3836  -0.7849   0.00    0.0
2023/07/11 06:11:51.000   35.163458467  136.885773708    41.5440   5  21   3.1940   4.2271   7.9980   2.3170  -1.3820  -0.7853   0.00    0.0
2023/07/11 06:11:52.000   35.163574926  136.885740733    40.9420   5  21   3.1939   4.2270   7.9986   2.3167  -1.3805  -0.7858   0.00    0.0
2023/07/11 06:11:53.000   35.163699031  136.885714018    42.1223   5  21   3.1937   4.2269   7.9992   2.3164  -1.3789  -0.7862   0.00    0.0
2023/07/11 06:11:54.000   35.163824381  136.885686447    41.1205   5  21   3.1936   4.2268   7.9997   2.3161  -1.3773  -0.7866   0.00    0.0
2023/07/11 06:11:55.000   35.163943535  136.885665284    41.1878   5  21   3.1934   4.2267   8.0003   2.3159  -1.3757  -0.7870   0.00    0.0
2023/07/11 06:11:56.000   35.164061613  136.885618925    39.9867   5  21   3.1932   4.2267   8.0009   2.3156  -1.3742  -0.7875   0.00    0.0
2023/07/11 06:11:57.000   35.164185130  136.885600871    40.3555   5  21   3.1931   4.2266   8.0014   2.3153  -1.3726  -0.7879   0.00    0.0
2023/07/11 06:11:58.000   35.164305363  136.885580853    41.4799   5  20   3.3119   5.4740   9.2389   2.9016  -4.2361  -2.1641   0.00    0.0
2023/07/11 06:11:59.000   35.164420902  136.885559758    41.2754   5  21   3.1928   4.2264   8.0026   2.3147  -1.3694  -0.7888   0.00    0.0
2023/07/11 06:12:00.000   35.164514306  136.885529009    48.6576   5  21   3.1926   4.2263   8.0032   2.3144  -1.3678  -0.7892   0.00    0.0
2023/07/11 06:12:55.000   35.164725889  136.885506111    87.9107   5  19   3.3048   4.5670   8.3588   2.0129   1.1784  -1.6401   0.00    0.0
2023/07/11 06:12:56.000   35.164724239  136.885520952    86.1175   5  19   3.3048   4.5669   8.3595   2.0124   1.1805  -1.6406   0.00    0.0
2023/07/11 06:12:57.000   35.164722734  136.885513853    87.2643   5  19   3.3047   4.5667   8.3601   2.0119   1.1826  -1.6412   0.00    0.0
2023/07/11 06:14:04.000   35.164947461  136.885587424    73.9291   5  16   4.0643   5.4339  10.4737   2.6290   3.9042  -2.6089   0.00    0.0
2023/07/11 06:14:19.000   35.166344684  136.885523163    70.5318   5  13   5.4677   6.6632  15.4133   3.3701  -1.5512  -6.9280   0.00    0.0
2023/07/11 06:14:20.000   35.166346232  136.885260103   117.2454   5  14   4.7537   5.1505  13.1522  -0.8022   3.2114  -5.7448   0.00    0.0
2023/07/11 06:14:28.000   35.167070408  136.885386231    90.5990   5  18   4.1393   5.1383   8.6444   3.5374   2.5511   2.1206   0.00    0.0
2023/07/11 06:14:29.000   35.167151320  136.885458372    67.7263   5  17   4.1824   5.2870   9.3701   3.4294   1.4174   2.5824   0.00    0.0
2023/07/11 06:15:45.000   35.167180814  136.885398594    55.7490   5  19   3.3335   4.5796   8.5655   2.5241   1.7871  -0.5203   0.00    0.0
2023/07/11 06:16:38.000   35.167639533  136.885228589    64.1766   5  19   3.2225   4.5373   8.9589   2.1287  -2.3541  -1.2380   0.00    0.0
2023/07/11 06:16:39.000   35.167649570  136.885172429    79.9386   5  19   3.2224   4.5371   8.9598   2.1283  -2.3530  -1.2381   0.00    0.0
2023/07/11 06:16:41.000   35.167794620  136.884976227    72.4275   5  17   3.4087   4.9741  10.5582   1.5479   1.5687  -2.6731   0.00    0.0
2023/07/11 06:16:43.000   35.167982569  136.885142106    64.6661   5  19   3.2960   4.5407   8.5108   1.8899   1.6022  -1.7714   0.00    0.0
2023/07/11 06:16:44.000   35.168058501  136.885140871    63.5986   5  18   3.3714   5.0014   8.8139   2.2488   2.7152  -1.2313   0.00    0.0
2023/07/11 06:16:45.000   35.168153340  136.884949169    71.3512   5  15   3.6992   5.6496  12.1822   1.1974   5.1776  -3.7096   0.00    0.0
2023/07/11 06:16:46.000   35.168341001  136.885372402    86.1700   5  16   3.7333   5.6558  12.0809   2.9959  -4.5780  -4.1984   0.00    0.0
2023/07/11 06:16:48.000   35.168507227  136.885375256    92.1255   5  14   4.6231   6.6634  12.2394   4.3010  -3.7489  -3.5036   0.00    0.0
2023/07/11 06:16:57.000   35.169448988  136.885166945    93.5620   5  13   4.2565  10.9498  19.0997   4.5390 -10.5147  -6.5939   0.00    0.0
2023/07/11 06:17:07.000   35.170356100  136.884388546    47.1847   5  16   3.5668   6.0292  11.4873   2.5156  -3.5999  -3.6751   0.00    0.0
2023/07/11 06:17:25.000   35.171070142  136.883888034    60.0490   5  16   3.4992   4.8269  11.0066   2.1862   3.4097  -2.7667   0.00    0.0
2023/07/11 06:17:28.000   35.171295854  136.883770995    64.3527   5  14   3.7008   5.9534  12.8443   1.0443   4.5002  -3.7216   0.00    0.0
2023/07/11 06:18:22.000   35.173324837  136.882637686    85.3206   5  15   3.9308   5.4613   9.5105   3.4751   2.6075   0.9613   0.00    0.0
2023/07/11 06:18:25.000   35.173332864  136.882630767    92.2525   5  15   3.9297   5.4610   9.5121   3.4735   2.6073   0.9489   0.00    0.0
2023/07/11 06:18:54.000   35.173358460  136.882757554    78.9281   5  17   3.8549   5.4222   8.9159   3.5049   2.5109   1.6160   0.00    0.0
2023/07/11 06:18:55.000   35.173360918  136.882759318    77.9046   5  17   3.8544   5.4220   8.9163   3.5044   2.5110   1.6142   0.00    0.0
2023/07/11 06:18:56.000   35.173355748  136.882655187    70.2636   5  16   3.8644   6.3201   9.1850   3.6328   3.6692   1.7956   0.00    0.0
2023/07/11 06:18:57.000   35.173360040  136.882657564    69.1951   5  16   3.8638   6.3197   9.1853   3.6319   3.6690   1.7936   0.00    0.0
2023/07/11 06:18:58.000   35.173359584  136.882638087    65.2357   5  16   3.8633   6.3194   9.1857   3.6310   3.6689   1.7915   0.00    0.0
2023/07/11 06:18:59.000   35.173366638  136.882633249    62.1737   5  16   3.8628   6.3190   9.1860   3.6301   3.6687   1.7894   0.00    0.0
2023/07/11 06:19:00.000   35.173364479  136.882718881    65.7688   5  17   3.8522   5.4214   8.9182   3.5017   2.5116   1.6054   0.00    0.0
2023/07/11 06:19:10.999   35.173347500  136.882692872    73.8673   5  17   3.8472   5.4199   8.9224   3.4956   2.5130   1.5859   0.00    0.0
2023/07/11 06:19:12.000   35.173349769  136.882700049    75.0348   5  17   3.8468   5.4198   8.9228   3.4951   2.5131   1.5841   0.00    0.0
2023/07/11 06:19:13.000   35.173346272  136.882702423    77.1573   5  17   3.8463   5.4197   8.9232   3.4945   2.5132   1.5823   0.00    0.0
2023/07/11 06:19:14.000   35.173345870  136.882709701    79.1628   5  17   3.8459   5.4195   8.9235   3.4940   2.5133   1.5805   0.00    0.0
2023/07/11 06:19:23.000   35.173340389  136.882729221    93.2324   5  16   3.8533   5.4221   9.3795   3.4977   2.3956   1.2609   0.00    0.0
2023/07/11 06:19:27.000   35.173349532  136.882761403    79.2262   5  16   3.8534   5.6295   9.6548   3.4157   0.8406   1.8985   0.00    0.0
2023/07/11 06:19:28.000   35.173349640  136.882765555    76.9924   5  17   3.8396   5.4177   8.9289   3.4863   2.5151   1.5553   0.00    0.0
2023/07/11 06:19:34.000   35.173300563  136.882336041    45.3302   5  14   5.6657  10.7821  13.5429   6.8881   9.6591   5.8110   0.00    0.0
2023/07/11 06:19:41.000   35.173615613  136.882329060    97.3797   5  15   4.9479   6.6657   9.7355   4.9240   3.9643   3.0757   0.00    0.0
2023/07/11 06:19:42.000   35.173617763  136.882333412   102.6748   5  15   4.9470   6.6653   9.7357   4.9231   3.9636   3.0736   0.00    0.0
2023/07/11 06:19:44.000   35.173644138  136.882315726   100.0759   5  14   4.9480   6.9237  11.6689   4.9526   5.2698   3.2370   0.00    0.0
2023/07/11 06:19:45.000   35.173662634  136.882366949    95.3063   5  15   4.9401   6.9211  10.9203   4.9563   5.1996   3.3976   0.00    0.0
2023/07/11 06:19:47.000   35.173671534  136.882268735   102.2092   5  15   4.9842   6.6796   9.4155   4.8756   4.1255   3.0322   0.00    0.0
2023/07/11 06:20:14.000   35.173820682  136.881965601    73.4646   5  18   3.2233   4.9193   9.3976   2.4331  -1.9409   0.6790   0.00    0.0
2023/07/11 06:20:17.000   35.173950098  136.881680660    44.1903   5  15   5.5400   5.2653  10.4973   2.9892  -0.5703   4.3131   0.00    0.0
2023/07/11 06:20:19.000   35.173890766  136.881470165    49.3023   5  16   5.3593   5.2569  10.3472   2.9196   0.4437   4.5968   0.00    0.0
2023/07/11 06:20:27.000   35.174036737  136.881031515    63.0918   5  19   3.2419   4.4741   9.1739   2.0703  -2.1928  -1.4236   0.00    0.0
2023/07/11 06:20:28.000   35.174027707  136.881030696    53.6481   5  19   3.2418   4.4739   9.1746   2.0698  -2.1914  -1.4233   0.00    0.0
2023/07/11 06:20:29.000   35.174026450  136.881037228    51.8323   5  19   3.2416   4.4736   9.1752   2.0693  -2.1900  -1.4230   0.00    0.0
2023/07/11 06:20:30.000   35.173999254  136.881042797    58.9430   5  20   3.1216   4.4734   8.9681   2.0715  -2.1943  -0.5730   0.00    0.0
2023/07/11 06:20:31.000   35.173994884  136.881042279    60.3634   5  20   3.1214   4.4732   8.9690   2.0710  -2.1930  -0.5731   0.00    0.0
2023/07/11 06:20:32.000   35.173993537  136.881044251    63.9037   5  20   3.1213   4.4729   8.9698   2.0706  -2.1918  -0.5732   0.00    0.0
2023/07/11 06:20:33.000   35.173993817  136.881042833    65.2281   5  20   3.1212   4.4727   8.9707   2.0702  -2.1905  -0.5733   0.00    0.0
2023/07/11 06:20:34.000   35.173999566  136.881039687    64.3522   5  20   3.1210   4.4725   8.9715   2.0697  -2.1893  -0.5734   0.00    0.0
2023/07/11 06:20:35.000   35.174003911  136.881037751    63.8355   5  20   3.1209   4.4723   8.9724   2.0693  -2.1880  -0.5735   0.00    0.0
2023/07/11 06:20:40.000   35.174016439  136.881030898    63.3292   5  20   3.1202   4.4711   8.9767   2.0671  -2.1817  -0.5740   0.00    0.0
2023/07/11 06:20:41.000   35.174018832  136.881029011    63.1372   5  20   3.1201   4.4709   8.9775   2.0667  -2.1805  -0.5742   0.00    0.0
2023/07/11 06:20:42.000   35.174001197  136.881034194    62.8271   5  20   3.1200   4.4707   8.9784   2.0663  -2.1792  -0.5742   0.00    0.0
2023/07/11 06:20:43.000   35.174005262  136.881029625    60.4139   5  19   3.2393   4.4705   9.1844   2.0620  -2.1699  -1.4185   0.00    0.0
2023/07/11 06:20:44.000   35.174048029  136.880994072    54.0013   5  18   3.5599   4.5294   9.2365   2.3082  -1.9981  -0.7579   0.00    0.0
2023/07/11 06:20:45.000   35.173982404  136.880965120    47.1260   5  19   3.2389   4.4700   9.1857   2.0610  -2.1671  -1.4178   0.00    0.0
2023/07/11 06:20:46.000   35.173970498  136.880946430    44.6573   5  19   3.2388   4.4698   9.1864   2.0605  -2.1656  -1.4175   0.00    0.0
2023/07/11 06:20:47.000   35.173948888  136.880898970    44.4828   5  20   3.1193   4.4695   8.9827   2.0641  -2.1729  -0.5747   0.00    0.0
2023/07/11 06:20:48.000   35.173961040  136.880837944    42.7415   5  20   3.1192   4.4693   8.9836   2.0636  -2.1716  -0.5749   0.00    0.0
2023/07/11 06:20:49.000   35.173972016  136.880781089    40.6751   5  20   3.1190   4.4691   8.9844   2.0632  -2.1703  -0.5750   0.00    0.0
2023/07/11 06:20:50.000   35.173975198  136.880728130    40.1130   5  20   3.1189   4.4688   8.9853   2.0628  -2.1690  -0.5751   0.00    0.0
2023/07/11 06:20:52.000   35.173988444  136.880601839    40.5329   5  21   3.1115   4.1884   8.3100   2.1399   0.7960  -1.0253   0.00    0.0
2023/07/11 06:20:53.000   35.173994365  136.880540366    41.0104   5  21   3.1114   4.1884   8.3106   2.1395   0.7992  -1.0258   0.00    0.0
2023/07/11 06:20:54.000   35.174094713  136.880637645    49.8702   5  17   3.6173   4.6200   9.3857   2.4723  -1.9530  -1.0961   0.00    0.0
2023/07/11 06:21:00.000   35.174095814  136.880048886    49.1021   5  14   4.1152   5.0398  11.2846   2.4580   1.6866   1.9628   0.00    0.0
