% program   : RTKPOST ver.2.4.3 b34
% inp file  : C:\Users\TARO\Dropbox\github\rtklib_matlab\example\data\rover.obs
% inp file  : C:\Users\TARO\Dropbox\github\rtklib_matlab\example\data\base.obs
% inp file  : C:\Users\TARO\Dropbox\github\rtklib_matlab\example\data\base.nav
% obs start : 2023/07/11 06:04:30.0 GPST (week2270 194670.0s)
% obs end   : 2023/07/11 06:25:00.0 GPST (week2270 195900.0s)
% pos mode  : Kinematic
% freqs     : L1+2
% solution  : Forward
% elev mask : 35.0 deg
% dynamics  : off
% tidecorr  : off
% ionos opt : Broadcast
% tropo opt : Saastamoinen
% ephemeris : Broadcast
% navi sys  : GPS GLONASS Galileo QZSS BDS
% amb res   : Instantaneous
% amb glo   : ON
% val thres : 3.0
% antenna1  :                       ( 0.0000  0.0000  0.0000)
% antenna2  :                       ( 0.0000  0.0000  0.0000)
% ref pos   : 35.134744725  136.977582287   122.4783
%
% (lat/lon/height=WGS84/ellipsoidal,Q=1:fix,2:float,3:sbas,4:dgps,5:single,6:ppp,ns=# of satellites)
%  GPST                  latitude(deg) longitude(deg)  height(m)   Q  ns   sdn(m)   sde(m)   sdu(m)  sdne(m)  sdeu(m)  sdun(m) age(s)  ratio
2023/07/11 06:04:30.000   35.165395960  136.881417837    59.1624   1  16   0.0059   0.0068   0.0138   0.0049  -0.0058  -0.0063   0.03    7.9
2023/07/11 06:04:30.200   35.165395974  136.881417833    59.1576   1  16   0.0059   0.0068   0.0138   0.0049  -0.0058  -0.0063   0.22    8.4
2023/07/11 06:04:30.400   35.165395968  136.881417864    59.1600   1  16   0.0060   0.0068   0.0138   0.0049  -0.0058  -0.0063   0.43    7.5
2023/07/11 06:04:30.600   35.165395991  136.881417892    59.1546   1  16   0.0060   0.0068   0.0139   0.0049  -0.0059  -0.0064   0.63    8.5
2023/07/11 06:04:30.800   35.165395974  136.881417896    59.1535   1  16   0.0060   0.0069   0.0140   0.0050  -0.0059  -0.0064   0.82    7.3
2023/07/11 06:04:31.000   35.165395951  136.881417825    59.1645   1  16   0.0059   0.0068   0.0138   0.0049  -0.0058  -0.0063   0.03    8.7
2023/07/11 06:04:31.200   35.165395946  136.881417832    59.1639   1  16   0.0059   0.0068   0.0138   0.0049  -0.0058  -0.0063   0.22    7.6
2023/07/11 06:04:31.400   35.165395951  136.881417869    59.1594   1  16   0.0060   0.0068   0.0138   0.0049  -0.0058  -0.0063   0.43    7.1
2023/07/11 06:04:31.600   35.165395938  136.881417860    59.1612   1  16   0.0060   0.0068   0.0139   0.0049  -0.0059  -0.0064   0.63    6.9
2023/07/11 06:04:31.800   35.165395949  136.881417884    59.1606   1  16   0.0060   0.0069   0.0140   0.0050  -0.0059  -0.0064   0.82    6.1
2023/07/11 06:04:32.000   35.165395954  136.881417832    59.1608   1  16   0.0059   0.0068   0.0138   0.0049  -0.0058  -0.0063   0.03    8.3
2023/07/11 06:04:32.200   35.165395964  136.881417853    59.1567   1  16   0.0059   0.0068   0.0138   0.0049  -0.0058  -0.0063   0.22    7.3
2023/07/11 06:04:32.400   35.165395968  136.881417866    59.1563   1  16   0.0059   0.0068   0.0138   0.0049  -0.0058  -0.0063   0.43    7.5
2023/07/11 06:04:32.600   35.165395966  136.881417869    59.1548   1  16   0.0060   0.0068   0.0139   0.0049  -0.0059  -0.0064   0.63    7.3
2023/07/11 06:04:32.800   35.165395957  136.881417883    59.1592   1  16   0.0060   0.0069   0.0140   0.0050  -0.0059  -0.0064   0.82    6.8
2023/07/11 06:04:33.000   35.165395940  136.881417811    59.1618   1  16   0.0059   0.0068   0.0138   0.0049  -0.0058  -0.0063   0.03    9.6
2023/07/11 06:04:33.200   35.165395955  136.881417856    59.1542   1  16   0.0059   0.0068   0.0138   0.0049  -0.0058  -0.0063   0.22    8.9
2023/07/11 06:04:33.400   35.165395943  136.881417847    59.1603   1  16   0.0059   0.0068   0.0138   0.0049  -0.0058  -0.0063   0.43    8.6
2023/07/11 06:04:33.600   35.165395968  136.881417884    59.1539   1  16   0.0060   0.0068   0.0139   0.0049  -0.0059  -0.0063   0.63    9.3
2023/07/11 06:04:33.800   35.165395995  136.881417885    59.1521   1  16   0.0060   0.0069   0.0140   0.0050  -0.0059  -0.0064   0.82    7.8
2023/07/11 06:04:34.000   35.165395965  136.881417844    59.1539   1  16   0.0059   0.0068   0.0138   0.0049  -0.0058  -0.0063   0.03    8.3
2023/07/11 06:04:34.200   35.165395980  136.881417857    59.1505   1  16   0.0059   0.0068   0.0138   0.0049  -0.0058  -0.0063   0.22    9.1
2023/07/11 06:04:34.400   35.165395975  136.881417865    59.1519   1  16   0.0059   0.0068   0.0138   0.0049  -0.0058  -0.0063   0.43    8.2
2023/07/11 06:04:34.600   35.165395997  136.881417892    59.1526   1  16   0.0060   0.0068   0.0139   0.0049  -0.0059  -0.0063   0.63    9.0
2023/07/11 06:04:34.800   35.165395991  136.881417882    59.1513   1  16   0.0060   0.0069   0.0140   0.0050  -0.0059  -0.0064   0.82    8.0
2023/07/11 06:04:35.000   35.165395946  136.881417840    59.1598   1  16   0.0059   0.0068   0.0138   0.0049  -0.0058  -0.0063   0.03   10.6
2023/07/11 06:04:35.200   35.165395969  136.881417844    59.1575   1  16   0.0059   0.0068   0.0138   0.0049  -0.0058  -0.0063   0.22    9.5
2023/07/11 06:04:35.400   35.165395960  136.881417863    59.1578   1  16   0.0059   0.0068   0.0138   0.0049  -0.0058  -0.0063   0.43   10.1
2023/07/11 06:04:35.600   35.165395973  136.881417899    59.1554   1  16   0.0060   0.0068   0.0139   0.0049  -0.0059  -0.0063   0.63   11.5
2023/07/11 06:04:35.800   35.165395981  136.881417910    59.1518   1  16   0.0060   0.0069   0.0140   0.0050  -0.0059  -0.0064   0.82    8.8
2023/07/11 06:04:36.000   35.165395964  136.881417843    59.1499   1  16   0.0059   0.0068   0.0138   0.0049  -0.0058  -0.0063   0.03    8.0
2023/07/11 06:04:36.200   35.165395959  136.881417857    59.1537   1  16   0.0059   0.0068   0.0138   0.0049  -0.0058  -0.0063   0.22    9.8
2023/07/11 06:04:36.400   35.165395982  136.881417878    59.1506   1  16   0.0059   0.0068   0.0138   0.0049  -0.0058  -0.0063   0.43    8.4
2023/07/11 06:04:36.600   35.165395980  136.881417886    59.1502   1  16   0.0060   0.0068   0.0139   0.0049  -0.0059  -0.0063   0.63    8.1
2023/07/11 06:04:36.800   35.165395980  136.881417910    59.1462   1  16   0.0060   0.0069   0.0140   0.0050  -0.0059  -0.0064   0.82   10.8
2023/07/11 06:04:37.000   35.165395956  136.881417839    59.1533   1  16   0.0059   0.0068   0.0138   0.0049  -0.0058  -0.0063   0.03   10.2
2023/07/11 06:04:37.200   35.165395962  136.881417862    59.1527   1  16   0.0059   0.0068   0.0138   0.0049  -0.0058  -0.0063   0.22    9.2
2023/07/11 06:04:37.400   35.165395984  136.881417890    59.1491   1  16   0.0059   0.0068   0.0138   0.0049  -0.0058  -0.0063   0.43   10.5
2023/07/11 06:04:37.600   35.165395977  136.881417878    59.1500   1  16   0.0060   0.0068   0.0139   0.0049  -0.0059  -0.0063   0.63    9.5
2023/07/11 06:04:37.800   35.165395981  136.881417883    59.1466   1  16   0.0060   0.0069   0.0140   0.0050  -0.0059  -0.0064   0.82    8.0
2023/07/11 06:04:38.000   35.165395966  136.881417886    59.1526   1  16   0.0059   0.0068   0.0138   0.0049  -0.0058  -0.0063   0.03   13.0
2023/07/11 06:04:38.200   35.165395972  136.881417887    59.1500   1  16   0.0059   0.0068   0.0138   0.0049  -0.0058  -0.0063   0.22   12.3
2023/07/11 06:04:38.400   35.165395971  136.881417902    59.1450   1  16   0.0059   0.0068   0.0138   0.0049  -0.0058  -0.0063   0.43   10.6
2023/07/11 06:04:38.600   35.165395972  136.881417918    59.1405   1  16   0.0060   0.0068   0.0139   0.0049  -0.0059  -0.0063   0.63   11.9
2023/07/11 06:04:38.800   35.165395994  136.881417930    59.1399   1  16   0.0060   0.0069   0.0140   0.0050  -0.0059  -0.0064   0.82   10.9
2023/07/11 06:04:39.000   35.165395953  136.881417839    59.1557   1  16   0.0059   0.0068   0.0138   0.0049  -0.0058  -0.0063   0.03    9.9
2023/07/11 06:04:39.200   35.165395966  136.881417866    59.1494   1  16   0.0059   0.0068   0.0138   0.0049  -0.0058  -0.0063   0.22   11.6
2023/07/11 06:04:39.400   35.165395959  136.881417885    59.1507   1  16   0.0059   0.0068   0.0138   0.0049  -0.0058  -0.0063   0.43   12.2
2023/07/11 06:04:39.600   35.165395965  136.881417888    59.1466   1  16   0.0060   0.0068   0.0139   0.0049  -0.0059  -0.0063   0.63   10.0
2023/07/11 06:04:39.800   35.165395965  136.881417904    59.1505   1  16   0.0060   0.0069   0.0140   0.0050  -0.0059  -0.0064   0.82    9.6
2023/07/11 06:04:40.000   35.165395947  136.881417831    59.1480   1  16   0.0059   0.0068   0.0138   0.0049  -0.0058  -0.0063   0.03   11.3
2023/07/11 06:04:40.200   35.165395964  136.881417851    59.1454   1  16   0.0059   0.0068   0.0138   0.0049  -0.0058  -0.0063   0.22   10.0
2023/07/11 06:04:40.400   35.165395959  136.881417865    59.1476   1  16   0.0059   0.0068   0.0138   0.0049  -0.0058  -0.0063   0.43    9.4
2023/07/11 06:04:40.600   35.165395983  136.881417903    59.1401   1  16   0.0060   0.0068   0.0139   0.0049  -0.0059  -0.0063   0.63    9.9
2023/07/11 06:04:40.800   35.165395986  136.881417919    59.1405   1  16   0.0060   0.0069   0.0140   0.0050  -0.0059  -0.0064   0.82   10.3
2023/07/11 06:04:41.000   35.165395982  136.881417873    59.1504   1  16   0.0059   0.0068   0.0138   0.0049  -0.0058  -0.0063   0.03   10.0
2023/07/11 06:04:41.200   35.165395984  136.881417906    59.1484   1  16   0.0059   0.0068   0.0138   0.0049  -0.0058  -0.0063   0.22   10.1
2023/07/11 06:04:41.400   35.165395974  136.881417902    59.1513   1  16   0.0059   0.0068   0.0138   0.0049  -0.0058  -0.0063   0.43   10.0
2023/07/11 06:04:41.600   35.165395978  136.881417908    59.1533   1  16   0.0060   0.0068   0.0139   0.0049  -0.0059  -0.0063   0.63    8.8
2023/07/11 06:04:41.800   35.165395975  136.881417956    59.1497   1  16   0.0060   0.0069   0.0140   0.0050  -0.0059  -0.0064   0.82    9.5
2023/07/11 06:04:42.000   35.165395941  136.881417841    59.1514   1  16   0.0059   0.0068   0.0138   0.0049  -0.0058  -0.0063   0.03    9.5
2023/07/11 06:04:42.200   35.165395945  136.881417859    59.1558   1  16   0.0059   0.0068   0.0138   0.0049  -0.0058  -0.0063   0.22   10.9
2023/07/11 06:04:42.400   35.165395955  136.881417875    59.1486   1  16   0.0059   0.0068   0.0138   0.0049  -0.0058  -0.0063   0.43    9.0
2023/07/11 06:04:42.600   35.165395953  136.881417876    59.1478   1  16   0.0060   0.0068   0.0139   0.0049  -0.0059  -0.0063   0.63    9.7
2023/07/11 06:04:42.800   35.165395969  136.881417892    59.1488   1  16   0.0060   0.0069   0.0140   0.0050  -0.0059  -0.0064   0.82    9.6
2023/07/11 06:04:43.000   35.165395950  136.881417857    59.1451   1  16   0.0059   0.0068   0.0138   0.0049  -0.0058  -0.0063   0.03    7.7
2023/07/11 06:04:43.200   35.165395969  136.881417903    59.1440   1  16   0.0059   0.0068   0.0138   0.0049  -0.0058  -0.0063   0.22    9.1
2023/07/11 06:04:43.400   35.165395975  136.881417892    59.1425   1  16   0.0059   0.0068   0.0138   0.0049  -0.0058  -0.0063   0.43    7.5
2023/07/11 06:04:43.600   35.165395965  136.881417890    59.1415   1  16   0.0060   0.0068   0.0139   0.0049  -0.0059  -0.0063   0.63    7.8
2023/07/11 06:04:43.800   35.165395974  136.881417937    59.1414   1  16   0.0060   0.0069   0.0140   0.0050  -0.0059  -0.0064   0.82    8.0
2023/07/11 06:04:44.000   35.165395971  136.881417890    59.1420   1  16   0.0059   0.0068   0.0138   0.0049  -0.0058  -0.0063   0.03   10.5
2023/07/11 06:04:44.200   35.165395974  136.881417870    59.1437   1  16   0.0059   0.0068   0.0138   0.0049  -0.0058  -0.0063   0.22   11.6
2023/07/11 06:04:44.400   35.165395979  136.881417884    59.1416   1  16   0.0059   0.0068   0.0138   0.0049  -0.0058  -0.0063   0.43    8.7
2023/07/11 06:04:44.600   35.165395979  136.881417919    59.1401   1  16   0.0060   0.0068   0.0139   0.0049  -0.0059  -0.0063   0.63    9.2
2023/07/11 06:04:44.800   35.165395991  136.881417929    59.1332   1  16   0.0060   0.0069   0.0140   0.0050  -0.0059  -0.0064   0.82    8.3
2023/07/11 06:04:45.000   35.165395985  136.881417923    59.1436   1  16   0.0059   0.0068   0.0138   0.0049  -0.0058  -0.0063   0.03   11.6
2023/07/11 06:04:45.200   35.165395985  136.881417919    59.1412   1  16   0.0059   0.0068   0.0138   0.0049  -0.0058  -0.0063   0.22   12.6
2023/07/11 06:04:45.400   35.165395980  136.881417921    59.1399   1  16   0.0059   0.0068   0.0138   0.0049  -0.0058  -0.0063   0.43   10.5
2023/07/11 06:04:45.600   35.165395998  136.881417949    59.1386   1  16   0.0060   0.0068   0.0139   0.0049  -0.0058  -0.0063   0.63   10.4
2023/07/11 06:04:45.800   35.165396006  136.881417975    59.1379   1  16   0.0060   0.0069   0.0140   0.0050  -0.0059  -0.0064   0.82   10.1
2023/07/11 06:04:46.000   35.165395989  136.881417906    59.1391   1  16   0.0059   0.0068   0.0138   0.0049  -0.0058  -0.0063   0.03   11.2
2023/07/11 06:04:46.200   35.165395987  136.881417902    59.1359   1  16   0.0059   0.0068   0.0138   0.0049  -0.0058  -0.0063   0.22   10.8
2023/07/11 06:04:46.400   35.165395987  136.881417900    59.1381   1  16   0.0059   0.0068   0.0138   0.0049  -0.0058  -0.0063   0.43    9.2
2023/07/11 06:04:46.600   35.165396003  136.881417937    59.1331   1  16   0.0060   0.0068   0.0139   0.0049  -0.0058  -0.0063   0.63    9.5
2023/07/11 06:04:46.800   35.165396010  136.881417946    59.1335   1  16   0.0060   0.0069   0.0140   0.0050  -0.0059  -0.0064   0.82   10.3
2023/07/11 06:04:47.000   35.165395989  136.881417921    59.1384   1  16   0.0059   0.0068   0.0138   0.0049  -0.0058  -0.0063   0.03   10.5
2023/07/11 06:04:47.200   35.165395997  136.881417919    59.1381   1  16   0.0059   0.0068   0.0138   0.0049  -0.0058  -0.0063   0.22    9.9
2023/07/11 06:04:47.400   35.165396011  136.881417953    59.1345   1  16   0.0059   0.0068   0.0138   0.0049  -0.0058  -0.0063   0.43    9.5
2023/07/11 06:04:47.600   35.165396005  136.881417946    59.1356   1  16   0.0060   0.0068   0.0139   0.0049  -0.0058  -0.0063   0.63   10.0
2023/07/11 06:04:47.800   35.165396007  136.881417930    59.1371   1  16   0.0060   0.0069   0.0140   0.0050  -0.0059  -0.0064   0.82    9.9
2023/07/11 06:04:48.000   35.165395997  136.881417877    59.1332   1  16   0.0059   0.0068   0.0138   0.0049  -0.0058  -0.0063   0.03   11.5
2023/07/11 06:04:48.200   35.165395999  136.881417920    59.1342   1  16   0.0059   0.0068   0.0138   0.0049  -0.0058  -0.0063   0.22   13.2
2023/07/11 06:04:48.400   35.165396008  136.881417915    59.1366   1  16   0.0059   0.0068   0.0138   0.0049  -0.0058  -0.0063   0.43    9.5
2023/07/11 06:04:48.600   35.165396017  136.881417935    59.1374   1  16   0.0060   0.0068   0.0139   0.0049  -0.0058  -0.0063   0.63    9.9
2023/07/11 06:04:48.800   35.165395996  136.881417920    59.1329   1  16   0.0060   0.0069   0.0140   0.0050  -0.0059  -0.0064   0.82   11.3
2023/07/11 06:04:49.000   35.165395991  136.881417910    59.1353   1  16   0.0059   0.0068   0.0138   0.0049  -0.0058  -0.0063   0.03   10.8
2023/07/11 06:04:49.200   35.165396004  136.881417919    59.1357   1  16   0.0059   0.0068   0.0138   0.0049  -0.0058  -0.0063   0.22    9.6
2023/07/11 06:04:49.400   35.165395990  136.881417933    59.1362   1  16   0.0059   0.0068   0.0138   0.0049  -0.0058  -0.0063   0.43   10.4
2023/07/11 06:04:49.600   35.165396003  136.881417951    59.1333   1  16   0.0060   0.0068   0.0139   0.0049  -0.0058  -0.0063   0.63    8.7
2023/07/11 06:04:49.800   35.165395999  136.881417957    59.1364   1  16   0.0060   0.0069   0.0140   0.0050  -0.0059  -0.0064   0.82    9.9
2023/07/11 06:04:50.000   35.165395983  136.881417891    59.1344   1  16   0.0059   0.0068   0.0138   0.0049  -0.0058  -0.0063   0.03    9.4
2023/07/11 06:04:50.200   35.165395982  136.881417912    59.1354   1  16   0.0059   0.0068   0.0138   0.0049  -0.0058  -0.0063   0.22    9.8
2023/07/11 06:04:50.400   35.165395968  136.881417915    59.1393   1  16   0.0059   0.0068   0.0138   0.0049  -0.0058  -0.0063   0.43    9.2
2023/07/11 06:04:50.600   35.165395980  136.881417947    59.1362   1  16   0.0060   0.0068   0.0139   0.0049  -0.0058  -0.0063   0.63    9.9
2023/07/11 06:04:50.800   35.165395982  136.881417944    59.1362   1  16   0.0060   0.0069   0.0140   0.0050  -0.0059  -0.0064   0.82   10.6
2023/07/11 06:04:51.000   35.165395971  136.881417886    59.1398   1  16   0.0059   0.0068   0.0138   0.0049  -0.0058  -0.0063   0.03   10.0
2023/07/11 06:04:51.200   35.165395972  136.881417894    59.1414   1  16   0.0059   0.0068   0.0138   0.0049  -0.0058  -0.0063   0.22   10.4
2023/07/11 06:04:51.400   35.165395983  136.881417908    59.1379   1  16   0.0059   0.0068   0.0138   0.0049  -0.0058  -0.0063   0.43    9.1
2023/07/11 06:04:51.600   35.165395956  136.881417902    59.1441   1  16   0.0060   0.0068   0.0139   0.0049  -0.0058  -0.0063   0.63   10.2
2023/07/11 06:04:51.800   35.165395957  136.881417927    59.1466   1  16   0.0060   0.0069   0.0140   0.0050  -0.0059  -0.0064   0.82   10.6
2023/07/11 06:04:52.000   35.165396001  136.881417891    59.1321   1  16   0.0059   0.0068   0.0138   0.0049  -0.0058  -0.0063   0.03    9.7
2023/07/11 06:04:52.200   35.165395992  136.881417904    59.1376   1  16   0.0059   0.0068   0.0138   0.0049  -0.0058  -0.0063   0.22    9.4
2023/07/11 06:04:52.400   35.165395999  136.881417925    59.1364   1  16   0.0059   0.0068   0.0138   0.0049  -0.0058  -0.0063   0.43    9.6
2023/07/11 06:04:52.600   35.165395999  136.881417952    59.1366   1  16   0.0060   0.0068   0.0139   0.0049  -0.0058  -0.0063   0.63    9.2
2023/07/11 06:04:52.800   35.165395996  136.881417947    59.1371   1  16   0.0060   0.0069   0.0140   0.0050  -0.0059  -0.0064   0.82    9.4
2023/07/11 06:04:53.000   35.165395982  136.881417917    59.1342   1  16   0.0059   0.0068   0.0138   0.0049  -0.0058  -0.0063   0.03    9.1
2023/07/11 06:04:53.200   35.165395963  136.881417914    59.1394   1  16   0.0059   0.0068   0.0138   0.0049  -0.0058  -0.0063   0.22   10.4
2023/07/11 06:04:53.400   35.165395983  136.881417943    59.1355   1  16   0.0059   0.0068   0.0138   0.0049  -0.0058  -0.0063   0.43   10.5
2023/07/11 06:04:53.600   35.165395967  136.881417945    59.1367   1  16   0.0060   0.0068   0.0139   0.0049  -0.0058  -0.0063   0.63   10.6
2023/07/11 06:04:53.800   35.165395990  136.881417967    59.1361   1  16   0.0060   0.0069   0.0140   0.0050  -0.0059  -0.0064   0.82    8.8
2023/07/11 06:04:54.000   35.165395984  136.881417923    59.1344   1  16   0.0059   0.0068   0.0138   0.0049  -0.0058  -0.0063   0.03   11.2
2023/07/11 06:04:54.200   35.165395985  136.881417938    59.1330   1  16   0.0059   0.0068   0.0138   0.0049  -0.0058  -0.0063   0.22   11.1
2023/07/11 06:04:54.400   35.165395989  136.881417953    59.1340   1  16   0.0059   0.0068   0.0138   0.0049  -0.0058  -0.0063   0.43    9.8
2023/07/11 06:04:54.600   35.165395984  136.881417972    59.1371   1  16   0.0060   0.0068   0.0139   0.0049  -0.0058  -0.0063   0.63    9.9
2023/07/11 06:04:54.800   35.165395977  136.881417964    59.1331   1  16   0.0060   0.0069   0.0140   0.0050  -0.0059  -0.0064   0.82    9.0
2023/07/11 06:04:55.000   35.165395977  136.881417891    59.1374   1  16   0.0059   0.0068   0.0138   0.0049  -0.0058  -0.0063   0.03   14.0
2023/07/11 06:04:55.200   35.165395995  136.881417918    59.1333   1  16   0.0059   0.0068   0.0138   0.0049  -0.0058  -0.0063   0.22   12.9
2023/07/11 06:04:55.400   35.165395997  136.881417926    59.1295   1  16   0.0059   0.0068   0.0138   0.0049  -0.0058  -0.0063   0.43   10.1
2023/07/11 06:04:55.600   35.165395993  136.881417944    59.1324   1  16   0.0060   0.0068   0.0139   0.0049  -0.0058  -0.0063   0.63   10.5
2023/07/11 06:04:55.800   35.165395978  136.881417943    59.1356   1  16   0.0060   0.0069   0.0140   0.0050  -0.0059  -0.0064   0.82   14.4
2023/07/11 06:04:56.000   35.165395993  136.881417936    59.1331   1  16   0.0059   0.0068   0.0138   0.0049  -0.0058  -0.0063   0.03   10.8
2023/07/11 06:04:56.200   35.165395977  136.881417938    59.1315   1  16   0.0059   0.0068   0.0138   0.0049  -0.0058  -0.0063   0.22   11.9
2023/07/11 06:04:56.400   35.165395990  136.881417937    59.1305   1  16   0.0059   0.0068   0.0138   0.0049  -0.0058  -0.0063   0.43    9.1
2023/07/11 06:04:56.600   35.165395995  136.881417951    59.1311   1  16   0.0060   0.0068   0.0139   0.0049  -0.0058  -0.0063   0.63   10.7
2023/07/11 06:04:56.800   35.165395984  136.881417963    59.1291   1  16   0.0060   0.0069   0.0140   0.0050  -0.0059  -0.0064   0.82   11.0
2023/07/11 06:04:57.000   35.165395993  136.881417912    59.1284   1  16   0.0059   0.0068   0.0138   0.0049  -0.0058  -0.0063   0.03   11.5
2023/07/11 06:04:57.200   35.165395989  136.881417913    59.1309   1  16   0.0059   0.0068   0.0138   0.0049  -0.0058  -0.0063   0.22   11.9
2023/07/11 06:04:57.400   35.165396004  136.881417925    59.1271   1  16   0.0059   0.0068   0.0138   0.0049  -0.0058  -0.0063   0.43    9.6
2023/07/11 06:04:57.600   35.165396000  136.881417949    59.1270   1  16   0.0060   0.0068   0.0139   0.0049  -0.0058  -0.0063   0.63    9.4
2023/07/11 06:04:57.800   35.165395999  136.881417954    59.1255   1  16   0.0060   0.0069   0.0140   0.0050  -0.0059  -0.0064   0.82    9.4
2023/07/11 06:04:58.000   35.165395976  136.881417905    59.1373   1  16   0.0059   0.0068   0.0138   0.0049  -0.0058  -0.0063   0.03   10.3
2023/07/11 06:04:58.200   35.165395964  136.881417910    59.1335   1  16   0.0059   0.0068   0.0138   0.0049  -0.0058  -0.0063   0.22    9.9
2023/07/11 06:04:58.400   35.165395962  136.881417929    59.1319   1  16   0.0059   0.0068   0.0138   0.0049  -0.0058  -0.0063   0.43   10.2
2023/07/11 06:04:58.600   35.165395976  136.881417958    59.1305   1  16   0.0060   0.0068   0.0139   0.0049  -0.0058  -0.0063   0.63   10.5
2023/07/11 06:04:58.800   35.165395969  136.881417976    59.1299   1  16   0.0060   0.0069   0.0140   0.0050  -0.0059  -0.0064   0.82   10.7
2023/07/11 06:04:59.000   35.165395970  136.881417883    59.1344   1  16   0.0059   0.0068   0.0138   0.0049  -0.0058  -0.0063   0.03    8.8
2023/07/11 06:04:59.200   35.165395959  136.881417876    59.1366   1  16   0.0059   0.0068   0.0138   0.0049  -0.0058  -0.0063   0.22    8.9
2023/07/11 06:04:59.400   35.165395954  136.881417903    59.1344   1  16   0.0059   0.0068   0.0138   0.0049  -0.0058  -0.0063   0.43    9.7
2023/07/11 06:04:59.600   35.165395951  136.881417931    59.1398   1  16   0.0060   0.0068   0.0139   0.0049  -0.0058  -0.0063   0.63    8.0
2023/07/11 06:04:59.800   35.165395949  136.881417934    59.1363   1  16   0.0060   0.0069   0.0140   0.0050  -0.0059  -0.0064   0.82    7.7
2023/07/11 06:05:00.000   35.165395968  136.881417859    59.1339   1  16   0.0059   0.0068   0.0138   0.0049  -0.0058  -0.0063   0.03    8.7
2023/07/11 06:05:00.200   35.165395967  136.881417852    59.1341   1  16   0.0059   0.0068   0.0138   0.0049  -0.0058  -0.0063   0.22    9.0
2023/07/11 06:05:00.400   35.165395965  136.881417884    59.1368   1  16   0.0059   0.0068   0.0138   0.0049  -0.0058  -0.0063   0.43    8.6
2023/07/11 06:05:00.600   35.165395984  136.881417902    59.1328   1  16   0.0060   0.0068   0.0139   0.0049  -0.0058  -0.0063   0.63    9.6
2023/07/11 06:05:00.800   35.165395993  136.881417911    59.1346   1  16   0.0060   0.0069   0.0140   0.0050  -0.0059  -0.0064   0.82    9.4
2023/07/11 06:05:01.000   35.165395967  136.881417867    59.1368   1  16   0.0059   0.0068   0.0138   0.0049  -0.0058  -0.0063   0.03    8.8
2023/07/11 06:05:01.200   35.165395968  136.881417885    59.1372   1  16   0.0059   0.0068   0.0138   0.0049  -0.0058  -0.0063   0.22   10.2
2023/07/11 06:05:01.400   35.165395973  136.881417896    59.1330   1  16   0.0059   0.0068   0.0138   0.0049  -0.0058  -0.0063   0.43    9.4
2023/07/11 06:05:01.600   35.165395996  136.881417910    59.1326   1  16   0.0060   0.0068   0.0139   0.0049  -0.0058  -0.0063   0.63    9.7
2023/07/11 06:05:01.800   35.165395998  136.881417921    59.1342   1  16   0.0060   0.0069   0.0140   0.0050  -0.0059  -0.0064   0.82    8.8
2023/07/11 06:05:02.000   35.165395982  136.881417904    59.1323   1  16   0.0059   0.0068   0.0138   0.0049  -0.0058  -0.0063   0.03    9.0
2023/07/11 06:05:02.200   35.165395989  136.881417926    59.1319   1  16   0.0059   0.0068   0.0138   0.0049  -0.0058  -0.0063   0.22    9.2
2023/07/11 06:05:02.400   35.165395978  136.881417930    59.1305   1  16   0.0059   0.0068   0.0138   0.0049  -0.0058  -0.0063   0.43    8.6
2023/07/11 06:05:02.600   35.165395990  136.881417939    59.1289   1  16   0.0060   0.0068   0.0139   0.0049  -0.0058  -0.0063   0.63    8.1
2023/07/11 06:05:02.800   35.165395993  136.881417983    59.1293   1  16   0.0060   0.0069   0.0140   0.0050  -0.0059  -0.0064   0.82    8.0
2023/07/11 06:05:03.000   35.165395951  136.881417858    59.1365   1  16   0.0059   0.0068   0.0138   0.0049  -0.0058  -0.0063   0.03    8.5
2023/07/11 06:05:03.200   35.165395972  136.881417920    59.1319   1  16   0.0059   0.0068   0.0138   0.0049  -0.0058  -0.0063   0.22    7.3
2023/07/11 06:05:03.400   35.165395975  136.881417914    59.1317   1  16   0.0059   0.0068   0.0138   0.0049  -0.0058  -0.0063   0.43    6.9
2023/07/11 06:05:03.600   35.165395972  136.881417921    59.1303   1  16   0.0060   0.0068   0.0139   0.0049  -0.0058  -0.0063   0.63    6.5
2023/07/11 06:05:03.800   35.165395964  136.881417936    59.1303   1  16   0.0060   0.0069   0.0140   0.0050  -0.0059  -0.0064   0.82    5.8
2023/07/11 06:05:04.000   35.165395974  136.881417890    59.1252   1  16   0.0059   0.0068   0.0138   0.0049  -0.0058  -0.0063   0.03   10.0
2023/07/11 06:05:04.200   35.165395964  136.881417886    59.1284   1  16   0.0059   0.0068   0.0138   0.0049  -0.0058  -0.0063   0.22    8.8
2023/07/11 06:05:04.400   35.165395969  136.881417749    59.1266   1  16   0.0059   0.0068   0.0138   0.0049  -0.0058  -0.0063   0.43    7.9
2023/07/11 06:05:04.600   35.165395976  136.881417466    59.1275   1  16   0.0060   0.0068   0.0139   0.0049  -0.0058  -0.0063   0.63    8.7
2023/07/11 06:05:04.800   35.165395989  136.881417085    59.1257   1  16   0.0060   0.0069   0.0140   0.0050  -0.0059  -0.0064   0.82    6.2
2023/07/11 06:05:05.000   35.165395995  136.881416522    59.1279   1  16   0.0059   0.0068   0.0138   0.0049  -0.0058  -0.0063   0.03    5.9
2023/07/11 06:05:05.200   35.165396033  136.881415946    59.1306   1  16   0.0059   0.0068   0.0138   0.0049  -0.0058  -0.0063   0.22    6.2
2023/07/11 06:05:05.400   35.165396072  136.881415277    59.1253   1  16   0.0059   0.0068   0.0138   0.0049  -0.0058  -0.0063   0.43    7.3
2023/07/11 06:05:05.600   35.165396024  136.881414458    59.1405   1  16   0.0060   0.0068   0.0139   0.0049  -0.0058  -0.0063   0.63    8.2
2023/07/11 06:05:05.800   35.165395999  136.881413687    59.1365   1  16   0.0060   0.0069   0.0140   0.0050  -0.0059  -0.0064   0.82    7.2
2023/07/11 06:05:06.000   35.165395896  136.881412694    59.1525   1  16   0.0059   0.0068   0.0138   0.0049  -0.0058  -0.0063   0.03    5.9
2023/07/11 06:05:06.200   35.165395846  136.881411812    59.1525   1  16   0.0059   0.0068   0.0138   0.0049  -0.0058  -0.0063   0.22    4.5
2023/07/11 06:05:06.400   35.165395786  136.881410826    59.1634   1  16   0.0059   0.0068   0.0138   0.0049  -0.0058  -0.0063   0.43    5.0
2023/07/11 06:05:06.600   35.165395720  136.881409940    59.1630   1  16   0.0060   0.0068   0.0139   0.0049  -0.0058  -0.0063   0.63    4.8
2023/07/11 06:05:06.800   35.165395551  136.881408842    59.1715   1  16   0.0060   0.0069   0.0140   0.0050  -0.0059  -0.0064   0.82    4.9
2023/07/11 06:05:07.000   35.165395428  136.881407768    59.1731   1  16   0.0059   0.0068   0.0138   0.0049  -0.0058  -0.0063   0.03    4.1
2023/07/11 06:05:07.200   35.165395227  136.881406651    59.1601   1  16   0.0059   0.0068   0.0138   0.0049  -0.0058  -0.0063   0.22    3.4
2023/07/11 06:05:07.400   35.165395045  136.881405473    59.1758   1  16   0.0059   0.0068   0.0138   0.0049  -0.0058  -0.0063   0.43    4.5
2023/07/11 06:05:07.600   35.165394862  136.881404253    59.1724   1  16   0.0060   0.0068   0.0139   0.0049  -0.0058  -0.0063   0.63    3.9
2023/07/11 06:05:07.800   35.165394530  136.881402875    59.1721   1  16   0.0060   0.0069   0.0140   0.0050  -0.0059  -0.0064   0.82    3.9
2023/07/11 06:05:08.000   35.165394097  136.881401312    59.1672   1  16   0.0059   0.0068   0.0138   0.0049  -0.0058  -0.0063   0.03    5.4
2023/07/11 06:05:08.200   35.165393611  136.881399833    59.1700   1  16   0.0059   0.0068   0.0138   0.0049  -0.0058  -0.0063   0.22    6.3
2023/07/11 06:05:08.400   35.165393126  136.881398243    59.1626   1  16   0.0059   0.0068   0.0138   0.0049  -0.0058  -0.0063   0.43    6.9
2023/07/11 06:05:08.600   35.165392543  136.881396598    59.1584   1  16   0.0060   0.0068   0.0139   0.0049  -0.0058  -0.0063   0.63    6.9
2023/07/11 06:05:08.800   35.165391769  136.881394778    59.1605   1  16   0.0060   0.0069   0.0140   0.0050  -0.0059  -0.0064   0.82    4.1
2023/07/11 06:05:09.000   35.165390977  136.881392921    59.1690   1  16   0.0059   0.0068   0.0138   0.0049  -0.0058  -0.0063   0.03    6.6
2023/07/11 06:05:09.200   35.165390075  136.881391057    59.1802   1  16   0.0059   0.0068   0.0138   0.0049  -0.0058  -0.0063   0.22    4.5
2023/07/11 06:05:09.400   35.165388977  136.881389231    59.1851   1  16   0.0059   0.0068   0.0138   0.0049  -0.0058  -0.0063   0.43    4.8
2023/07/11 06:05:09.600   35.165387816  136.881387643    59.1845   1  16   0.0060   0.0068   0.0139   0.0049  -0.0058  -0.0063   0.63    6.8
2023/07/11 06:05:09.800   35.165386548  136.881385995    59.1897   1  16   0.0060   0.0069   0.0140   0.0050  -0.0059  -0.0064   0.82    7.1
2023/07/11 06:05:10.000   35.165385206  136.881384215    59.1877   1  16   0.0059   0.0068   0.0137   0.0049  -0.0058  -0.0063   0.03   10.3
2023/07/11 06:05:10.200   35.165383685  136.881382488    59.1831   1  16   0.0059   0.0068   0.0138   0.0049  -0.0058  -0.0063   0.22    7.6
2023/07/11 06:05:10.400   35.165382018  136.881380689    59.1897   1  16   0.0059   0.0068   0.0138   0.0049  -0.0058  -0.0063   0.43    7.3
2023/07/11 06:05:10.600   35.165380277  136.881378882    59.1870   1  16   0.0060   0.0068   0.0139   0.0049  -0.0058  -0.0063   0.63    6.5
2023/07/11 06:05:10.800   35.165378422  136.881377106    59.1923   1  16   0.0060   0.0069   0.0140   0.0050  -0.0058  -0.0064   0.82    7.0
2023/07/11 06:05:11.000   35.165376381  136.881375146    59.2046   1  16   0.0059   0.0068   0.0137   0.0049  -0.0058  -0.0063   0.03    4.6
2023/07/11 06:05:11.200   35.165374176  136.881373528    59.2145   1  16   0.0059   0.0068   0.0138   0.0049  -0.0058  -0.0063   0.22    4.8
2023/07/11 06:05:11.400   35.165371806  136.881371929    59.2129   1  16   0.0059   0.0068   0.0138   0.0049  -0.0058  -0.0063   0.43    5.8
2023/07/11 06:05:11.600   35.165369337  136.881370192    59.2098   1  16   0.0060   0.0068   0.0139   0.0049  -0.0058  -0.0063   0.63    5.7
2023/07/11 06:05:11.800   35.165366675  136.881368491    59.2132   1  16   0.0060   0.0069   0.0140   0.0050  -0.0058  -0.0064   0.82    6.5
2023/07/11 06:05:12.000   35.165363898  136.881366670    59.2236   1  16   0.0059   0.0068   0.0137   0.0049  -0.0058  -0.0063   0.03    9.0
2023/07/11 06:05:12.200   35.165361031  136.881364879    59.2183   1  16   0.0059   0.0068   0.0138   0.0049  -0.0058  -0.0063   0.22    9.5
2023/07/11 06:05:12.400   35.165357994  136.881363117    59.2158   1  16   0.0059   0.0068   0.0138   0.0049  -0.0058  -0.0063   0.43   12.2
2023/07/11 06:05:12.600   35.165354850  136.881361344    59.2137   1  16   0.0060   0.0068   0.0139   0.0049  -0.0058  -0.0063   0.63    7.1
2023/07/11 06:05:12.800   35.165351622  136.881359350    59.2182   1  16   0.0060   0.0069   0.0140   0.0050  -0.0058  -0.0064   0.82   12.9
2023/07/11 06:05:13.000   35.165348295  136.881357147    59.2100   1  16   0.0059   0.0068   0.0137   0.0049  -0.0058  -0.0063   0.03    7.6
2023/07/11 06:05:13.200   35.165344985  136.881354990    59.2085   1  16   0.0059   0.0068   0.0138   0.0049  -0.0058  -0.0063   0.22    8.2
2023/07/11 06:05:13.400   35.165341659  136.881352521    59.2159   1  16   0.0059   0.0068   0.0138   0.0049  -0.0058  -0.0063   0.43    5.5
2023/07/11 06:05:13.600   35.165338384  136.881349994    59.2043   1  16   0.0060   0.0068   0.0139   0.0049  -0.0058  -0.0063   0.63    5.5
2023/07/11 06:05:13.800   35.165335004  136.881347313    59.2012   1  16   0.0060   0.0069   0.0140   0.0049  -0.0058  -0.0064   0.82    4.4
2023/07/11 06:05:14.000   35.165331775  136.881344329    59.1911   1  16   0.0059   0.0068   0.0137   0.0049  -0.0058  -0.0063   0.03    6.4
2023/07/11 06:05:14.200   35.165328693  136.881341127    59.1807   1  16   0.0059   0.0068   0.0138   0.0049  -0.0058  -0.0063   0.22    5.0
2023/07/11 06:05:14.400   35.165325770  136.881337515    59.1721   1  16   0.0059   0.0068   0.0138   0.0049  -0.0058  -0.0063   0.43    5.5
2023/07/11 06:05:14.600   35.165322815  136.881333608    59.1691   1  16   0.0060   0.0068   0.0139   0.0049  -0.0058  -0.0063   0.63    8.0
2023/07/11 06:05:14.800   35.165320062  136.881329462    59.1628   1  16   0.0060   0.0069   0.0140   0.0049  -0.0058  -0.0064   0.82    6.0
2023/07/11 06:05:15.000   35.165317501  136.881324841    59.1626   1  16   0.0059   0.0068   0.0137   0.0049  -0.0058  -0.0063   0.03    6.1
2023/07/11 06:05:15.200   35.165315154  136.881320132    59.1500   1  16   0.0059   0.0068   0.0138   0.0049  -0.0058  -0.0063   0.22    5.3
2023/07/11 06:05:15.400   35.165313003  136.881315137    59.1425   1  16   0.0059   0.0068   0.0138   0.0049  -0.0058  -0.0063   0.43    5.1
2023/07/11 06:05:15.600   35.165311026  136.881309931    59.1455   1  16   0.0060   0.0068   0.0139   0.0049  -0.0058  -0.0063   0.63    5.5
2023/07/11 06:05:15.800   35.165309413  136.881304764    59.1467   1  16   0.0060   0.0069   0.0140   0.0049  -0.0058  -0.0064   0.82    5.0
2023/07/11 06:05:16.000   35.165308017  136.881299517    59.1486   1  16   0.0059   0.0068   0.0137   0.0049  -0.0058  -0.0063   0.03   10.4
2023/07/11 06:05:16.200   35.165306918  136.881294179    59.1503   1  16   0.0059   0.0068   0.0138   0.0049  -0.0058  -0.0063   0.22    8.0
2023/07/11 06:05:16.400   35.165306010  136.881288943    59.1513   1  16   0.0059   0.0068   0.0138   0.0049  -0.0058  -0.0063   0.43    5.6
2023/07/11 06:05:16.600   35.165305287  136.881283730    59.1433   1  16   0.0060   0.0068   0.0139   0.0049  -0.0058  -0.0063   0.63    4.9
2023/07/11 06:05:16.800   35.165304699  136.881278524    59.1358   1  16   0.0060   0.0069   0.0140   0.0049  -0.0058  -0.0064   0.82    4.6
2023/07/11 06:05:17.000   35.165304198  136.881273179    59.1504   1  16   0.0059   0.0068   0.0137   0.0049  -0.0058  -0.0063   0.03    4.9
2023/07/11 06:05:17.200   35.165303847  136.881268140    59.1441   1  16   0.0059   0.0068   0.0138   0.0049  -0.0058  -0.0063   0.22    4.1
2023/07/11 06:05:17.400   35.165303496  136.881263013    59.1470   1  16   0.0059   0.0068   0.0138   0.0049  -0.0058  -0.0063   0.43    4.9
2023/07/11 06:05:17.600   35.165303216  136.881258004    59.1469   1  16   0.0060   0.0068   0.0139   0.0049  -0.0058  -0.0063   0.63    5.5
2023/07/11 06:05:17.800   35.165303057  136.881253038    59.1463   1  16   0.0060   0.0069   0.0140   0.0049  -0.0058  -0.0064   0.82    6.6
2023/07/11 06:05:18.000   35.165302951  136.881248088    59.1558   1  16   0.0059   0.0068   0.0137   0.0049  -0.0058  -0.0063   0.03    6.7
2023/07/11 06:05:18.200   35.165302932  136.881243291    59.1394   1  16   0.0059   0.0068   0.0138   0.0049  -0.0058  -0.0063   0.22    7.7
2023/07/11 06:05:18.400   35.165303002  136.881238351    59.1419   1  16   0.0059   0.0068   0.0138   0.0049  -0.0058  -0.0063   0.43    6.3
2023/07/11 06:05:18.600   35.165303039  136.881233285    59.1397   1  16   0.0060   0.0068   0.0139   0.0049  -0.0058  -0.0063   0.63    5.1
2023/07/11 06:05:18.800   35.165303164  136.881228059    59.1385   1  16   0.0060   0.0069   0.0140   0.0049  -0.0058  -0.0064   0.82    5.3
2023/07/11 06:05:19.000   35.165303403  136.881222687    59.1560   1  16   0.0059   0.0068   0.0137   0.0049  -0.0058  -0.0063   0.03    7.1
2023/07/11 06:05:19.200   35.165303783  136.881217310    59.1583   1  16   0.0059   0.0068   0.0138   0.0049  -0.0058  -0.0063   0.22    7.5
2023/07/11 06:05:19.400   35.165304209  136.881211867    59.1658   1  16   0.0059   0.0068   0.0138   0.0049  -0.0058  -0.0063   0.43    6.0
2023/07/11 06:05:19.600   35.165304715  136.881206504    59.1725   1  16   0.0060   0.0068   0.0139   0.0049  -0.0058  -0.0063   0.63    5.0
2023/07/11 06:05:19.800   35.165305304  136.881201190    59.1709   1  16   0.0060   0.0069   0.0140   0.0049  -0.0058  -0.0064   0.82    4.7
2023/07/11 06:05:20.000   35.165305976  136.881195918    59.1697   1  16   0.0059   0.0068   0.0137   0.0049  -0.0058  -0.0063   0.03    5.8
2023/07/11 06:05:20.200   35.165306679  136.881190740    59.1714   1  16   0.0059   0.0068   0.0138   0.0049  -0.0058  -0.0063   0.22    6.1
2023/07/11 06:05:20.400   35.165307494  136.881185763    59.1762   1  16   0.0059   0.0068   0.0138   0.0049  -0.0058  -0.0063   0.43    5.2
2023/07/11 06:05:20.600   35.165308324  136.881180857    59.1681   1  16   0.0060   0.0068   0.0139   0.0049  -0.0058  -0.0063   0.63    5.0
2023/07/11 06:05:20.800   35.165308993  136.881175859    59.1750   1  16   0.0060   0.0069   0.0140   0.0049  -0.0058  -0.0064   0.82    6.2
2023/07/11 06:05:21.000   35.165309673  136.881170928    59.1821   1  16   0.0059   0.0068   0.0137   0.0049  -0.0058  -0.0063   0.03    5.5
2023/07/11 06:05:21.200   35.165310406  136.881166182    59.1732   1  16   0.0059   0.0068   0.0138   0.0049  -0.0058  -0.0063   0.22    7.4
2023/07/11 06:05:21.400   35.165310985  136.881161390    59.1770   1  16   0.0059   0.0068   0.0138   0.0049  -0.0058  -0.0063   0.43    5.5
2023/07/11 06:05:21.600   35.165311596  136.881156753    59.1753   1  16   0.0060   0.0068   0.0139   0.0049  -0.0058  -0.0063   0.63    5.5
2023/07/11 06:05:21.800   35.165312066  136.881152247    59.1768   1  16   0.0060   0.0069   0.0140   0.0049  -0.0058  -0.0064   0.82    5.3
2023/07/11 06:05:22.000   35.165312379  136.881147777    59.1809   1  16   0.0059   0.0068   0.0137   0.0049  -0.0058  -0.0063   0.03    5.9
2023/07/11 06:05:22.200   35.165312707  136.881143416    59.1780   1  16   0.0059   0.0068   0.0138   0.0049  -0.0058  -0.0063   0.22    6.6
2023/07/11 06:05:22.400   35.165313032  136.881139192    59.1749   1  16   0.0059   0.0068   0.0138   0.0049  -0.0058  -0.0063   0.43    7.3
2023/07/11 06:05:22.600   35.165313321  136.881134933    59.1860   1  16   0.0060   0.0068   0.0139   0.0049  -0.0058  -0.0063   0.63    5.7
2023/07/11 06:05:22.800   35.165313495  136.881130804    59.1891   1  16   0.0060   0.0069   0.0140   0.0049  -0.0058  -0.0064   0.82    6.6
2023/07/11 06:05:23.000   35.165313482  136.881126673    59.1945   1  16   0.0059   0.0068   0.0137   0.0049  -0.0058  -0.0063   0.03    7.3
2023/07/11 06:05:23.200   35.165313327  136.881122982    59.1810   1  16   0.0059   0.0068   0.0138   0.0049  -0.0058  -0.0063   0.22    7.0
2023/07/11 06:05:23.400   35.165313147  136.881119342    59.1800   1  16   0.0059   0.0068   0.0138   0.0049  -0.0058  -0.0063   0.43    4.7
2023/07/11 06:05:23.600   35.165312901  136.881115833    59.1906   1  16   0.0060   0.0068   0.0139   0.0049  -0.0058  -0.0063   0.63    5.1
2023/07/11 06:05:23.800   35.165312532  136.881112545    59.1848   1  16   0.0060   0.0069   0.0140   0.0049  -0.0058  -0.0064   0.82    4.1
2023/07/11 06:05:24.000   35.165312080  136.881109184    59.1822   1  16   0.0059   0.0068   0.0137   0.0049  -0.0058  -0.0063   0.03    6.2
2023/07/11 06:05:24.200   35.165311533  136.881106069    59.1707   1  16   0.0059   0.0068   0.0138   0.0049  -0.0058  -0.0063   0.22    5.7
2023/07/11 06:05:24.400   35.165310979  136.881103140    59.1621   1  16   0.0059   0.0068   0.0138   0.0049  -0.0058  -0.0063   0.43    6.6
2023/07/11 06:05:24.600   35.165310201  136.881100113    59.1776   1  16   0.0060   0.0068   0.0139   0.0049  -0.0058  -0.0063   0.63    8.5
2023/07/11 06:05:24.800   35.165309318  136.881097346    59.1680   1  16   0.0060   0.0069   0.0140   0.0049  -0.0058  -0.0064   0.82    7.4
2023/07/11 06:05:25.000   35.165308420  136.881094607    59.1732   1  16   0.0059   0.0068   0.0137   0.0049  -0.0058  -0.0063   0.03    9.1
2023/07/11 06:05:25.200   35.165307346  136.881092118    59.1552   1  16   0.0059   0.0068   0.0138   0.0049  -0.0058  -0.0063   0.22    5.6
2023/07/11 06:05:25.400   35.165306177  136.881089827    59.1544   1  16   0.0059   0.0068   0.0138   0.0049  -0.0058  -0.0063   0.43    6.3
2023/07/11 06:05:25.600   35.165304788  136.881087534    59.1479   1  16   0.0060   0.0068   0.0139   0.0049  -0.0058  -0.0063   0.63    4.5
2023/07/11 06:05:25.800   35.165303513  136.881085459    59.1582   1  16   0.0060   0.0069   0.0140   0.0049  -0.0058  -0.0064   0.82    5.3
2023/07/11 06:05:26.000   35.165302111  136.881083422    59.1487   1  16   0.0059   0.0068   0.0137   0.0049  -0.0058  -0.0063   0.03    6.2
2023/07/11 06:05:26.200   35.165300621  136.881081538    59.1431   1  16   0.0059   0.0068   0.0138   0.0049  -0.0058  -0.0063   0.22    6.6
2023/07/11 06:05:26.400   35.165299136  136.881079851    59.1352   1  16   0.0059   0.0068   0.0138   0.0049  -0.0058  -0.0063   0.43    4.4
2023/07/11 06:05:26.600   35.165297567  136.881078140    59.1259   1  16   0.0060   0.0068   0.0139   0.0049  -0.0058  -0.0063   0.63    5.4
2023/07/11 06:05:26.800   35.165295832  136.881076459    59.1358   1  16   0.0060   0.0069   0.0140   0.0049  -0.0058  -0.0064   0.82    5.0
2023/07/11 06:05:27.000   35.165294151  136.881074979    59.1200   1  16   0.0059   0.0068   0.0137   0.0049  -0.0058  -0.0063   0.03    5.8
2023/07/11 06:05:27.200   35.165292449  136.881073557    59.1126   1  16   0.0059   0.0068   0.0138   0.0049  -0.0058  -0.0063   0.22    4.7
2023/07/11 06:05:27.400   35.165290653  136.881072148    59.1245   1  16   0.0059   0.0068   0.0138   0.0049  -0.0058  -0.0063   0.43    5.9
2023/07/11 06:05:27.600   35.165288838  136.881070905    59.1361   1  16   0.0060   0.0068   0.0139   0.0049  -0.0058  -0.0063   0.63    6.0
2023/07/11 06:05:27.800   35.165287123  136.881069888    59.1205   1  16   0.0060   0.0069   0.0140   0.0049  -0.0058  -0.0064   0.82    7.4
2023/07/11 06:05:28.000   35.165285511  136.881068974    59.1210   1  16   0.0059   0.0068   0.0137   0.0049  -0.0058  -0.0063   0.03    7.7
2023/07/11 06:05:28.200   35.165283925  136.881068051    59.1154   1  16   0.0059   0.0068   0.0138   0.0049  -0.0058  -0.0063   0.22    8.3
2023/07/11 06:05:28.400   35.165282290  136.881067516    59.1046   1  16   0.0059   0.0068   0.0138   0.0049  -0.0058  -0.0063   0.43    8.2
2023/07/11 06:05:28.600   35.165280904  136.881067041    59.0902   1  16   0.0060   0.0068   0.0139   0.0049  -0.0058  -0.0063   0.63    6.0
2023/07/11 06:05:28.800   35.165279490  136.881066421    59.0869   1  16   0.0060   0.0069   0.0140   0.0049  -0.0058  -0.0064   0.82    5.1
2023/07/11 06:05:29.000   35.165278109  136.881065651    59.0858   1  16   0.0059   0.0068   0.0137   0.0049  -0.0058  -0.0063   0.03    6.0
2023/07/11 06:05:29.200   35.165276646  136.881065002    59.0784   1  16   0.0059   0.0068   0.0138   0.0049  -0.0058  -0.0063   0.22    5.5
2023/07/11 06:05:29.400   35.165274978  136.881064518    59.0660   1  16   0.0059   0.0068   0.0138   0.0049  -0.0058  -0.0063   0.43    5.0
2023/07/11 06:05:29.600   35.165273171  136.881063860    59.0754   1  16   0.0060   0.0068   0.0139   0.0049  -0.0058  -0.0063   0.63    5.6
2023/07/11 06:05:29.800   35.165271363  136.881063327    59.0614   1  16   0.0060   0.0069   0.0140   0.0049  -0.0058  -0.0064   0.82    4.7
2023/07/11 06:05:30.000   35.165269587  136.881062922    59.0649   1  16   0.0059   0.0068   0.0137   0.0049  -0.0058  -0.0063   0.03    6.8
2023/07/11 06:05:30.200   35.165267778  136.881062314    59.0727   1  16   0.0059   0.0068   0.0138   0.0049  -0.0058  -0.0063   0.22    4.6
2023/07/11 06:05:30.400   35.165266129  136.881061872    59.0635   1  16   0.0059   0.0068   0.0138   0.0049  -0.0058  -0.0063   0.43    5.3
2023/07/11 06:05:30.600   35.165264518  136.881061479    59.0639   1  16   0.0060   0.0068   0.0139   0.0049  -0.0058  -0.0063   0.63    5.5
2023/07/11 06:05:30.800   35.165263064  136.881061134    59.0631   1  16   0.0060   0.0069   0.0140   0.0049  -0.0058  -0.0064   0.82    4.7
2023/07/11 06:05:31.000   35.165261699  136.881060692    59.0546   1  16   0.0059   0.0068   0.0137   0.0049  -0.0058  -0.0063   0.03    9.6
2023/07/11 06:05:31.200   35.165260434  136.881060246    59.0526   1  16   0.0059   0.0068   0.0138   0.0049  -0.0058  -0.0063   0.22    5.3
2023/07/11 06:05:31.400   35.165259255  136.881060093    59.0342   1  16   0.0059   0.0068   0.0138   0.0049  -0.0058  -0.0063   0.43    4.4
2023/07/11 06:05:31.600   35.165258122  136.881059850    59.0351   1  16   0.0060   0.0068   0.0139   0.0049  -0.0058  -0.0063   0.63    7.7
2023/07/11 06:05:31.800   35.165257049  136.881059554    59.0277   1  16   0.0060   0.0069   0.0140   0.0049  -0.0058  -0.0064   0.82   10.8
2023/07/11 06:05:32.000   35.165255989  136.881059142    59.0097   1  16   0.0059   0.0068   0.0137   0.0049  -0.0058  -0.0063   0.03    6.4
2023/07/11 06:05:32.200   35.165254848  136.881058910    59.0055   1  16   0.0059   0.0068   0.0137   0.0049  -0.0058  -0.0063   0.22    9.1
2023/07/11 06:05:32.400   35.165253778  136.881058769    59.0089   1  16   0.0059   0.0068   0.0138   0.0049  -0.0058  -0.0063   0.43    5.0
2023/07/11 06:05:32.600   35.165252729  136.881058469    58.9891   1  16   0.0060   0.0068   0.0139   0.0049  -0.0058  -0.0063   0.63   11.9
2023/07/11 06:05:32.800   35.165251650  136.881058186    58.9873   1  16   0.0060   0.0069   0.0140   0.0049  -0.0058  -0.0064   0.82    6.8
2023/07/11 06:05:33.000   35.165250675  136.881058073    58.9671   1  16   0.0059   0.0068   0.0137   0.0049  -0.0057  -0.0063   0.03    9.2
2023/07/11 06:05:33.200   35.165249706  136.881057770    58.9609   1  16   0.0059   0.0068   0.0137   0.0049  -0.0058  -0.0063   0.22   10.0
2023/07/11 06:05:33.400   35.165248885  136.881057676    58.9403   1  16   0.0059   0.0068   0.0138   0.0049  -0.0058  -0.0063   0.43   12.5
2023/07/11 06:05:33.600   35.165248148  136.881057612    58.9487   1  16   0.0060   0.0068   0.0139   0.0049  -0.0058  -0.0063   0.63    9.5
2023/07/11 06:05:33.800   35.165247593  136.881057520    58.9293   1  16   0.0060   0.0069   0.0140   0.0049  -0.0058  -0.0064   0.82    6.4
2023/07/11 06:05:34.000   35.165247131  136.881057324    58.9302   1  16   0.0059   0.0068   0.0137   0.0049  -0.0057  -0.0063   0.03    8.5
2023/07/11 06:05:34.200   35.165246838  136.881057314    58.9272   1  16   0.0059   0.0068   0.0137   0.0049  -0.0058  -0.0063   0.22    8.4
2023/07/11 06:05:34.400   35.165246750  136.881057316    58.9289   1  16   0.0059   0.0068   0.0138   0.0049  -0.0058  -0.0063   0.43    8.9
2023/07/11 06:05:34.600   35.165246798  136.881057336    58.9308   1  16   0.0060   0.0068   0.0139   0.0049  -0.0058  -0.0063   0.63    7.1
2023/07/11 06:05:34.800   35.165246792  136.881057359    58.9309   1  16   0.0060   0.0069   0.0140   0.0049  -0.0058  -0.0064   0.82    7.2
2023/07/11 06:05:35.000   35.165246792  136.881057307    58.9337   1  16   0.0059   0.0068   0.0137   0.0049  -0.0057  -0.0063   0.03   10.9
2023/07/11 06:05:35.200   35.165246778  136.881057309    58.9414   1  16   0.0059   0.0068   0.0137   0.0049  -0.0058  -0.0063   0.22    8.3
2023/07/11 06:05:35.400   35.165246784  136.881057317    58.9363   1  16   0.0059   0.0068   0.0138   0.0049  -0.0058  -0.0063   0.43    8.6
2023/07/11 06:05:35.600   35.165246788  136.881057342    58.9364   1  16   0.0060   0.0068   0.0139   0.0049  -0.0058  -0.0063   0.63    8.3
2023/07/11 06:05:35.800   35.165246770  136.881057342    58.9355   1  16   0.0060   0.0069   0.0140   0.0049  -0.0058  -0.0064   0.82    8.5
2023/07/11 06:05:36.000   35.165246790  136.881057301    58.9370   1  16   0.0059   0.0068   0.0137   0.0049  -0.0057  -0.0063   0.03    9.4
2023/07/11 06:05:36.200   35.165246787  136.881057300    58.9378   1  16   0.0059   0.0068   0.0137   0.0049  -0.0058  -0.0063   0.22    8.9
2023/07/11 06:05:36.400   35.165246804  136.881057337    58.9322   1  16   0.0059   0.0068   0.0138   0.0049  -0.0058  -0.0063   0.43    9.3
2023/07/11 06:05:36.600   35.165246801  136.881057327    58.9368   1  16   0.0060   0.0068   0.0139   0.0049  -0.0058  -0.0063   0.63    9.6
2023/07/11 06:05:36.800   35.165246803  136.881057326    58.9318   1  16   0.0060   0.0069   0.0140   0.0049  -0.0058  -0.0064   0.82    8.7
2023/07/11 06:05:37.000   35.165246768  136.881057305    58.9406   1  16   0.0059   0.0068   0.0137   0.0049  -0.0057  -0.0063   0.03   10.4
2023/07/11 06:05:37.200   35.165246790  136.881057320    58.9355   1  16   0.0059   0.0068   0.0137   0.0049  -0.0057  -0.0063   0.22    9.5
2023/07/11 06:05:37.400   35.165246746  136.881057272    58.9369   1  16   0.0059   0.0068   0.0138   0.0049  -0.0058  -0.0063   0.43   11.8
2023/07/11 06:05:37.600   35.165246672  136.881057336    58.9242   1  16   0.0060   0.0068   0.0139   0.0049  -0.0058  -0.0063   0.63   10.8
2023/07/11 06:05:37.800   35.165246662  136.881057343    58.9197   1  16   0.0060   0.0069   0.0140   0.0049  -0.0058  -0.0064   0.82   10.3
2023/07/11 06:05:38.000   35.165246694  136.881057313    58.9254   1  16   0.0059   0.0068   0.0137   0.0049  -0.0057  -0.0063   0.03    8.0
2023/07/11 06:05:38.200   35.165246682  136.881057312    58.9260   1  16   0.0059   0.0068   0.0137   0.0049  -0.0057  -0.0063   0.22    8.4
2023/07/11 06:05:38.400   35.165246702  136.881057318    58.9227   1  16   0.0059   0.0068   0.0138   0.0049  -0.0058  -0.0063   0.43    7.5
2023/07/11 06:05:38.600   35.165246685  136.881057297    58.9270   1  16   0.0060   0.0068   0.0139   0.0049  -0.0058  -0.0063   0.63    7.7
2023/07/11 06:05:38.800   35.165246709  136.881057345    58.9206   1  16   0.0060   0.0069   0.0140   0.0049  -0.0058  -0.0064   0.82    7.2
2023/07/11 06:05:39.000   35.165246673  136.881057288    58.9236   1  16   0.0059   0.0068   0.0137   0.0049  -0.0057  -0.0063   0.03    7.6
2023/07/11 06:05:39.200   35.165246663  136.881057283    58.9246   1  16   0.0059   0.0068   0.0137   0.0049  -0.0057  -0.0063   0.22    7.6
2023/07/11 06:05:39.400   35.165246676  136.881057331    58.9204   1  16   0.0059   0.0068   0.0138   0.0049  -0.0058  -0.0063   0.43    7.5
2023/07/11 06:05:39.600   35.165246666  136.881057332    58.9211   1  16   0.0060   0.0068   0.0139   0.0049  -0.0058  -0.0063   0.63    8.6
2023/07/11 06:05:39.800   35.165246664  136.881057343    58.9161   1  16   0.0060   0.0069   0.0140   0.0049  -0.0058  -0.0064   0.82    9.0
2023/07/11 06:05:40.000   35.165246687  136.881057332    58.9171   1  16   0.0059   0.0068   0.0137   0.0049  -0.0057  -0.0063   0.03    8.8
2023/07/11 06:05:40.200   35.165246678  136.881057325    58.9254   1  16   0.0059   0.0068   0.0137   0.0049  -0.0057  -0.0063   0.22    7.7
2023/07/11 06:05:40.400   35.165246686  136.881057349    58.9223   1  16   0.0059   0.0068   0.0138   0.0049  -0.0058  -0.0063   0.43    7.3
2023/07/11 06:05:40.600   35.165246664  136.881057323    58.9208   1  16   0.0060   0.0068   0.0139   0.0049  -0.0058  -0.0063   0.63    7.0
2023/07/11 06:05:40.800   35.165246686  136.881057347    58.9230   1  16   0.0060   0.0069   0.0140   0.0049  -0.0058  -0.0064   0.82    7.5
2023/07/11 06:05:41.000   35.165246671  136.881057263    58.9303   1  16   0.0059   0.0068   0.0137   0.0049  -0.0057  -0.0063   0.03   11.4
2023/07/11 06:05:41.200   35.165246662  136.881057267    58.9288   1  16   0.0059   0.0068   0.0137   0.0049  -0.0057  -0.0063   0.22   10.6
2023/07/11 06:05:41.400   35.165246685  136.881057244    58.9227   1  16   0.0059   0.0068   0.0138   0.0049  -0.0058  -0.0063   0.43   11.9
2023/07/11 06:05:41.600   35.165246665  136.881057254    58.9300   1  16   0.0060   0.0068   0.0139   0.0049  -0.0058  -0.0063   0.63    9.8
2023/07/11 06:05:41.800   35.165246671  136.881057276    58.9273   1  16   0.0060   0.0069   0.0139   0.0049  -0.0058  -0.0064   0.82    9.7
2023/07/11 06:05:42.000   35.165246676  136.881057287    58.9248   1  16   0.0059   0.0068   0.0137   0.0049  -0.0057  -0.0063   0.03    9.2
2023/07/11 06:05:42.200   35.165246689  136.881057275    58.9232   1  16   0.0059   0.0068   0.0137   0.0049  -0.0057  -0.0063   0.22    7.3
2023/07/11 06:05:42.400   35.165246701  136.881057327    58.9230   1  16   0.0059   0.0068   0.0138   0.0049  -0.0058  -0.0063   0.43    8.6
2023/07/11 06:05:42.600   35.165246687  136.881057313    58.9203   1  16   0.0060   0.0068   0.0139   0.0049  -0.0058  -0.0063   0.63    6.8
2023/07/11 06:05:42.800   35.165246695  136.881057283    58.9232   1  16   0.0060   0.0069   0.0139   0.0049  -0.0058  -0.0064   0.82    7.1
2023/07/11 06:05:43.000   35.165246690  136.881057293    58.9264   1  16   0.0059   0.0068   0.0137   0.0049  -0.0057  -0.0063   0.03    8.1
2023/07/11 06:05:43.200   35.165246686  136.881057283    58.9220   1  16   0.0059   0.0068   0.0137   0.0049  -0.0057  -0.0063   0.22    8.4
2023/07/11 06:05:43.400   35.165246681  136.881057278    58.9267   1  16   0.0059   0.0068   0.0138   0.0049  -0.0058  -0.0063   0.43    8.2
2023/07/11 06:05:43.600   35.165246704  136.881057317    58.9222   1  16   0.0060   0.0068   0.0139   0.0049  -0.0058  -0.0063   0.63    6.7
2023/07/11 06:05:43.800   35.165246691  136.881057351    58.9253   1  16   0.0060   0.0069   0.0139   0.0049  -0.0058  -0.0064   0.82    6.9
2023/07/11 06:05:44.000   35.165246698  136.881057275    58.9263   1  16   0.0059   0.0068   0.0137   0.0049  -0.0057  -0.0063   0.03    8.6
2023/07/11 06:05:44.200   35.165246679  136.881057255    58.9293   1  16   0.0059   0.0068   0.0137   0.0049  -0.0057  -0.0063   0.22    7.6
2023/07/11 06:05:44.400   35.165246686  136.881057325    58.9265   1  16   0.0059   0.0068   0.0138   0.0049  -0.0058  -0.0063   0.43    8.5
2023/07/11 06:05:44.600   35.165246687  136.881057386    58.9181   1  16   0.0060   0.0068   0.0139   0.0049  -0.0058  -0.0063   0.63    7.7
2023/07/11 06:05:44.800   35.165246696  136.881057345    58.9177   1  16   0.0060   0.0069   0.0139   0.0049  -0.0058  -0.0064   0.82    7.1
2023/07/11 06:05:45.000   35.165246691  136.881057347    58.9204   1  16   0.0059   0.0068   0.0137   0.0049  -0.0057  -0.0063   0.03    9.1
2023/07/11 06:05:45.200   35.165246685  136.881057369    58.9213   1  16   0.0059   0.0068   0.0137   0.0049  -0.0057  -0.0063   0.22    9.1
2023/07/11 06:05:45.400   35.165246686  136.881057363    58.9217   1  16   0.0059   0.0068   0.0138   0.0049  -0.0058  -0.0063   0.43   10.0
2023/07/11 06:05:45.600   35.165246693  136.881057367    58.9211   1  16   0.0060   0.0068   0.0139   0.0049  -0.0058  -0.0063   0.63    7.6
2023/07/11 06:05:45.800   35.165246702  136.881057392    58.9165   1  16   0.0060   0.0069   0.0139   0.0049  -0.0058  -0.0064   0.82    7.5
2023/07/11 06:05:46.000   35.165246682  136.881057287    58.9260   1  16   0.0059   0.0068   0.0137   0.0049  -0.0057  -0.0063   0.03    8.4
2023/07/11 06:05:46.200   35.165246702  136.881057353    58.9228   1  16   0.0059   0.0068   0.0137   0.0049  -0.0057  -0.0063   0.22    9.2
2023/07/11 06:05:46.400   35.165246699  136.881057355    58.9265   1  16   0.0059   0.0068   0.0138   0.0049  -0.0058  -0.0063   0.43    8.2
2023/07/11 06:05:46.600   35.165246706  136.881057355    58.9237   1  16   0.0060   0.0068   0.0139   0.0049  -0.0058  -0.0063   0.63    8.4
2023/07/11 06:05:46.800   35.165246701  136.881057370    58.9222   1  16   0.0060   0.0069   0.0139   0.0049  -0.0058  -0.0064   0.82    7.2
2023/07/11 06:05:47.000   35.165246610  136.881057267    58.9237   1  16   0.0059   0.0068   0.0137   0.0049  -0.0057  -0.0063   0.03    8.5
2023/07/11 06:05:47.200   35.165246378  136.881057208    58.9286   1  16   0.0059   0.0068   0.0137   0.0049  -0.0057  -0.0063   0.22    9.6
2023/07/11 06:05:47.400   35.165245873  136.881057141    58.9200   1  16   0.0059   0.0068   0.0138   0.0049  -0.0058  -0.0063   0.43    8.9
2023/07/11 06:05:47.600   35.165245029  136.881057060    58.9125   1  16   0.0060   0.0068   0.0139   0.0049  -0.0058  -0.0063   0.63    5.1
2023/07/11 06:05:47.800   35.165243918  136.881056917    58.8958   1  16   0.0060   0.0069   0.0139   0.0049  -0.0058  -0.0064   0.82    7.1
2023/07/11 06:05:48.000   35.165242647  136.881056863    58.8906   1  16   0.0059   0.0068   0.0137   0.0049  -0.0057  -0.0063   0.03    6.3
2023/07/11 06:05:48.200   35.165241223  136.881056763    58.8757   1  16   0.0059   0.0068   0.0137   0.0049  -0.0057  -0.0063   0.22    7.7
2023/07/11 06:05:48.400   35.165239730  136.881056692    58.8792   1  16   0.0059   0.0068   0.0138   0.0049  -0.0057  -0.0063   0.43    5.2
2023/07/11 06:05:48.600   35.165238177  136.881056629    58.8562   1  16   0.0060   0.0068   0.0138   0.0049  -0.0058  -0.0063   0.63    5.8
2023/07/11 06:05:48.800   35.165236640  136.881056766    58.8123   1  16   0.0060   0.0069   0.0139   0.0049  -0.0058  -0.0064   0.82    5.1
2023/07/11 06:05:49.000   35.165234953  136.881056682    58.7770   1  16   0.0059   0.0068   0.0137   0.0049  -0.0057  -0.0063   0.03   14.7
2023/07/11 06:05:49.200   35.165233245  136.881056478    58.7808   1  16   0.0059   0.0068   0.0137   0.0049  -0.0057  -0.0063   0.22   11.9
2023/07/11 06:05:49.400   35.165231611  136.881056410    58.7782   1  16   0.0059   0.0068   0.0138   0.0049  -0.0057  -0.0063   0.43    7.9
2023/07/11 06:05:49.600   35.165229776  136.881056391    58.7502   1  16   0.0060   0.0068   0.0138   0.0049  -0.0058  -0.0063   0.63    9.2
2023/07/11 06:05:49.800   35.165227951  136.881056293    58.7309   1  16   0.0060   0.0069   0.0139   0.0049  -0.0058  -0.0064   0.82    6.0
2023/07/11 06:05:50.000   35.165225997  136.881056186    58.7059   1  16   0.0059   0.0068   0.0137   0.0049  -0.0057  -0.0063   0.03   10.1
2023/07/11 06:05:50.200   35.165223971  136.881056241    58.6889   1  16   0.0059   0.0068   0.0137   0.0049  -0.0057  -0.0063   0.22    7.3
2023/07/11 06:05:50.400   35.165222017  136.881056016    58.6904   1  16   0.0059   0.0068   0.0138   0.0049  -0.0057  -0.0063   0.43    5.7
2023/07/11 06:05:50.600   35.165220162  136.881055818    58.6719   1  16   0.0060   0.0068   0.0138   0.0049  -0.0058  -0.0063   0.63    3.4
2023/07/11 06:05:50.800   35.165218224  136.881055599    58.6390   1  16   0.0060   0.0069   0.0139   0.0049  -0.0058  -0.0064   0.82    4.9
2023/07/11 06:05:51.000   35.165216193  136.881055372    58.6340   1  16   0.0059   0.0068   0.0137   0.0049  -0.0057  -0.0063   0.03    6.0
2023/07/11 06:05:51.200   35.165214179  136.881055153    58.6333   1  16   0.0059   0.0068   0.0137   0.0049  -0.0057  -0.0063   0.22    7.0
2023/07/11 06:05:51.400   35.165211951  136.881054896    58.6104   1  16   0.0059   0.0068   0.0138   0.0049  -0.0057  -0.0063   0.43    6.2
2023/07/11 06:05:51.600   35.165209565  136.881054502    58.5854   1  16   0.0060   0.0068   0.0138   0.0049  -0.0058  -0.0063   0.63    4.7
2023/07/11 06:05:51.800   35.165207011  136.881053938    58.5791   1  16   0.0060   0.0069   0.0139   0.0049  -0.0058  -0.0064   0.82    5.2
2023/07/11 06:05:52.000   35.165204159  136.881053487    58.5579   1  16   0.0059   0.0068   0.0137   0.0049  -0.0057  -0.0063   0.03    6.4
2023/07/11 06:05:52.200   35.165201646  136.881052519    58.5348   1  16   0.0059   0.0068   0.0137   0.0049  -0.0057  -0.0063   0.22    4.0
2023/07/11 06:05:52.400   35.165198890  136.881050838    58.5189   1  16   0.0059   0.0068   0.0138   0.0049  -0.0057  -0.0063   0.43    5.7
2023/07/11 06:05:52.600   35.165195995  136.881049237    58.5056   1  16   0.0060   0.0068   0.0138   0.0049  -0.0058  -0.0063   0.63    8.1
2023/07/11 06:05:52.800   35.165192962  136.881047624    58.5081   1  16   0.0060   0.0069   0.0139   0.0049  -0.0058  -0.0064   0.82    3.6
2023/07/11 06:05:53.000   35.165190000  136.881045490    58.4959   1  16   0.0059   0.0068   0.0137   0.0049  -0.0057  -0.0063   0.03    5.8
2023/07/11 06:05:53.200   35.165187058  136.881043013    58.4766   1  16   0.0059   0.0068   0.0137   0.0049  -0.0057  -0.0063   0.22    4.0
