     3.02           OBSERVATION DATA    M (MIXED)           RINEX VERSION / TYPE
NetR9 5.30          Receiver Operator   20180830 001654 UTC PGM / RUN BY / DATE
BREF0001                                                    MARKER NAME
_                                                           MARKER NUMBER
GEODETIC                                                    MARKER TYPE         
OBS                 AGENCY                                  OBSERVER / AGENCY   
5648R51043          TRIMBLE NETR9       5.30                REC # / TYPE / VERS
                    TRM57971.00     NONE                    ANT # / TYPE
 -3827556.0423  3524863.4962  3676873.6769                  APPROX POSITION XYZ
        1.4880        0.0000        0.0000                  ANTENNA: DELTA H/E/N
G   12 C1C L1C S1C C2W L2W S2W C2X L2X S2X C5X L5X S5X      SYS / # / OBS TYPES
R    9 C1C L1C S1C C1P L1P S1P C2C L2C S2C                  SYS / # / OBS TYPES
E   12 C1X L1X S1X C5X L5X S5X C7X L7X S7X C8X L8X S8X      SYS / # / OBS TYPES
J   18 C1C L1C S1C C1X L1X S1X C1Z L1Z S1Z C2X L2X S2X C5X  SYS / # / OBS TYPES
       L5X S5X C6X L6X S6X                                  SYS / # / OBS TYPES
C    9 C1I L1I S1I C7I L7I S7I C6I L6I S6I                  SYS / # / OBS TYPES
     1.000                                                  INTERVAL
  2018     8    30     2     3   32.0000000     GPS         TIME OF FIRST OBS
G L2X -0.25000                                              SYS / PHASE SHIFT   
R L1P  0.25000                                              SYS / PHASE SHIFT   
R L2C -0.25000                                              SYS / PHASE SHIFT   
J L2X -0.25000                                              SYS / PHASE SHIFT   
DBHZ                                                        SIGNAL STRENGTH UNIT
 12 R02 -4 R03  5 R04  6 R05  1 R09 -2 R10 -7 R15  0 R16 -1 GLONASS SLOT / FRQ #
    R17  4 R18 -3 R19  3 R20  2                             GLONASS SLOT / FRQ #
                                                            GLONASS COD/PHS/BIS 
                                                            END OF HEADER       
> 2018  8 30  2  3  0.0000000  0 32       0.000000000000
G08  24020509.219 6 126228599.813 6        39.200    24020512.629 3  98359949.280 3        20.100    24020513.016 6  98359950.318 6        38.300    24020511.605 7  94261612.208 7        43.200
G28  20782856.641 7 109214646.187 7        47.000    20782854.840 6  85102316.439 6        39.800
G18  22664403.227 6 119102231.081 6        41.100    22664402.766 4  92806928.358 4        26.300
G22  21162175.945 7 111207987.855 7        46.700    21162172.758 6  86655565.241 6        40.200
G01  21181730.359 8 111310739.629 8        48.500    21181732.590 6  86735647.228 6        40.300    21181732.586 8  86735648.238 8        48.800    21181730.496 8  83121655.028 8        53.500
G03  20424335.414 8 107330622.680 8        50.400    20424336.441 6  83634259.042 6        41.600    20424336.590 8  83634272.045 8        49.600    20424337.344 9  80149498.851 9        55.000
R10  23513384.961 7 125339586.997 7        43.300    23513385.375 7 125339575.003 7        43.300    23513385.684 6  97486334.820 6        37.900
G17  22528078.555 8 118385828.790 8        49.500    22528077.855 6  92248731.747 6        36.800    22528077.371 7  92248772.754 7        45.100
J01  36927768.109 7 194056736.978 7        43.000    36927768.477 7 194056751.968 7        47.200    36927765.207 7 194056737.883 7        43.200    36927766.621 7 151213056.478 7        45.000    36927770.012 8 144912508.791 8        49.300    36927760.883 7 157513554.331 7        46.200
R09  21585944.789 7 115267746.021 7        47.000    21585943.242 7 115267735.037 7        46.100    21585936.980 7  89652675.271 7        46.700
R19  20700751.523 7 110735067.623 7        45.100    20700749.285 7 110735060.641 7        43.700    20700742.320 7  86127281.100 7        44.200
G06  24429637.602 6 128378590.271 6        36.900    24429641.090 2 100035297.09612        16.900    24429640.336 5 100035308.218 5        35.000    24429640.207 6  95867163.009 6        39.100
R16  22645358.680 6 120967425.617 6        39.900    22645358.578 6 120967414.633 6        39.100    22645353.719 6  94085744.135 6        38.100
G19  24386039.734 6 128149516.556 6        37.800    24386039.910 4  99856757.782 4        25.900
G11  21455306.789 7 112748389.185 7        47.300    21455305.359 6  87855879.402 6        36.600
R18  20688814.242 8 110438289.229 8        49.900    20688813.238 8 110438289.236 8        48.700    20688807.621 7  85896410.036 7        46.300
R03  20451616.477 8 109479143.363 8        48.600    20451616.203 7 109479139.376 7        47.600    20451610.047 7  85150445.522 7        46.400
R04  21367684.039 7 114423011.635 7        47.700    21367683.813 7 114422980.649 7        46.300    21367675.512 7  88995655.095 7        43.200
R02  23133653.383 6 123445599.398 6        36.100    23133652.156 5 123445596.409 5        35.400    23133648.840 5  96013278.108 5        35.100
C13  38380670.922 6 199858227.132 6        41.400    38380668.855 7 154543047.758 7        42.600    38380658.867 7 162401128.123 7        44.300
C07  37367022.359 6 194579882.709 6        41.300    37367012.203 7 150461461.668 7        43.900    37367003.227 7 158112008.285 7        44.600
C10  37139442.344 7 193394818.852 7        42.700    37139434.988 7 149545104.660 7        44.700    37139425.156 7 157149055.984 7        44.900
C08  36758969.961 7 191413600.147 7        45.200    36758958.965 7 148013095.740 7        46.900    36758950.660 7 155539148.843 7        47.500
C04  37426145.367 6 194887757.503 6        39.000    37426134.086 7 150699529.905 7        43.200    37426128.844 7 158362196.480 7        44.300
C03  37879082.469 6 197246310.697 6        36.500    37879072.262 7 152523322.561 7        43.600    37879066.477 7 160278724.230 7        43.500
C01  37084875.352 6 193110675.706 6        39.900    37084861.461 7 149325364.495 7        45.200    37084856.609 7 156918157.098 7        44.100
E24  23700742.969 7 124548230.560 7        46.200    23700752.297 7  93006826.531 7        47.400    23700751.758 8  95433086.500 8        48.000    23700752.391 8  94219958.126 8        51.300
E04  25990266.375 6 136579790.997 6        41.500    25990264.871 7 101991405.499 7        44.700    25990264.832 7 104652039.751 7        47.100    25990264.938 8 103321727.720 8        49.400
E25  24700099.953 7 129799903.817 7        47.400    24700099.230 8  96928493.500 8        48.600    24700098.332 8  99457057.400 8        49.200    24700098.957 8  98192778.054 8        52.400
E19  25682215.164 6 134961069.660 6        41.900    25682213.164 7 100782520.859 7        42.800    25682211.684 7 103411629.531 7        42.400    25682212.492 7 102097075.302 7        46.200
E12  22786175.664 7 119742156.723 7        46.500    22786170.020 8  89417820.019 8        48.900    22786169.715 8  91750459.496 8        48.600    22786170.461 8  90584142.353 8        52.500
E11  23064228.344 7 121203341.739 7        45.900    23064223.063 7  90508970.792 7        47.500    23064222.125 7  92870069.708 7        47.000    23064222.813 8  91689522.356 8        49.800
> 2018  8 30  2  3  1.0000000  0 32       0.000000000000
G08  24021024.336 6 126231307.338 6        38.600    24021027.852 3  98362059.050 3        19.900    24021027.988 6  98362060.062 6        38.100    24021026.527 7  94263634.068 7        42.700
G28  20782854.016 7 109214632.186 7        47.100    20782852.117 6  85102305.524 6        39.300
G18  22664944.867 6 119105075.483 6        41.300    22664944.328 3  92809144.774 3        23.400
G22  21162375.984 7 111209039.071 7        46.900    21162372.703 6  86656384.371 6        40.300
G01  21182094.539 8 111312651.707 8        48.500    21182096.617 6  86737137.164 6        40.400    21182096.188 8  86737138.175 8        48.800    21182094.348 8  83123082.878 8        53.500
G03  20424186.375 8 107329838.730 8        50.300    20424187.180 6  83633648.169 6        41.900    20424187.469 8  83633661.173 8        49.800    20424188.199 9  80148913.443 9        54.800
R10  23512938.031 7 125337200.453 7        43.800    23512937.789 7 125337188.459 7        43.500    23512938.227 6  97484478.621 6        37.800
G17  22527627.633 8 118383460.744 8        49.300    22527627.660 6  92246886.515 6        36.500    22527626.941 7  92246927.524 7        44.900
J01  36927778.906 7 194056791.420 7        43.000    36927778.910 7 194056806.413 7        47.100    36927776.523 7 194056792.341 7        42.600    36927777.117 7 151213098.910 7        45.000    36927780.465 8 144912549.453 8        49.400    36927771.133 7 157513598.536 7        46.200
R09  21586081.078 7 115268474.636 7        47.500    21586079.625 7 115268463.657 7        46.400    21586073.758 7  89653241.962 7        46.700
R19  20700502.070 7 110733738.110 7        45.300    20700500.277 7 110733731.128 7        43.200    20700493.020 7  86126247.033 7        44.200
G06  24429135.555 6 128375950.555 6        36.500    24429139.203 2 100033240.222 2        16.900    24429137.746 5 100033251.277 5        34.700    24429137.926 6  95865191.772 6        39.000
R16  22646063.734 6 120971189.876 6        40.200    22646063.516 6 120971178.888 6        39.200    22646057.523 6  94088671.861 6        37.700
G19  24385450.094 6 128146416.761 6        38.300    24385449.348 4  99854342.352 4        24.800
G11  21455678.477 7 112750342.338 7        47.300    21455677.027 6  87857401.340 6        37.300
R18  20689005.875 8 110439312.817 8        50.200    20689004.918 8 110439312.808 8        48.600    20689000.102 7  85897206.156 7        46.100
R03  20451588.727 8 109478993.748 8        49.100    20451588.168 7 109478989.770 7        47.400    20451582.301 7  85150329.155 7        46.800
R04  21366982.813 7 114419255.632 7        47.100    21366982.563 7 114419224.651 7        45.900    21366974.180 7  88992733.767 7        43.000
R02  23134249.031 5 123448771.096 5        35.800    23134246.516 5 123448768.132 5        35.400    23134243.582 5  96015744.944 5        35.400
C13  38380631.930 6 199858023.413 6        41.200    38380629.871 7 154542890.222 7        42.700    38380619.898 7 162400962.587 7        44.300
C07  37367321.234 6 194581439.681 6        41.100    37367311.199 7 150462665.614 7        43.900    37367302.113 7 158113273.447 7        44.600
C10  37139659.172 7 193395944.190 7        43.200    37139651.293 7 149545974.835 7        45.100    37139641.180 7 157149970.409 7        44.900
C08  36758963.273 7 191413564.082 7        45.700    36758951.891 7 148013067.856 7        46.800    36758943.648 7 155539119.540 7        47.300
C04  37426145.797 6 194887760.965 6        39.100    37426135.266 7 150699532.579 7        43.500    37426129.801 7 158362199.291 7        44.300
C03  37879083.938 6 197246319.275 6        36.500    37879073.984 7 152523329.190 7        43.500    37879068.102 7 160278731.197 7        43.600
C01  37084880.758 6 193110703.191 6        39.800    37084866.563 7 149325385.744 7        45.000    37084861.453 7 156918179.435 7        44.100
E24  23701240.523 7 124550846.457 7        46.100    23701250.191 7  93008779.950 7        47.400    23701249.488 8  95435090.888 8        48.200    23701250.211 8  94221937.024 8        51.500
E04  25989773.344 6 136577200.185 6        41.400    25989771.555 7 101989470.807 7        44.600    25989771.926 7 104650054.591 7        47.000    25989771.887 8 103319767.795 8        49.300
E25  24700191.813 7 129800385.432 7        47.100    24700190.969 8  96928853.146 8        49.000    24700190.012 8  99457426.438 8        49.400    24700190.609 8  98193142.396 8        52.600
E19  25682142.641 6 134960690.989 6        41.600    25682141.348 7 100782238.066 7        42.800    25682139.402 7 103411339.368 7        42.300    25682140.434 7 102096788.825 7        46.400
E12  22786344.313 7 119743042.401 7        46.600    22786338.504 8  89418481.392 8        49.000    22786338.195 8  91751138.118 8        48.600    22786338.973 8  90584812.357 8        52.600
E11  23064049.898 7 121202403.999 7        45.900    23064044.688 7  90508270.525 7        47.300    23064043.688 7  92869351.179 7        47.000    23064044.355 8  91688812.960 8        49.700
> 2018  8 30  2  3  2.0000000  0 32       0.000000000000
G08  24021539.656 6 126234015.170 6        38.700    24021542.820 3  98364169.049 3        19.600    24021543.488 6  98364170.064 6        37.800    24021541.918 7  94265656.125 7        43.000
G28  20782851.109 7 109214618.855 7        46.900    20782849.465 6  85102295.144 6        39.700
G18  22665485.680 6 119107920.027 6        41.100    22665485.797 4  92811361.318 4        24.100
G22  21162576.180 7 111210090.918 7        46.700    21162573.371 6  86657203.993 6        40.300
G01  21182458.359 8 111314564.053 8        48.400    21182460.133 6  86738627.308 6        40.700    21182460.105 8  86738628.312 8        48.500    21182458.250 8  83124510.931 8        53.500
G03  20424037.406 8 107329055.509 8        49.700    20424038.461 6  83633037.869 6        41.500    20424038.387 8  83633050.873 8        49.600    20424039.129 9  80148328.573 9        54.900
R10  23512490.875 7 125334814.679 7        43.900    23512490.160 7 125334802.688 7        43.700    23512490.063 6  97482622.992 6        38.100
G17  22527177.258 8 118381092.851 8        49.300    22527177.137 6  92245041.407 6        36.500    22527176.504 7  92245082.407 7        44.600
J01  36927789.281 7 194056846.020 7        42.600    36927789.227 7 194056861.023 7        47.100    36927786.457 7 194056846.949 7        42.600    36927787.613 7 151213141.459 7        44.900    36927790.898 8 144912590.233 8        49.200    36927781.617 7 157513642.858 7        46.500
R09  21586217.617 7 115269204.161 7        47.900    21586216.188 7 115269193.160 7        46.500    21586210.758 7  89653809.360 7        46.700
R19  20700253.313 7 110732408.800 7        45.200    20700251.801 7 110732401.811 7        43.200    20700244.621 7  86125213.132 7        44.400
G06  24428632.852 5 128373311.028 5        35.900    24428636.766 2 100031183.428 2        16.900    24428635.586 5 100031194.510 5        35.100    24428635.922 6  95863220.717 6        38.900
R16  22646769.102 6 120974954.369 6        40.800    22646768.531 6 120974943.375 6        38.800    22646763.430 6  94091599.832 6        37.900
G19  24384860.414 6 128143317.037 6        38.300    24384859.762 4  99851926.993 4        24.700
G11  21456050.250 7 112752295.796 7        47.100    21456048.965 6  87858923.514 6        36.900
R18  20689197.367 8 110440336.681 8        50.200    20689196.598 8 110440336.681 8        48.900    20689191.191 7  85898002.492 7        46.200
R03  20451560.438 8 109478845.091 8        48.400    20451560.117 7 109478841.105 7        47.200    20451553.492 7  85150213.535 7        47.000
R04  21366281.531 7 114415500.130 7        46.800    21366281.352 7 114415469.143 7        46.100    21366272.836 7  88989812.821 7        42.600
R02  23134843.641 5 123451943.404 5        35.000    23134840.914 5 123451940.415 5        35.300    23134836.563 5  96018212.285 5        35.300
C13  38380592.445 6 199857819.721 6        41.400    38380590.902 7 154542732.721 7        42.900    38380580.746 7 162400797.076 7        44.200
C07  37367620.352 6 194582996.847 6        41.400    37367610.270 7 150463869.715 7        44.000    37367601.074 7 158114538.773 7        44.600
C10  37139875.172 7 193397069.763 7        43.400    37139867.434 7 149546845.201 7        45.100    37139857.484 7 157150885.031 7        44.700
C08  36758956.328 7 191413528.061 7        46.000    36758944.973 7 148013040.004 7        47.000    36758936.785 7 155539090.269 7        47.300
C04  37426146.672 6 194887764.480 6        38.900    37426135.605 7 150699535.303 7        43.200    37426130.316 7 158362202.148 7        44.100
C03  37879085.672 6 197246327.892 6        36.800    37879075.746 7 152523335.854 7        43.800    37879069.820 7 160278738.202 7        43.700
C01  37084886.281 6 193110730.723 6        39.900    37084872.141 7 149325407.034 7        45.300    37084867.293 7 156918201.807 7        44.000
E24  23701738.453 7 124553462.596 7        46.300    23701748.047 7  93010733.573 7        47.400    23701747.176 8  95437095.473 8        48.000    23701748.016 8  94223916.127 8        51.300
E04  25989280.516 6 136574609.618 6        41.500    25989278.879 7 101987536.286 7        44.800    25989278.797 7 104648069.612 7        47.300    25989278.922 8 103317808.053 8        49.400
E25  24700283.508 7 129800867.593 7        47.400    24700282.742 8  96929213.206 8        49.100    24700281.570 8  99457795.889 8        49.700    24700282.340 8  98193507.149 8        52.700
E19  25682071.133 6 134960312.807 6        41.800    25682069.199 7 100781955.676 7        43.100    25682067.332 7 103411049.608 7        42.400    25682068.434 7 102096502.748 7        46.600
E12  22786512.898 7 119743928.214 7        46.200    22786507.105 8  89419142.876 8        49.100    22786506.793 8  91751816.860 8        48.800    22786507.535 8  90585482.475 8        52.900
E11  23063871.664 7 121201466.369 7        46.100    23063866.219 7  90507570.363 7        47.200    23063865.113 7  92868632.752 7        47.000    23063865.922 8  91688103.661 8        49.600
> 2018  8 30  2  3  3.0000000  0 32       0.000000000000
G08  24022055.008 6 126236723.243 6        39.100    24022058.598 3  98366279.217 3        19.600    24022058.141 6  98366280.214 6        37.100    24022057.129 7  94267678.395 7        43.000
G28  20782848.797 7 109214606.211 7        46.700    20782847.328 6  85102285.291 6        40.200
G18  22666026.914 6 119110764.777 6        40.500    22666026.996 4  92813577.997 4        24.400
G22  21162776.617 7 111211143.394 7        47.000    21162772.957 6  86658024.104 6        40.300
G01  21182822.188 8 111316476.689 8        48.400    21182824.672 6  86740117.666 6        40.500    21182823.914 8  86740118.677 8        48.400    21182822.250 8  83125939.196 8        53.500
G03  20423888.258 8 107328273.013 8        50.100    20423889.273 6  83632428.134 6        41.600    20423889.590 8  83632441.138 8        49.500    20423890.199 9  80147744.245 9        54.900
R10  23512044.422 7 125332429.651 7        44.100    23512042.395 7 125332417.657 7        43.400    23512042.281 6  97480767.974 6        38.300
G17  22526726.563 8 118378725.092 8        49.300    22526726.348 6  92243196.395 6        36.400    22526726.078 7  92243237.414 7        45.000
J01  36927799.359 7 194056900.792 7        43.000    36927799.656 7 194056915.808 7        47.200    36927796.172 7 194056901.725 7        42.400    36927798.020 7 151213184.149 7        44.900    36927801.316 8 144912631.127 8        49.000    36927792.059 7 157513687.319 7        46.600
R09  21586353.984 7 115269934.552 7        47.700    21586352.906 7 115269923.559 7        46.400    21586347.449 7  89654377.441 7        46.300
R19  20700005.844 7 110731079.701 7        45.000    20700003.043 7 110731072.704 7        43.600    20699995.738 7  86124179.384 7        44.300
G06  24428130.836 5 128370671.749 5        35.500    24428134.789 2 100029126.868 2        17.400    24428134.027 5 100029137.919 5        35.900    24428133.395 6  95861249.815 6        39.000
R16  22647473.734 6 120978719.163 6        40.500    22647473.469 6 120978708.181 6        39.300    22647467.797 6  94094527.991 6        37.600
G19  24384270.102 6 128140217.361 6        38.400    24384269.887 4  99849511.678 4        26.300
G11  21456421.719 7 112754249.582 7        46.800    21456420.316 6  87860445.946 6        37.500
R18  20689389.219 8 110441360.809 8        50.500    20689388.473 8 110441360.816 8        48.300    20689382.965 7  85898799.043 7        46.200
R03  20451532.578 8 109478697.389 8        48.500    20451532.820 7 109478693.395 7        47.300    20451526.586 7  85150098.649 7        46.800
R04  21365581.234 7 114411745.121 7        47.400    21365580.160 7 114411714.119 7        46.000    21365571.395 7  88986892.247 7        42.900
R02  23135437.633 5 123455116.270 5        35.100    23135435.352 5 123455113.288 5        34.600    23135431.012 5  96020680.049 5        35.900
C13  38380553.273 6 199857616.127 6        41.300    38380551.398 7 154542575.291 7        42.900    38380541.391 7 162400631.639 7        44.100
C07  37367919.445 6 194584554.177 6        41.600    37367909.570 7 150465073.941 7        44.100    37367900.324 7 158115804.234 7        44.400
C10  37140091.203 7 193398195.571 7        43.200    37140083.621 7 149547715.737 7        45.000    37140073.629 7 157151799.840 7        45.100
C08  36758949.078 7 191413492.071 7        45.900    36758938.113 7 148013012.173 7        47.000    36758929.883 7 155539061.023 7        47.200
C04  37426147.367 6 194887768.087 6        38.800    37426136.219 7 150699538.090 7        43.700    37426130.930 7 158362205.079 7        43.600
C03  37879087.461 6 197246336.603 6        36.600    37879077.238 7 152523342.591 7        43.200    37879071.414 7 160278745.275 7        43.900
C01  37084891.281 6 193110758.354 6        39.700    37084877.254 7 149325428.403 7        45.300    37084872.445 7 156918224.262 7        43.900
E24  23702236.141 7 124556079.035 7        46.300    23702245.957 7  93012687.411 7        47.300    23702245.012 7  95439100.281 7        47.600    23702245.902 8  94225895.448 8        51.200
E04  25988787.656 6 136572019.277 6        41.900    25988785.703 7 101985601.936 7        45.200    25988786.008 7 104646084.801 7        46.800    25988786.023 8 103315848.466 8        49.000
E25  24700375.219 7 129801350.320 7        47.100    24700374.539 8  96929573.676 8        49.200    24700373.512 8  99458165.763 8        49.300    24700374.223 8  98193872.330 8        52.800
E19  25681999.203 6 134959935.191 6        41.800    25681997.418 7 100781673.684 7        43.400    25681995.473 7 103410760.254 7        42.400    25681996.594 7 102096217.075 7        46.600
E12  22786681.234 7 119744814.183 7        46.400    22786675.691 8  89419804.476 8        48.900    22786675.309 8  91752495.719 8        48.600    22786676.113 8  90586152.695 8        52.600
E11  23063693.289 7 121200528.908 7        46.200    23063687.859 7  90506870.305 7        47.400    23063686.719 7  92867914.430 7        47.200    23063687.520 8  91687394.473 8        49.700
> 2018  8 30  2  3  4.0000000  0 32       0.000000000000
G08  24022570.258 6 126239431.345 6        39.200    24022574.031 3  98368389.421 3        19.600    24022572.734 6  98368390.452 6        37.100    24022572.410 7  94269700.679 7        43.200
G28  20782846.453 7 109214594.003 7        46.600    20782845.352 6  85102275.776 6        40.200
G18  22666568.039 6 119113609.422 6        40.600    22666568.566 4  92815794.583 4        24.600
G22  21162976.781 7 111212196.261 7        46.700    21162973.660 6  86658844.517 6        40.300
G01  21183186.430 7 111318389.361 7        47.900    21183188.684 6  86741608.057 6        40.200    21183187.824 8  86741609.068 8        48.500    21183186.199 8  83127367.493 8        53.600
G03  20423739.445 8 107327491.011 8        49.900    20423740.445 6  83631818.780 6        41.400    20423740.563 8  83631831.777 8        49.400    20423741.398 9  80147160.275 9        55.000
R10  23511597.180 7 125330045.142 7        44.400    23511595.129 7 125330033.137 7        43.000    23511594.840 6  97478913.364 6        38.300
G17  22526276.117 8 118376357.253 8        49.500    22526275.508 6  92241351.328 6        36.400    22526275.141 7  92241392.337 7        45.200
J01  36927809.688 7 194056955.499 7        42.700    36927810.160 7 194056970.491 7        47.200    36927807.547 7 194056956.424 7        42.600    36927808.277 7 151213226.760 7        45.100    36927811.836 8 144912671.972 8        49.300    36927802.063 7 157513731.717 7        46.300
R09  21586491.344 7 115270665.585 7        47.600    21586489.961 7 115270654.607 7        46.300    21586484.414 7  89654946.039 7        46.700
R19  20699756.336 7 110729750.542 7        45.100    20699754.918 7 110729743.567 7        43.300    20699747.691 7  86123145.593 7        44.000
G06  24427628.180 5 128368032.414 5        35.500    24427632.324 2 100027070.297 2        16.900    24427631.570 5 100027081.288 5        35.700    24427631.266 6  95859278.883 6        39.700
R16  22648178.320 6 120982483.968 6        40.500    22648178.336 6 120982472.970 6        39.500    22648172.512 6  94097456.174 6        37.400
G19  24383680.828 6 128137117.523 6        38.400    24383680.199 4  99847096.220 4        24.600
G11  21456793.789 7 112756203.418 7        46.700    21456792.531 6  87861968.404 6        37.100
R18  20689581.211 8 110442384.938 8        50.500    20689580.113 8 110442384.944 8        48.500    20689574.555 7  85899595.585 7        46.000
R03  20451505.773 8 109478550.379 8        48.200    20451505.453 7 109478546.400 7        47.200    20451499.746 7  85149984.315 7        46.900
R04  21364879.375 7 114407990.308 7        47.500    21364879.102 7 114407959.313 7        46.100    21364870.766 7  88983971.850 7        42.900
R02  23136031.406 5 123458289.510 5        35.200    23136030.039 5 123458286.531 5        34.500    23136025.563 5  96023148.155 5        35.400
C13  38380514.180 6 199857412.345 6        41.200    38380512.715 7 154542417.710 7        42.500    38380502.566 7 162400466.048 7        44.400
C07  37368218.883 6 194586111.457 6        41.700    37368208.543 7 150466278.123 7        43.900    37368199.266 7 158117069.646 7        44.400
C10  37140307.414 7 193399321.330 7        43.100    37140300.012 7 149548586.247 7        44.700    37140289.891 7 157152714.608 7        45.200
C08  36758942.352 7 191413455.855 7        45.400    36758930.891 7 148012984.160 7        47.000    36758922.723 7 155539031.588 7        47.000
C04  37426147.875 6 194887771.536 6        39.000    37426136.867 7 150699540.757 7        43.500    37426131.625 7 158362207.881 7        44.000
C03  37879089.172 6 197246345.139 6        36.500    37879078.961 7 152523349.192 7        43.500    37879073.125 7 160278752.214 7        43.300
C01  37084896.648 6 193110785.797 6        39.900    37084882.277 7 149325449.622 7        45.200    37084877.496 7 156918246.558 7        44.000
E24  23702734.047 7 124558695.525 7        46.300    23702743.738 7  93014641.283 7        47.000    23702742.953 7  95441105.108 7        47.500    23702743.762 8  94227874.798 8        51.300
E04  25988294.578 6 136569428.913 6        41.400    25988292.801 7 101983667.586 7        44.900    25988293.176 7 104644099.973 7        47.100    25988293.109 8 103313888.877 8        49.100
E25  24700467.336 7 129801833.348 7        46.800    24700466.617 8  96929934.380 8        49.000    24700465.504 8  99458535.873 8        49.300    24700466.141 8  98194237.731 8        52.900
E19  25681927.430 6 134959557.835 6        41.900    25681925.582 7 100781391.889 7        43.500    25681923.742 7 103410471.118 7        42.400    25681924.793 7 102095931.604 7        46.400
E12  22786849.727 7 119745700.047 7        46.400    22786844.223 8  89420465.991 8        48.500    22786843.926 8  91753174.496 8        48.500    22786844.695 8  90586822.847 8        52.300
E11  23063514.695 7 121199591.363 7        46.500    23063509.367 7  90506170.180 7        47.500    23063508.375 7  92867196.052 7        46.700    23063509.121 8  91686685.224 8        49.800
> 2018  8 30  2  3  5.0000000  0 32       0.000000000000
G08  24023085.320 6 126242139.759 6        39.100    24023088.984 3  98370499.902 3        19.900    24023088.461 6  98370500.902 6        36.700    24023087.820 7  94271723.182 7        43.000
G28  20782843.977 7 109214582.549 7        46.700    20782842.953 6  85102266.853 6        40.100
G18  22667109.344 6 119116454.285 6        40.600    22667109.813 4  92818011.374 4        25.400
G22  21163177.148 7 111213249.814 7        47.000    21163173.629 6  86659665.468 6        40.400
G01  21183550.398 8 111320302.369 8        48.100    21183552.770 6  86743098.719 6        40.600    21183551.707 8  86743099.716 8        48.700    21183550.238 8  83128796.029 8        53.700
G03  20423590.992 8 107326709.787 8        50.000    20423591.953 6  83631210.035 6        41.400    20423592.262 8  83631223.031 8        49.600    20423592.762 9  80146576.895 9        54.800
R10  23511149.398 7 125327661.445 7        44.200    23511148.262 7 125327649.450 7        43.600    23511148.082 6  97477059.373 6        38.200
G17  22525825.422 8 118373989.608 8        49.400    22525825.176 6  92239506.414 6        36.800    22525824.832 7  92239547.421 7        44.900
J01  36927819.922 7 194057010.429 7        42.800    36927820.488 7 194057025.416 7        47.100    36927818.023 7 194057011.324 7        42.500    36927819.125 7 151213269.559 7        44.900    36927822.219 8 144912712.982 8        49.600    36927812.973 7 157513776.296 7        46.000
R09  21586627.398 7 115271397.625 7        47.500    21586627.258 7 115271386.639 7        46.300    21586621.227 7  89655515.398 7        46.800
R19  20699507.867 7 110728421.670 7        45.300    20699506.426 7 110728414.688 7        43.500    20699499.324 7  86122112.015 7        44.300
G06  24427126.023 6 128365393.382 6        36.000    24427130.098 2 100025013.911 2        16.900    24427129.484 6 100025024.928 6        36.000    24427129.309 6  95857308.164 6        39.700
R16  22648883.875 6 120986249.129 6        40.700    22648882.695 6 120986238.136 6        39.600    22648876.645 6  94100384.620 6        37.400
G19  24383090.867 6 128134017.782 6        38.600    24383089.902 4  99844680.843 4        25.500
G11  21457165.688 7 112758157.641 7        46.600    21457164.422 6  87863491.177 6        36.700
R18  20689773.008 8 110443409.412 8        50.400    20689772.168 8 110443409.426 8        48.900    20689766.684 7  85900392.410 7        45.800
R03  20451477.922 8 109478404.395 8        48.600    20451478.164 7 109478400.415 7        46.700    20451472.445 7  85149870.754 7        46.800
R04  21364177.758 7 114404236.046 7        47.200    21364177.836 7 114404205.045 7        46.100    21364168.852 7  88981051.853 7        43.100
R02  23136626.141 5 123461463.429 5        35.400    23136624.258 5 123461460.449 5        34.700    23136622.301 5  96025616.765 5        35.600
C13  38380475.328 6 199857208.668 6        41.300    38380473.629 7 154542260.223 7        42.500    38380463.480 7 162400300.548 7        44.300
C07  37368517.430 6 194587668.982 6        41.600    37368507.465 7 150467482.499 7        44.100    37368498.207 7 158118335.256 7        44.800
C10  37140523.766 7 193400447.412 7        42.800    37140515.973 7 149549457.008 7        44.900    37140506.078 7 157153629.644 7        45.600
C08  36758935.227 7 191413419.739 7        45.800    36758924.121 7 148012956.240 7        47.200    36758916.098 7 155539002.244 7        46.900
C04  37426148.453 6 194887775.097 6        38.900    37426137.582 7 150699543.509 7        43.500    37426132.457 7 158362210.771 7        43.900
C03  37879090.367 6 197246353.812 6        36.500    37879080.645 7 152523355.894 7        43.400    37879074.844 7 160278759.261 7        43.500
C01  37084901.797 6 193110813.391 6        39.800    37084888.063 7 149325470.954 7        45.300    37084883.098 7 156918268.980 7        44.100
E24  23703231.930 7 124561312.335 7        46.600    23703241.660 7  93016595.380 7        47.300    23703240.969 7  95443110.200 7        47.300    23703241.781 8  94229854.397 8        51.500
E04  25987801.945 6 136566838.827 6        41.200    25987799.672 7 101981733.425 7        44.400    25987800.145 7 104642115.375 7        47.300    25987800.219 8 103311929.502 8        49.400
E25  24700559.172 7 129802316.987 7        47.100    24700558.566 8  96930295.542 8        48.900    24700557.711 8  99458906.458 8        49.400    24700558.188 8  98194603.602 8        53.200
E19  25681855.555 7 134959181.077 7        42.100    25681854.051 7 100781110.557 7        43.200    25681852.207 7 103410182.420 7        42.100    25681853.137 7 102095646.596 7        46.200
E12  22787018.563 7 119746586.110 7        46.600    22787012.797 8  89421127.672 8        48.500    22787012.676 8  91753853.425 8        48.500    22787013.313 8  90587493.157 8        52.100
E11  23063336.352 7 121198654.006 7        46.200    23063331.152 7  90505470.223 7        47.400    23063330.012 7  92866477.822 7        46.900    23063330.762 8  91685976.125 8        49.900
> 2018  8 30  2  3  6.0000000  0 32       0.000000000000
G08  24023601.117 6 126244848.384 6        38.900    24023604.480 3  98372610.531 3        19.900    24023603.715 6  98372611.535 6        36.400    24023603.367 7  94273745.879 7        43.200
G28  20782842.063 7 109214571.718 7        46.600    20782840.949 6  85102258.404 6        40.100
G18  22667650.961 6 119119299.299 6        40.500    22667651.082 4  92820228.276 4        24.500
G22  21163377.844 7 111214303.981 7        47.600    21163374.715 6  86660486.892 6        40.600
G01  21183914.234 7 111322215.590 7        47.900    21183916.383 6  86744589.535 6        40.700    21183916.195 8  86744590.546 8        48.700    21183914.383 8  83130224.742 8        53.800
G03  20423442.070 8 107325929.260 8        50.200    20423443.398 6  83630601.830 6        41.300    20423443.535 8  83630614.841 8        49.800    20423444.207 9  80145994.036 9        55.000
R10  23510701.914 7 125325278.492 7        44.500    23510701.414 7 125325266.490 7        43.400    23510701.785 6  97475205.981 6        38.000
G17  22525374.969 8 118371622.082 8        49.600    22525374.418 6  92237661.589 6        36.800    22525374.230 7  92237702.603 7        45.000
J01  36927830.875 7 194057065.456 7        42.900    36927830.902 7 194057080.458 7        47.000    36927827.336 7 194057066.373 7        42.300    36927829.191 7 151213312.448 7        45.000    36927832.691 8 144912754.085 8        49.100    36927823.188 7 157513820.967 7        46.100
R09  21586764.992 7 115272130.514 7        47.500    21586764.523 7 115272119.522 7        46.100    21586758.434 7  89656085.423 7        46.600
R19  20699259.461 7 110727092.967 7        45.000    20699258.465 7 110727085.971 7        43.400    20699250.219 7  86121078.585 7        44.200
G06  24426623.922 5 128362754.533 5        35.000    24426628.094 2 100022957.661 2        16.900    24426627.074 6 100022968.687 6        36.100    24426626.988 6  95855337.603 6        39.900
R16  22649588.047 6 120990014.533 6        40.900    22649587.781 6 120990003.541 6        39.900    22649582.711 6  94103313.265 6        37.500
G19  24382500.516 6 128130918.070 6        38.300    24382500.172 4  99842265.479 4        25.400
G11  21457537.227 7 112760112.159 7        47.000    21457536.367 6  87865014.179 6        36.800
R18  20689965.242 8 110444434.138 8        50.300    20689964.332 8 110444434.145 8        48.800    20689959.051 7  85901189.421 7        45.800
R03  20451451.742 8 109478259.348 8        48.600    20451451.324 7 109478255.360 7        47.200    20451444.746 7  85149757.938 7        46.700
R04  21363477.117 7 114400482.239 7        47.800    21363477.008 7 114400451.230 7        46.500    21363468.473 7  88978132.221 7        43.000
R02  23137219.953 5 123464637.963 5        35.000    23137219.266 5 123464635.005 5        34.900    23137216.824 5  96028085.831 5        35.600
C13  38380435.984 6 199857004.999 6        41.300    38380434.297 7 154542102.735 7        42.300    38380424.262 7 162400135.051 7        44.500
C07  37368817.180 6 194589226.658 6        41.700    37368806.832 7 150468686.992 7        44.700    37368797.504 7 158119601.000 7        45.000
C10  37140739.648 7 193401573.687 7        42.900    37140732.352 7 149550327.915 7        44.500    37140722.398 7 157154544.837 7        45.000
C08  36758928.711 7 191413383.633 7        45.800    36758917.152 7 148012928.319 7        47.200    36758908.949 7 155538972.906 7        46.800
C04  37426149.336 6 194887778.708 6        38.800    37426138.113 7 150699546.302 7        43.600    37426132.969 7 158362213.706 7        44.100
C03  37879092.172 6 197246362.510 6        36.700    37879082.098 7 152523362.627 7        43.300    37879076.355 7 160278766.331 7        43.700
C01  37084907.242 6 193110841.016 6        39.800    37084893.215 7 149325492.317 7        45.300    37084888.234 7 156918291.424 7        44.300
E24  23703730.180 7 124563929.387 7        46.600    23703739.688 7  93018549.677 7        47.400    23703738.805 7  95445115.485 7        47.500    23703739.785 8  94231834.191 8        51.300
E04  25987308.938 6 136564248.946 6        41.300    25987306.969 7 101979799.420 7        44.700    25987307.309 7 104640130.918 7        46.800    25987307.418 8 103309970.269 8        49.000
E25  24700651.219 7 129802801.138 7        47.000    24700650.820 8  96930657.086 8        48.900    24700649.688 8  99459277.435 8        49.300    24700650.324 8  98194969.866 8        53.100
E19  25681784.383 6 134958804.800 6        41.500    25681782.336 7 100780829.561 7        43.200    25681780.695 7 103409894.106 7        42.000    25681781.508 7 102095361.942 7        46.100
E12  22787187.094 7 119747472.290 7        46.800    22787181.477 8  89421789.426 8        48.800    22787181.250 8  91754532.448 8        48.400    22787181.957 8  90588163.543 8        52.000
E11  23063158.211 7 121197716.772 7        46.100    23063152.723 7  90504770.332 7        47.300    23063151.691 7  92865759.677 7        47.000    23063152.430 8  91685267.107 8        49.800
> 2018  8 30  2  3  7.0000000  0 32       0.000000000000
G08  24024116.961 6 126247557.178 6        39.300    24024119.965 3  98374721.289 3        19.600    24024119.301 6  98374722.274 6        36.300    24024119.035 7  94275768.665 7        42.900
G28  20782840.031 7 109214561.426 7        46.500    20782838.789 6  85102250.389 6        39.500
G18  22668192.000 6 119122144.276 6        40.200    22668192.867 4  92822445.126 4        24.400
G22  21163578.406 7 111215358.600 7        47.200    21163575.012 6  86661308.671 6        40.200
G01  21184278.547 8 111324128.955 8        48.100    21184280.504 6  86746080.472 6        40.500    21184280.023 8  86746081.483 8        48.600    21184278.469 8  83131653.557 8        53.500
G03  20423293.734 8 107325149.301 8        50.200    20423294.945 6  83629994.074 6        41.400    20423295.258 8  83630007.083 8        49.200    20423295.723 9  80145411.605 9        54.900
R10  23510255.508 7 125322896.133 7        44.500    23510254.816 7 125322884.142 7        43.200    23510255.199 6  97473352.994 6        37.600
G17  22524924.008 8 118369254.541 8        49.100    22524923.875 6  92235816.754 6        36.600    22524924.156 7  92235857.759 7        45.000
J01  36927841.344 7 194057120.511 7        42.900    36927841.652 7 194057135.505 7        47.000    36927838.125 7 194057121.428 7        42.500    36927839.734 7 151213355.340 7        44.600    36927843.152 8 144912795.200 8        49.300    36927833.590 7 157513865.655 7        46.500
R09  21586901.938 7 115272864.153 7        47.600    21586901.773 7 115272853.160 7        46.600    21586896.445 7  89656656.024 7        46.400
R19  20699011.180 7 110725764.297 7        44.900    20699009.949 7 110725757.315 7        43.600    20699002.777 7  86120045.172 7        44.300
G06  24426122.336 5 128360115.725 5        35.000    24426125.816 2 100020901.467 2        16.300    24426124.820 6 100020912.465 6        36.700    24426125.109 6  95853367.062 6        39.900
R16  22650294.070 6 120993780.038 6        40.300    22650292.797 6 120993769.051 6        39.500    22650287.227 6  94106241.988 6        37.300
G19  24381911.438 6 128127818.269 6        38.300    24381910.684 4  99839850.048 4        26.300
G11  21457909.617 7 112762066.816 7        46.800    21457908.156 6  87866537.288 6        36.700
R18  20690157.461 8 110445458.979 8        50.100    20690156.219 8 110445458.971 8        48.900    20690150.988 7  85901986.499 7        46.100
R03  20451424.219 8 109478115.106 8        48.600    20451424.344 7 109478111.127 7        47.000    20451417.824 7  85149645.762 7        46.800
R04  21362776.992 7 114396728.741 7        47.500    21362775.848 7 114396697.747 7        46.100    21362767.531 7  88975212.860 7        43.000
R02  23137816.367 5 123467812.958 5        34.700    23137814.555 5 123467809.986 5        34.900    23137812.867 5  96030555.269 5        35.700
C13  38380396.875 6 199856801.272 6        41.200    38380395.250 7 154541945.197 7        42.300    38380385.055 7 162399969.509 7        44.300
C07  37369115.922 6 194590784.390 6        41.800    37369105.672 7 150469891.530 7        44.400    37369096.457 7 158120866.787 7        44.800
C10  37140955.789 7 193402700.046 7        43.100    37140948.441 7 149551198.885 7        44.500    37140938.496 7 157155460.094 7        44.700
C08  36758921.227 7 191413347.413 7        45.300    36758910.234 7 148012900.316 7        47.100    36758902.113 7 155538943.478 7        47.000
C04  37426149.859 6 194887782.251 6        39.200    37426138.910 7 150699549.044 7        43.100    37426133.590 7 158362216.586 7        44.400
C03  37879094.117 6 197246371.148 6        36.500    37879083.836 7 152523369.307 7        43.300    37879078.031 7 160278773.344 7        43.700
C01  37084912.563 6 193110868.573 6        39.900    37084898.258 7 149325513.625 7        44.900    37084893.563 7 156918313.817 7        44.100
E24  23704228.109 7 124566546.579 7        46.600    23704237.754 7  93020504.079 7        47.400    23704236.832 7  95447120.865 7        47.600    23704237.793 8  94233814.074 8        51.200
E04  25986816.328 6 136561659.137 6        41.500    25986814.051 7 101977865.467 7        44.700    25986814.363 7 104638146.506 7        46.700    25986814.586 8 103308011.090 8        49.300
E25  24700743.438 7 129803285.684 7        47.300    24700743.113 8  96931018.930 8        49.000    24700741.805 8  99459648.713 8        49.200    24700742.504 8  98195336.430 8        52.800
E19  25681712.484 6 134958428.900 6        41.200    25681710.797 7 100780548.860 7        43.200    25681708.813 6 103409606.086 6        41.900    25681709.961 7 102095077.579 7        46.000
E12  22787355.742 7 119748358.453 7        46.600    22787350.180 8  89422451.181 8        48.800    22787349.781 8  91755211.456 8        48.800    22787350.570 8  90588833.922 8        52.200
E11  23062979.664 7 121196779.531 7        46.400    23062974.531 7  90504070.444 7        47.300    23062973.324 7  92865041.537 7        47.100    23062974.023 8  91684558.099 8        49.800
> 2018  8 30  2  3  8.0000000  0 32       0.000000000000
G08  24024632.148 6 126250266.063 6        39.000    24024635.543 3  98376832.086 3        19.300    24024635.246 6  98376833.098 6        36.200    24024634.477 7  94277791.539 7        43.000
G28  20782838.289 7 109214551.680 7        46.500    20782836.820 6  85102242.800 6        39.800
G18  22668733.953 6 119124989.262 6        39.400    22668734.207 4  92824662.004 4        24.400
G22  21163779.383 7 111216413.713 7        47.300    21163776.133 6  86662130.837 6        40.400
G01  21184642.875 8 111326042.464 8        48.000    21184644.957 6  86747571.522 6        40.800    21184643.988 8  86747572.518 8        48.600    21184642.500 8  83133082.468 8        53.800
G03  20423145.500 8 107324369.927 8        50.100    20423146.664 6  83629386.774 6        41.300    20423146.727 8  83629399.777 8        49.100    20423147.367 9  80144829.597 9        54.800
R10  23509808.852 7 125320514.371 7        45.000    23509807.832 7 125320502.385 7        43.600    23509808.137 6  97471500.556 6        37.500
G17  22524473.758 8 118366886.991 8        48.900    22524473.371 6  92233971.911 6        36.900    22524473.371 7  92234012.918 7        45.000
J01  36927851.688 7 194057175.561 7        43.200    36927851.957 7 194057190.573 7        47.200    36927848.742 7 194057176.496 7        42.300    36927850.262 7 151213398.259 7        44.500    36927853.762 8 144912836.320 8        49.300    36927844.375 7 157513910.349 7        46.500
R09  21587040.258 7 115273598.536 7        47.500    21587039.016 7 115273587.544 7        46.200    21587033.496 7  89657227.205 7        46.600
R19  20698762.961 7 110724435.686 7        44.600    20698761.707 7 110724428.704 7        43.600    20698754.055 7  86119011.812 7        44.000
G06  24425619.766 5 128357476.985 5        35.100    24425623.344 2 100018845.331 2        16.300    24425622.465 6 100018856.321 6        36.100    24425622.895 6  95851396.597 6        39.800
R16  22650998.789 6 120997545.654 6        40.900    22650997.539 6 120997534.675 6        39.600    22650992.191 6  94109170.843 6        36.900
G19  24381321.703 6 128124718.364 6        38.700    24381320.531 4  99837434.548 4        25.600
G11  21458281.453 7 112764021.661 7        46.800    21458280.191 6  87868060.540 6        36.600
R18  20690348.523 8 110446483.932 8        50.100    20690348.152 8 110446483.916 8        48.900    20690342.977 7  85902783.683 7        46.300
R03  20451398.055 8 109477971.744 8        48.200    20451397.520 7 109477967.743 7        46.900    20451391.043 7  85149534.244 7        46.700
R04  21362076.117 7 114392975.590 7        47.600    21362075.184 7 114392944.597 7        46.000    21362066.281 7  88972293.721 7        43.000
R02  23138408.352 5 123470988.440 5        34.400    23138409.660 5 123470985.458 5        35.000    23138405.723 5  96033025.065 5        35.700
C13  38380357.969 6 199856597.439 6        40.900    38380355.852 7 154541787.582 7        42.400    38380345.777 7 162399803.876 7        44.100
C07  37369414.891 6 194592342.151 6        41.700    37369404.539 7 150471096.098 7        44.300    37369395.621 7 158122132.600 7        44.900
C10  37141172.586 7 193403826.508 7        43.500    37141164.957 7 149552069.939 7        43.900    37141154.953 7 157156375.443 7        44.900
C08  36758914.180 7 191413311.089 7        45.500    36758903.148 7 148012872.230 7        46.900    36758894.988 7 155538913.965 7        46.800
C04  37426150.836 6 194887785.721 6        38.900    37426139.668 7 150699551.725 7        43.100    37426134.332 7 158362219.404 7        44.500
C03  37879095.422 6 197246379.704 6        36.400    37879085.449 7 152523375.923 7        43.600    37879079.688 7 160278780.292 7        43.500
C01  37084917.820 6 193110896.050 6        39.900    37084904.086 7 149325534.875 7        45.000    37084899.117 7 156918336.146 7        44.100
E24  23704726.414 7 124569163.902 7        46.500    23704735.836 7  93022458.576 7        47.500    23704734.805 7  95449126.342 7        47.500    23704735.859 8  94235794.064 8        51.100
E04  25986323.344 6 136559069.409 6        41.200    25986321.344 7 101975931.590 7        44.900    25986321.594 7 104636162.179 7        47.000    25986321.801 8 103306051.992 8        49.200
E25  24700835.852 7 129803770.655 7        47.300    24700835.418 8  96931381.069 8        49.100    24700834.188 8  99460020.307 8        49.200    24700834.816 8  98195703.293 8        52.700
E19  25681641.117 6 134958053.395 6        41.500    25681639.383 7 100780268.441 7        43.700    25681637.246 7 103409318.354 7        42.200    25681638.527 7 102094793.507 7        46.200
E12  22787524.391 7 119749244.623 7        46.600    22787518.832 8  89423112.925 8        49.000    22787518.617 8  91755890.479 8        48.600    22787519.211 8  90589504.302 8        52.300
E11  23062801.289 7 121195842.297 7        46.400    23062795.930 7  90503370.565 7        47.400    23062795.098 7  92864323.390 7        47.300    23062795.680 8  91683849.085 8        49.800
> 2018  8 30  2  3  9.0000000  0 32       0.000000000000
G08  24025147.602 6 126252975.332 6        38.600    24025151.434 3  98378943.187 3        19.000    24025150.695 6  98378944.232 6        36.300    24025149.957 7  94279814.685 7        43.000
G28  20782836.430 7 109214542.691 7        46.600    20782835.176 6  85102235.795 6        39.800
G18  22669274.664 6 119127834.483 6        39.600    22669275.773 3  92826879.062 3        22.800
G22  21163980.188 7 111217469.546 7        47.800    21163977.301 6  86662953.565 6        40.500
G01  21185006.695 8 111327956.328 8        48.200    21185008.633 6  86749062.843 6        40.500    21185008.227 8  86749063.854 8        48.700    21185006.820 8  83134511.655 8        53.500
G03  20422997.008 8 107323591.361 8        49.800    20422998.234 6  83628780.095 6        41.400    20422998.680 8  83628793.098 8        49.000    20422999.230 9  80144248.208 9        54.800
R10  23509362.664 7 125318133.456 7        44.900    23509361.105 7 125318121.473 7        43.200    23509360.574 6  97469648.716 6        37.300
G17  22524023.727 8 118364519.693 8        49.100    22524022.754 6  92232127.266 6        36.500    22524023.238 7  92232168.252 7        45.000
J01  36927862.016 7 194057230.898 7        43.400    36927862.555 7 194057245.910 7        47.000    36927859.344 7 194057231.806 7        42.400    36927860.516 7 151213441.363 7        44.700    36927864.258 8 144912877.632 8        49.400    36927854.738 7 157513955.254 7        46.400
R09  21587178.703 7 115274333.913 7        47.500    21587176.641 7 115274322.935 7        45.600    21587171.578 7  89657799.172 7        46.400
R19  20698514.383 7 110723107.393 7        44.700    20698513.316 7 110723100.405 7        43.700    20698505.492 7  86117978.692 7        44.100
G06  24425116.891 5 128354838.528 5        34.800    24425120.969 2 100016789.329 2        15.600    24425120.289 6 100016800.413 6        36.000    24425121.188 6  95849426.333 6        39.800
R16  22651702.883 6 121001311.630 6        40.800    22651702.547 6 121001300.636 6        39.500    22651696.734 6  94112099.933 6        36.600
G19  24380732.055 6 128121618.602 6        39.000    24380730.855 4  99835019.159 4        25.800
G11  21458653.492 7 112765976.905 7        47.300    21458652.250 6  87869584.106 6        36.700
R18  20690540.938 8 110447509.255 8        50.100    20690540.402 8 110447509.254 8        48.500    20690534.270 7  85903581.168 7        46.200
R03  20451371.766 8 109477829.437 8        48.300    20451371.230 7 109477825.444 7        47.000    20451364.363 7  85149423.563 7        46.700
R04  21361375.125 7 114389223.020 7        47.600    21361374.684 7 114389192.033 7        46.300    21361365.488 7  88969375.062 7        43.000
R02  23139004.852 5 123474164.639 5        34.400    23139005.246 5 123474161.627 5        34.400    23139000.355 5  96035495.414 5        35.400
C13  38380319.086 6 199856393.758 6        41.300    38380316.770 7 154541630.079 7        42.500    38380306.918 7 162399638.373 7        44.100
C07  37369714.234 6 194593900.161 6        41.300    37369703.887 7 150472300.848 7        44.400    37369694.586 7 158123398.608 7        45.100
C10  37141389.086 7 193404953.249 7        43.400    37141380.977 7 149552941.212 7        44.000    37141370.973 7 157157291.008 7        45.000
C08  36758907.430 7 191413274.864 7        45.400    36758896.227 7 148012844.217 7        46.800    36758887.957 7 155538884.530 7        47.000
C04  37426151.164 6 194887789.330 6        38.900    37426140.414 7 150699554.515 7        43.400    37426134.922 7 158362222.334 7        44.600
C03  37879097.141 6 197246388.414 6        36.400    37879087.109 7 152523382.658 7        43.400    37879081.363 7 160278787.372 7        43.500
C01  37084923.070 6 193110923.723 6        40.000    37084909.223 7 149325556.275 7        44.700    37084904.066 7 156918358.635 7        44.300
E24  23705224.625 7 124571781.577 7        46.600    23705234.004 7  93024413.331 7        47.200    23705232.980 7  95451132.109 7        47.400    23705233.992 8  94237774.327 8        50.800
E04  25985830.539 6 136556480.016 6        41.200    25985828.461 7 101973997.937 7        44.800    25985828.883 7 104634178.086 7        47.200    25985829.039 8 103304093.112 8        49.100
E25  24700928.078 7 129804256.259 7        47.600    24700927.820 8  96931743.695 8        49.300    24700926.617 8  99460392.385 8        49.000    24700927.223 8  98196070.646 8        52.700
E19  25681569.719 6 134957678.511 6        41.500    25681568.023 7 100779988.490 7        43.300    25681566.039 7 103409031.104 7        42.400    25681567.207 7 102094509.900 7        46.200
E12  22787692.797 7 119750131.036 7        46.900    22787687.531 8  89423774.853 8        48.500    22787687.191 8  91756569.662 8        48.700    22787687.887 8  90590174.865 8        52.400
E11  23062623.047 7 121194905.273 7        46.700    23062617.664 7  90502670.846 7        47.300    23062616.863 7  92863605.427 7        47.300    23062617.402 8  91683140.239 8        50.000
> 2018  8 30  2  3 10.0000000  0 32       0.000000000000
G08  24025662.977 6 126255684.625 6        38.200    24025666.691 3  98381054.315 3        19.900    24025666.082 6  98381055.383 6        36.700    24025665.363 7  94281837.870 7        42.600
G28  20782834.773 7 109214534.151 7        47.000    20782833.695 6  85102229.137 6        39.700
G18  22669816.383 6 119130679.664 6        39.600    22669817.207 3  92829096.066 3        22.800
G22  21164180.867 7 111218525.789 7        47.300    21164178.492 6  86663776.611 6        40.300
G01  21185370.820 8 111329870.246 8        48.300    21185372.719 6  86750554.199 6        40.500    21185372.320 8  86750555.210 8        48.600    21185370.914 8  83135940.879 8        53.500
G03  20422848.938 8 107322813.311 8        49.800    20422850.035 6  83628173.822 6        41.200    20422850.375 8  83628186.825 8        49.100    20422851.152 9  80143667.185 9        54.900
R10  23508916.609 7 125315753.070 7        45.000    23508914.816 7 125315741.088 7        43.800    23508913.215 6  97467797.339 6        37.300
G17  22523573.117 8 118362152.292 8        49.100    22523572.426 6  92230282.538 6        36.400    22523572.488 7  92230323.527 7        45.000
J01  36927872.766 7 194057286.152 7        43.200    36927873.133 7 194057301.147 7        47.000    36927869.391 7 194057287.068 7        42.000    36927870.988 7 151213484.427 7        45.000    36927874.820 8 144912918.895 8        49.200    36927864.797 7 157514000.103 7        46.600
R09  21587315.789 7 115275069.947 7        47.700    21587314.688 7 115275058.939 7        45.800    21587308.668 7  89658371.633 7        46.300
R19  20698266.266 7 110721779.122 7        44.500    20698265.223 7 110721772.127 7        43.600    20698257.652 7  86116945.577 7        44.300
G06  24424614.047 5 128352200.095 5        34.900    24424619.047 2 100014733.433 2        15.600    24424618.211 5 100014744.498 5        35.900    24424619.023 6  95847456.082 6        40.500
R16  22652408.914 6 121005077.664 6        40.700    22652407.266 6 121005066.675 6        39.800    22652401.770 6  94115029.027 6        36.800
G19  24380142.102 6 128118518.679 6        38.800    24380140.930 4  99832603.635 4        25.800
G11  21459025.578 7 112767932.240 7        46.400    21459024.391 6  87871107.737 6        36.200
R18  20690732.836 8 110448534.585 8        50.300    20690732.441 8 110448534.592 8        48.700    20690727.395 7  85904378.649 7        46.100
R03  20451345.320 8 109477687.883 8        48.900    20451344.645 7 109477683.896 7        46.900    20451338.047 7  85149313.466 7        47.200
R04  21360675.117 7 114385470.695 7        47.500    21360673.855 7 114385439.701 7        46.200    21360665.035 7  88966456.571 7        43.200
R02  23139600.336 5 123477341.165 5        34.200    23139600.520 5 123477338.178 5        34.700    23139595.559 5  96037966.055 5        35.900
C13  38380279.586 6 199856189.916 6        41.600    38380277.566 7 154541472.456 7        42.600    38380267.488 7 162399472.732 7        44.200
C07  37370013.102 6 194595458.127 6        41.300    37370003.262 7 150473505.563 7        44.100    37369994.063 7 158124664.578 7        45.000
C10  37141605.656 7 193406080.027 7        43.300    37141597.680 7 149553812.506 7        44.100    37141587.793 7 157158206.609 7        45.000
C08  36758900.188 7 191413238.469 7        45.300    36758889.270 7 148012816.080 7        46.700    36758881.137 7 155538854.956 7        46.800
C04  37426151.500 6 194887792.807 6        38.900    37426140.813 7 150699557.205 7        42.600    37426135.566 7 158362225.160 7        44.300
C03  37879098.555 6 197246396.968 6        36.600    37879089.195 7 152523389.276 7        44.000    37879083.277 7 160278794.333 7        43.700
C01  37084928.539 6 193110951.219 6        39.700    37084914.563 7 149325577.532 7        44.600    37084909.410 7 156918380.978 7        44.300
E24  23705722.656 7 124574399.333 7        46.400    23705732.270 7  93026368.149 7        47.200    23705731.270 7  95453137.908 7        47.000    23705732.133 8  94239754.640 8        50.700
E04  25985337.750 6 136553890.577 6        41.000    25985335.945 7 101972064.276 7        45.200    25985336.012 7 104632193.986 7        46.900    25985336.273 8 103302134.237 8        49.300
E25  24701020.477 7 129804742.187 7        47.300    24701020.363 8  96932106.565 8        49.100    24701019.008 8  99460764.713 8        48.500    24701019.668 8  98196438.248 8        52.600
E19  25681498.563 6 134957303.891 6        41.500    25681496.879 7 100779708.757 7        43.100    25681494.906 7 103408744.066 7        42.600    25681495.891 7 102094226.521 7        46.300
E12  22787861.484 7 119751017.350 7        46.600    22787856.254 8  89424436.713 8        48.800    22787855.855 8  91757248.783 8        48.500    22787856.547 8  90590845.351 8        52.400
E11  23062444.625 7 121193968.190 7        46.900    23062439.363 7  90501971.074 7        47.300    23062438.383 7  92862887.392 7        47.400    23062439.074 8  91682431.335 8        49.700
> 2018  8 30  2  3 11.0000000  0 32       0.000000000000
G08  24026178.258 6 126258394.106 6        37.700    24026182.340 3  98383165.603 3        18.600    24026181.648 6  98383166.642 6        36.900    24026180.941 7  94283861.174 7        42.600
G28  20782833.539 7 109214526.198 7        47.300    20782832.172 6  85102222.936 6        39.800
G18  22670358.055 6 119133524.912 6        40.000    22670358.523 4  92831313.141 4        25.600
G22  21164382.250 7 111219582.539 7        46.700    21164379.289 6  86664600.047 6        40.200
G01  21185735.172 8 111331784.341 8        48.700    21185737.328 6  86752045.706 6        40.100    21185736.957 8  86752046.710 8        48.500    21185735.129 8  83137370.234 8        53.500
G03  20422701.328 8 107322035.870 8        50.000    20422702.164 6  83627568.021 6        41.400    20422702.418 8  83627581.025 8        49.400    20422703.230 9  80143086.635 9        54.800
R10  23508470.602 7 125313373.346 7        45.200    23508468.738 7 125313361.352 7        43.700    23508466.707 6  97465946.425 6        37.500
G17  22523122.883 8 118359784.941 8        49.300    22523121.785 6  92228437.845 6        36.700    22523122.234 7  92228478.845 7        44.800
J01  36927883.266 7 194057341.469 7        43.500    36927883.316 7 194057356.464 7        46.900    36927879.809 6 194057342.389 6        41.900    36927881.859 7 151213527.527 7        44.600    36927885.273 8 144912960.200 8        49.300    36927875.613 7 157514045.009 7        46.400
