     3.04           OBSERVATION DATA    M                   RINEX VERSION / TYPE
sbf2rin-15.9.0                          20240624 104145 UTC PGM / RUN BY / DATE 
SEPT                                                        MARKER NAME         
Unknown                                                     MARKER NUMBER       
Unknown             Unknown                                 OBSERVER / AGENCY   
3605054             SEPT MOSAIC-X5      4.14.4              REC # / TYPE / VERS 
Unknown             Unknown                                 ANT # / TYPE        
 -3817680.7270  3562839.5216  3650159.2407                  APPROX POSITION XYZ 
        0.0000        0.0000        0.0000                  ANTENNA: DELTA H/E/N
G   17 X1  C1C L1C D1C S1C C2W L2W D2W S2W C2L L2L D2L S2L  SYS / # / OBS TYPES 
       C5Q L5Q D5Q S5Q                                      SYS / # / OBS TYPES 
E   13 X1  C1C L1C D1C S1C C5Q L5Q D5Q S5Q C7Q L7Q D7Q S7Q  SYS / # / OBS TYPES 
R    9 X1  C1C L1C D1C S1C C2C L2C D2C S2C                  SYS / # / OBS TYPES 
C   13 X1  C2I L2I D2I S2I C7I L7I D7I S7I C6I L6I D6I S6I  SYS / # / OBS TYPES 
J   13 X1  C1C L1C D1C S1C C2L L2L D2L S2L C5Q L5Q D5Q S5Q  SYS / # / OBS TYPES 
SEPTENTRIO RECEIVERS OUTPUT ALIGNED CARRIER PHASES.         COMMENT             
NO FURTHER PHASE SHIFT APPLIED IN THE RINEX ENCODER.        COMMENT             
G L1C                                                       SYS / PHASE SHIFT   
G L2W                                                       SYS / PHASE SHIFT   
G L2L  0.00000                                              SYS / PHASE SHIFT   
G L5Q  0.00000                                              SYS / PHASE SHIFT   
E L1C  0.00000                                              SYS / PHASE SHIFT   
E L5Q  0.00000                                              SYS / PHASE SHIFT   
E L7Q  0.00000                                              SYS / PHASE SHIFT   
R L1C                                                       SYS / PHASE SHIFT   
R L2C                                                       SYS / PHASE SHIFT   
C L2I                                                       SYS / PHASE SHIFT   
C L7I                                                       SYS / PHASE SHIFT   
C L6I                                                       SYS / PHASE SHIFT   
J L1C                                                       SYS / PHASE SHIFT   
J L2L  0.00000                                              SYS / PHASE SHIFT   
J L5Q  0.00000                                              SYS / PHASE SHIFT   
     1.000                                                  INTERVAL            
  2024     6    24     8    20    0.0000000     GPS         TIME OF FIRST OBS   
  2024     6    24     8    25    0.0000000     GPS         TIME OF LAST OBS    
    57                                                      # OF SATELLITES     
 C1C    0.000 C2C    0.000                                  GLONASS COD/PHS/BIS 
DBHZ                                                        SIGNAL STRENGTH UNIT
    18                                                      LEAP SECONDS        
  9 R01  1 R02 -4 R03  5 R11  0 R12 -1 R13 -2 R17  4 R18 -3 GLONASS SLOT / FRQ #
    R24  2                                                  GLONASS SLOT / FRQ #
                                                            END OF HEADER       
> 2024 06 24 08 20  0.0000000  0 57
C01         9.000    36689218.704 7 191050392.04107       305.142 7        43.469    36689213.246 6 147732262.34806       236.104 6        39.625    36689214.455 7 155244076.92107       248.012 7        45.906
C02        44.000    38962419.787 6 202887544.61006       354.381 6        36.219    38962414.919 5 156885502.58505       273.844 5        34.594    38962417.166 6 164862736.98106       287.952 6        38.313
C03        54.000    37375957.784 7 194626420.17007       316.085 7        42.250    37375950.864 6 150497468.52806       244.597 6        37.031    37375952.100 7 158149887.91907       256.968 7        44.406
C04        26.000    37591026.691 7 195746345.24007       290.374 7        42.250    37591019.194 6 151363459.60506       224.473 6        38.563    37591020.157 7 159059908.50907       235.928 7        43.375
C05        60.000    41654777.792 6 216907360.24806       358.305 6        36.438    41654779.372 5 167726537.71305       277.094 5        32.031    41654776.369 5 176254995.24605       291.159 5        35.281
C06        17.000    38928403.800 6 202710447.70406      1648.248 6        38.719    38928400.141 5 156748579.55805      1274.632 5        34.000    38928398.775 7 164718835.14507      1339.391 7        42.063
C07        40.000    41173842.153 5 214402919.07305     -1122.075 5        33.969    41173848.056 5                      -867.908 5        31.156    41173842.980 6 174219890.49006      -912.010 6        38.406
C08        39.000    36757173.209 7 191404255.34707      1030.281 7        42.875    36757163.483 6 148005873.82506       796.701 6        40.063    36757162.514 7 155531593.84507       837.233 7        46.781
C10        30.000    40678928.257 5 211825773.65505     -1250.139 5        32.500    40678934.703 5                      -967.080 5        31.125    40678929.336 6 172125770.41306     -1015.994 6        36.438
C13        32.000    37228267.343 7 193857369.03907      1080.041 7        44.031    37228266.289 6 149902809.65106       835.105 6        37.813    37228264.065 7 157524976.82907       877.615 7        45.938
C16        49.000    38993500.120 6 203049435.97406      1592.442 6        40.781    38993500.838 5 157010693.67705      1231.336 5        34.156    38993497.919 6 164994301.61706      1293.997 6        40.688
C23        47.000    24503597.381 7 127596785.10007      3049.365 7        44.250                                                                    24503588.693 7 103682856.80707      2477.878 7        46.063
C24        41.000    26035709.999 6 135574771.76606     -1472.949 6        40.438                                                                    26035705.720 6 110165590.31406     -1196.739 6        38.094
C25        48.000    23589295.873 7 122835695.62807       890.299 7        46.281                                                                    23589291.713 7  99814064.71907       723.490 7        47.000
C27        31.000    23505330.279 7 122398388.66907     -2092.749 7        44.875                                                                    23505328.499 7  99458694.07407     -1700.547 7        46.656
C28        23.000    25862810.370 5 134674334.50605     -2911.709 5        35.813                                                                    25862814.058 6 109433904.49506     -2366.082 6        38.406
C30        42.000    23957311.259 7 124752009.45507       269.759 7        46.125                                                                    23957310.384 7 101371226.98007       219.122 7        46.531
C32        43.000    23136636.620 7 120478563.42707      1595.968 7        47.031                                                                    23136633.584 8  97898704.15008      1296.864 8        49.781
C33        56.000    25890157.061 6 134816793.14706     -1795.333 6        41.906                                                                    25890168.401 6 109549719.15506     -1458.875 6        41.250
C38        51.000    36066739.644 7 187808978.02007       829.413 7        46.875                                                                    36066733.302 8 152610155.88208       673.935 8        51.563
C39        58.000    38054788.719 7 198161304.66207      1531.640 7        44.031                                                                    38054784.461 7 161022286.39607      1244.604 7        46.000
C40        59.000    41234367.718 5 214718032.69605     -1377.242 5        34.719                                                                    41234375.790 5 174475966.56605     -1119.082 5        33.281
C41        16.000    22680301.210 8 118102276.36308      -531.929 8        48.563                                                                    22680303.451 8  95967779.50608      -432.263 8        52.188
C59        22.000    36907864.314 7 192188939.84007       333.641 7        45.281                                                                    36907848.524 8 156169188.97208       271.167 8        49.969
C60        53.000    39490949.842 6 205639743.37106       325.412 6        38.281                                                                    39490936.431 7 167099077.57107       264.368 7        42.250
E04        20.000    24494249.114 7 128718180.96007      1490.131 7        44.625    24494247.975 6  96120730.71006      1112.767 6        38.688    24494246.800 6  98628225.64006      1141.724 6        41.313
E09        50.000    28500192.260 5 149769556.47605      2562.297 5        34.125
E10        18.000    23917070.841 7 125685061.96807       966.525 7        46.063    23917068.592 6  93855724.67106       721.775 6        40.250    23917067.842 7  96304131.28307       740.606 7        42.375
E11        29.000    24501075.099 6 128754049.63606      2304.336 6        41.063    24501070.747 5  96147504.87705      1720.741 5        32.719    24501069.749 5  98655694.29005      1765.603 5        34.344
E12        25.000    23730288.757 6 124703501.95506      -455.862 6        41.875    23730284.727 6  93122726.07006      -340.265 6        38.125    23730283.626 6  95552010.45306      -349.261 6        40.813
E19        12.000    23824979.643 7 125201109.01507      -961.377 7        42.469    23824976.215 5  93494320.48405      -718.010 5        35.219    23824975.223 6  95933299.51906      -736.922 6        37.156
E21         6.000    28277722.835 5 148600445.42005      2430.638 5        35.906    28277728.404 5 110967887.58005      1815.012 5        30.344    28277726.601 5                      1862.438 5        32.344
E27        45.000    28675507.492 6 150690815.30406      1086.153 6        36.781    28675511.047 4                       811.168 4        29.156    28675509.899 5                       832.079 5        30.875
E33        35.000    26133014.420 6 137329870.78806     -2617.563 6        41.094    26133016.947 5 102551511.80905     -1954.584 5        32.000    26133016.229 6 105226762.91506     -2005.813 6        36.563
G05         5.000    20437584.735 7 107400233.90107        39.609 7        47.031    20437579.112 8  83688469.71508        30.865 8        49.156    20437579.223 7  83688458.72507        30.918 7        46.844
G07         7.000    25974293.278 5 136495814.06605     -2651.913 5        32.344    25974290.962 3 106360352.53303     -2066.443 3        20.344    25974291.007 4 106360376.57804     -2066.678 4        28.094
G11        11.000    23420424.755 6 123075105.70406     -3255.149 6        41.938    23420424.025 4  95902646.98104     -2536.472 4        25.906    23420424.643 6  95902643.97306     -2536.407 6        39.281    23420429.625 5  91906717.74305     -2430.815 5        34.250
G13        13.000    19949559.087 7 104835649.64007      -649.778 7        46.875    19949552.526 6  81690093.17806      -506.319 6        39.094
G14        33.000    25038579.018 6 131578654.22306      2019.300 6        37.406    25038579.253 3 102528810.61803      1573.475 3        20.188    25038579.252 6 102528806.62106      1573.423 6        36.688    25038584.953 5  98256793.08905      1508.347 5        31.969
G15        15.000    20511611.832 7 107789283.37307      1623.807 7        47.094    20511606.820 7  83991643.49707      1265.302 7        46.844    20511606.529 7  83991640.50807      1265.312 7        44.313
G18        27.000    23012901.796 7 120933658.62407      3187.276 7        42.000    23012899.455 4  94234021.54904      2483.588 4        28.500    23012898.836 6  94234023.57006      2483.542 6        41.844    23012903.399 6  90307626.89306      2380.037 6        36.313
G20         4.000    21123352.125 7 111003947.21007     -1217.572 7        46.313    21123346.725 5  86496550.98405      -948.753 5        35.563
G22        52.000    25207612.922 6 132466904.95906      2303.302 6        38.500    25207612.678 2 103220969.96902      1794.769 2        15.844
G24         3.000    23568387.641 6 123852767.50906      4245.801 6        37.656    23568392.356 5  96508683.48405      3308.405 5        31.875    23568391.345 6  96508704.53206      3308.257 6        37.906    23568394.031 5  92487505.64905      3170.309 5        33.438
G29         8.000    23956650.672 6 125893004.47506     -1886.897 6        41.375    23956649.477 4  98098417.15804     -1470.302 4        29.625    23956648.343 5  98098411.16405     -1470.844 5        32.281
G30         1.000    23254918.985 7 122205411.15107     -1972.452 7        42.906    23254916.993 6  95224983.80006     -1536.977 6        39.750    23254916.570 6  95224970.80106     -1536.935 6        39.219    23254917.091 6  91257277.20106     -1473.000 6        36.250
J03        46.000    37053986.361 7 194720004.28907       546.622 7        44.375    37053983.121 7 151729852.46707       425.980 7        46.500    37053985.300 6 145407785.11006       408.093 6        39.875
J07        21.000    37132768.689 6 195134019.19806       321.385 6        38.563    37132764.839 7 152052457.80007       250.406 7        44.469    37132767.317 6 145716957.58606       240.015 6        39.500
R01        37.000    21338241.321 7 114065114.57407     -1676.029 7        45.563    21338238.749 6  88717285.60306     -1303.721 6        40.156
R02         2.000    20188391.642 8 107729136.35408       418.104 8        51.406    20188387.942 8  83789324.39808       325.236 8        48.188
R03        34.000    22571036.226 7 120824632.55707      2457.090 7        43.250    22571033.713 6  93974757.67406      1911.020 6        40.906
R11        36.000    22126595.215 7 118237853.65107       198.958 7        47.781    22126592.645 7  91962781.16707       154.761 7        44.000
R12        24.000    22133540.363 7 118233570.88007      3569.546 7        47.219    22133542.008 7  91959516.12307      2776.369 7        42.156
R13        55.000    24334007.268 5 129942249.54805      4328.346 5        34.469    24334017.534 5 101066244.60805      3366.310 5        31.281
R17        10.000    19959023.039 8 106804759.65808      -422.696 8        50.375    19959019.375 8  83070353.53108      -328.800 8        48.656
R18        57.000    21974314.394 7 117300405.24007      3109.333 7        44.906    21974312.886 7  91233663.76207      2418.472 7        43.438
R24        19.000    21717710.433 7 116134296.54907     -3739.741 7        46.250    21717710.454 7  90326646.06407     -2908.688 7        45.125
> 2024 06 24 08 20  1.0000000  0 57
C01         9.000    36689160.036 7 191050086.68807       305.573 7        43.344    36689154.703 6 147732026.23606       236.255 6        39.844    36689155.828 7 155243828.80307       248.279 7        45.875
C02        44.000    38962351.626 6 202887190.17806       354.769 6        36.188    38962347.161 5 156885228.48905       274.100 5        34.656    38962349.027 6 164862448.97106       288.309 6        38.469
C03        54.000    37375896.970 7 194626103.76107       316.605 7        42.156    37375890.144 6 150497223.87506       244.803 6        36.969    37375891.357 7 158149630.81607       257.294 7        44.375
C04        26.000    37590970.809 7 195746054.69807       290.878 7        42.219    37590963.496 6 151363234.94006       224.823 6        38.719    37590964.383 7 159059672.41807       236.311 7        43.344
C05        60.000    41654709.175 6 216907001.81806       358.636 6        36.219    41654710.635 5 167726260.57905       277.035 5        31.813    41654707.489 5 176254703.97805       291.439 5        35.000
C06        17.000    38928087.357 6 202708799.24606      1648.546 6        38.625    38928083.229 5 156747304.84705      1274.741 5        33.938    38928082.191 7 164717495.64707      1339.725 7        42.031
C07        40.000    41174057.962 5 214404041.27805     -1121.749 5        34.188    41174063.128 5                      -867.813 5        31.063    41174058.528 6 174220802.34706      -911.662 6        38.250
C08        39.000    36756975.352 7 191403224.88207      1030.648 7        42.688    36756965.589 6 148005076.99106       797.162 6        39.906    36756964.652 7 155530756.50807       837.649 7        46.625
C10        30.000    40679168.421 5 211827024.04205     -1249.996 5        32.375    40679174.476 5                      -966.828 5        31.156    40679169.505 6 172126786.43506     -1015.897 6        36.156
C13        32.000    37228059.766 7 193856288.80507      1080.429 7        44.000    37228059.001 6 149901974.35006       835.392 6        37.844    37228056.617 7 157524099.05107       878.005 7        45.813
C16        49.000    38993194.302 6 203047843.43006      1592.736 6        40.625    38993195.021 5 157009462.22105      1231.753 5        34.313    38993192.041 6 164993007.55106      1294.243 6        40.844
C23        47.000    24503011.661 7 127593735.65607      3049.591 7        44.219                                                                    24503003.074 7 103680378.89307      2478.080 7        45.906
C24        41.000    26035992.841 6 135576244.73006     -1473.012 6        40.438                                                                    26035988.627 6 110166787.23406     -1196.856 6        38.219
C25        48.000    23589124.885 7 122834805.40607       890.181 7        46.313                                                                    23589120.758 7  99813341.34707       723.367 7        47.063
C27        31.000    23505732.157 7 122400481.47907     -2092.614 7        44.781                                                                    23505730.404 7  99460394.65307     -1700.452 7        46.625
C28        23.000    25863369.332 5 134677246.09305     -2911.472 5        35.688                                                                    25863373.146 6 109436270.40306     -2365.682 6        38.281
C30        42.000    23957259.578 7 124751739.91907       269.500 7        46.250                                                                    23957258.658 7 101371007.95307       219.031 7        46.469
C32        43.000    23136329.980 7 120476967.32707      1596.276 7        46.969                                                                    23136327.067 8  97897407.18808      1297.129 8        49.750
C33        56.000    25890501.938 6 134818588.35106     -1794.933 6        41.656                                                                    25890513.170 6 109551177.90406     -1458.571 6        41.344
C38        51.000    36066580.293 7 187808148.49207       829.816 7        46.906                                                                    36066573.997 8 152609481.82108       674.258 8        51.594
C39        58.000    38054494.551 7 198159772.87907      1531.929 7        44.094                                                                    38054490.297 7 161021041.69807      1244.800 7        45.969
C40        59.000    41234631.906 5 214719409.78105     -1376.738 5        35.031                                                                    41234640.327 5 174477085.56505     -1118.863 5        33.344
C41        16.000    22680403.313 8 118102808.19108      -531.662 8        48.594                                                                    22680405.585 8  95968211.65808      -431.970 8        52.219
C59        22.000    36907800.227 7 192188605.99307       334.081 7        45.250                                                                    36907784.441 8 156168917.69808       271.456 8        50.000
C60        53.000    39490887.454 6 205639417.77906       325.734 6        38.063                                                                    39490873.914 7 167098812.99207       264.829 7        42.250
E04        20.000    24493965.523 7 128716690.85007      1490.327 7        44.563    24493964.359 6  96119617.97506      1112.899 6        38.750    24493963.222 6  98627083.85906      1141.940 6        41.344
E09        50.000    28499704.445 5 149766993.97805      2562.731 5        34.063                                                                    28499711.818 4 114756574.06514      1963.688 4        26.500
E10        18.000    23916886.907 7 125684095.52807       966.443 7        46.125    23916884.561 6  93855002.98306       721.609 6        40.313    23916883.939 7  96303390.75807       740.627 7        42.375
E11        29.000    24500636.639 6 128751745.28806      2304.423 6        40.969    24500632.189 5  96145784.07305      1721.332 5        32.531    24500631.342 5  98653928.64005      1765.728 5        34.625
E12        25.000    23730375.463 6 124703957.91806      -455.913 6        41.875    23730371.547 6  93123066.57106      -340.634 6        38.406    23730370.426 6  95552359.82106      -349.341 6        40.906
E19        12.000    23825162.537 7 125202070.36307      -961.304 7        42.469    23825159.154 5  93495038.37505      -717.969 5        35.219    23825158.137 6  95934036.10306      -736.394 6        37.219
E21         6.000    28277260.174 5 148598014.51505      2431.075 5        35.875    28277265.987 5 110966072.26805      1815.275 5        30.625    28277264.007 5                      1862.632 5        32.594
E27        45.000    28675300.880 6 150689729.17506      1086.190 6        36.969    28675304.449 4                       810.827 4        29.094    28675303.261 5                       832.073 5        30.906
E33        35.000    26133512.505 6 137332488.31606     -2617.332 6        41.219    26133515.197 5 102553466.48105     -1954.690 5        32.281    26133514.276 6 105228768.54206     -2005.599 6        36.719
G05         5.000    20437577.203 7 107400194.29707        39.697 7        46.938    20437571.582 8  83688438.85608        30.936 8        49.219    20437571.603 7  83688427.86107        30.958 7        46.781
G07         7.000    25974798.258 5 136498465.94105     -2651.533 5        31.875    25974795.594 3 106362418.92603     -2066.142 3        19.625    25974794.743 4 106362442.92104     -2066.217 4        27.813
G11        11.000    23421044.160 6 123078360.75806     -3254.847 6        41.781    23421043.434 4  95905183.37804     -2536.244 4        26.000    23421043.914 6  95905180.38406     -2536.452 6        39.313    23421048.997 5  91909148.44405     -2430.406 5        34.469
G13        13.000    19949682.806 7 104836299.50107      -649.772 7        46.781    19949676.197 6  81690599.56406      -506.315 6        39.125
G14        33.000    25038194.436 6 131576635.00506      2019.203 6        37.594    25038194.952 3 102527237.21003      1573.391 3        20.031    25038195.403 6 102527233.20206      1573.454 6        36.656    25038200.837 5  98255285.25905      1507.809 5        31.906
G15        15.000    20511302.811 7 107787659.56107      1623.896 7        47.063    20511297.822 7  83990378.19107      1265.373 7        46.875    20511297.398 7  83990375.19907      1265.356 7        44.344
G18        27.000    23012295.331 6 120930471.38106      3187.212 6        41.875    23012292.924 4  94231537.99104      2483.535 4        28.469    23012292.015 6  94231539.99006      2483.657 6        41.688    23012296.902 6  90305246.81306      2380.086 6        36.594
G20         4.000    21123583.727 7 111005164.78107     -1217.460 7        46.281    21123578.422 5  86497499.73505      -948.670 5        35.594
G22        52.000    25207174.598 6 132464601.39506      2303.755 6        38.094    25207174.388 2 103219174.97602      1795.150 2        15.688
G24         3.000    23567579.541 6 123848521.72506      4245.971 6        37.625    23567584.419 5  96505375.08605      3308.540 5        31.813    23567583.405 6  96505396.12706      3308.495 6        37.438    23567586.015 5  92484335.07605      3170.643 5        33.531
G29         8.000    23957009.770 6 125894891.43406     -1886.800 6        41.219    23957008.593 4  98099887.51204     -1470.229 4        29.625    23957007.269 5  98099881.44805     -1470.125 5        32.281
G30         1.000    23255294.169 7 122207383.59807     -1972.428 7        42.875    23255292.354 6  95226520.77006     -1536.955 6        39.844    23255292.216 6  95226507.77406     -1536.798 6        39.313    23255292.384 6  91258750.13206     -1473.010 6        36.500
J03        46.000    37053882.335 7 194719457.48807       547.097 7        44.344    37053879.053 7 151729426.39607       426.152 7        46.563    37053881.222 6 145407376.78706       408.434 6        40.000
J07        21.000    37132707.666 6 195133697.66406       321.745 6        38.625    37132703.537 7 152052207.24507       250.726 7        44.500    37132706.113 6 145716717.47706       240.364 6        39.594
R01        37.000    21338554.938 7 114066790.50007     -1675.657 7        45.406    21338552.344 6  88718589.11606     -1303.453 6        39.906
R02         2.000    20188313.332 8 107728718.20208       418.315 8        51.406    20188309.376 8  83788999.17908       325.329 8        48.188
R03        34.000    22570577.213 7 120822175.33507      2457.433 7        43.344    22570574.728 6  93972846.50906      1911.222 6        41.000
R11        36.000    22126558.109 7 118237654.93407       198.517 7        47.656    22126555.213 7  91962626.60907       154.441 7        43.969
R12        24.000    22132872.165 7 118230001.34607      3569.571 7        47.219    22132873.809 7  91956739.81407      2776.503 7        42.031
R13        55.000    24333196.557 5 129937920.90105      4329.024 5        34.031    24333206.556 5 101062877.89605      3366.665 5        31.031
R17        10.000    19959102.020 8 106805182.64708      -423.171 8        50.438    19959098.334 8  83070682.52308      -329.173 8        48.750
R18        57.000    21973731.807 7 117297296.01907      3109.154 7        44.969    21973730.334 7  91231245.50307      2418.191 7        43.531
R24        19.000    21718409.926 7 116138036.29807     -3739.591 7        46.313    21718409.651 7  90329554.76007     -2908.670 7        45.063
> 2024 06 24 08 20  2.0000000  0 57
C01         9.000    36689101.427 7 191049781.22807       305.677 7        43.469    36689096.112 6 147731790.02506       236.525 6        39.500    36689097.183 7 155243580.59507       248.449 7        45.906
C02        44.000    38962283.809 6 202886835.63706       354.778 6        36.406    38962279.102 5 156884954.33605       274.307 5        34.656    38962280.889 6 164862160.87906       288.296 6        38.313
C03        54.000    37375836.004 7 194625787.25207       316.707 7        42.156    37375829.455 6 150496979.13506       244.991 6        36.781    37375830.592 7 158149373.62807       257.411 7        44.375
C04        26.000    37590915.039 7 195745764.06107       290.948 7        42.219    37590907.529 6 151363010.20606       224.843 6        38.719    37590908.568 7 159059436.24107       236.440 7        43.500
C05        60.000    41654640.204 6 216906643.27306       358.806 6        36.500    41654641.499 5 167725983.33305       277.521 5        31.750    41654638.630 5 176254412.64305       291.542 5        35.313
C06        17.000    38927770.945 6 202707150.75306      1648.660 6        38.781    38927766.725 5 156746030.14505      1274.635 5        34.313    38927765.585 7 164716156.11007      1339.682 7        42.031
C07        40.000    41174273.418 5 214405163.25005     -1121.541 5        33.750    41174278.513 5                      -867.540 5        30.781    41174274.080 6 174221714.05006      -911.503 6        38.531
C08        39.000    36756777.471 7 191402194.27707      1030.943 7        42.719    36756767.791 6 148004280.08606       797.031 6        40.000    36756766.759 7 155529919.05907       837.713 7        46.719
C10        30.000    40679409.061 5 211828274.21205     -1249.804 5        32.313    40679414.124 5                      -966.689 5        31.281    40679409.633 6 172127802.30206     -1015.689 6        36.219
C13        32.000    37227852.289 7 193855208.42807      1080.675 7        44.063    37227851.640 6 149901138.93206       835.688 6        38.094    37227849.112 7 157523221.14707       878.205 7        45.781
C16        49.000    38992888.454 6 203046250.88106      1592.690 6        40.750    38992889.192 5 157008230.78405      1231.596 5        34.094    38992886.124 6 164991713.47706      1294.288 6        40.906
C23        47.000    24502426.050 7 127590686.28307      3049.540 7        44.156                                                                    24502417.486 7 103677901.03507      2477.998 7        45.969
C24        41.000    26036275.823 6 135577718.01006     -1473.202 6        40.500                                                                    26036271.595 6 110167984.38906     -1197.109 6        38.594
C25        48.000    23588953.919 7 122833915.59107       889.746 7        46.313                                                                    23588949.915 7  99812618.29807       723.026 7        47.094
C27        31.000    23506134.169 7 122402574.49507     -2092.942 7        44.719                                                                    23506132.305 7  99462095.39907     -1700.633 7        46.656
C28        23.000    25863928.193 5 134680157.53605     -2911.364 5        35.844                                                                    25863932.298 6 109438636.16106     -2365.513 6        38.188
C30        42.000    23957207.923 7 124751470.82207       269.064 7        46.250                                                                    23957206.996 7 101370789.28807       218.637 7        46.625
C32        43.000    23136023.499 7 120475371.24307      1596.254 7        46.938                                                                    23136020.551 8  97896110.23708      1297.142 8        49.813
C33        56.000    25890846.490 6 134820383.48506     -1795.029 6        41.781                                                                    25890857.859 6 109552636.58206     -1458.503 6        41.438
C38        51.000    36066420.951 7 187807318.86307       829.907 7        46.906                                                                    36066414.673 8 152608807.68408       674.360 8        51.688
C39        58.000    38054200.417 7 198158241.10407      1531.832 7        44.125                                                                    38054196.112 7 161019797.00707      1244.905 7        46.031
C40        59.000    41234896.513 5 214720786.61905     -1376.873 5        35.344                                                                    41234904.870 5 174478204.29605     -1118.430 5        33.188
C41        16.000    22680505.416 8 118103340.03308      -531.703 8        48.531                                                                    22680507.706 8  95968643.82408      -431.990 8        52.250
C59        22.000    36907736.135 7 192188272.06807       334.220 7        45.438                                                                    36907720.345 8 156168646.35108       271.553 8        50.094
C60        53.000    39490824.990 6 205639092.07506       325.985 6        38.344                                                                    39490811.342 7 167098548.34007       264.926 7        42.313
E04        20.000    24493682.009 7 128715200.86507      1490.126 7        44.563    24493680.740 6  96118505.32906      1112.624 6        38.656    24493679.601 6  98625942.18806      1141.784 6        41.344
E09        50.000    28499216.767 5 149764431.51505      2562.662 5        34.031                                                                    28499224.713 4 114754610.59804      1963.281 4        26.625
E10        18.000    23916703.057 7 125683129.43307       966.132 7        46.125    23916700.819 6  93854281.54706       721.442 6        40.344    23916700.091 7  96302650.51407       740.269 7        42.406
E11        29.000    24500198.296 6 128749441.17706      2304.248 6        41.031    24500193.786 5  96144063.50005      1720.511 5        33.063    24500192.833 5  98652163.13605      1765.597 5        34.906
E12        25.000    23730462.358 6 124704414.22606      -456.355 6        41.969    23730458.187 6  93123407.30406      -340.666 6        38.281    23730457.367 6  95552709.46206      -349.673 6        40.844
E19        12.000    23825345.474 7 125203031.73107      -961.224 7        42.438    23825342.129 5  93495756.26005      -717.841 5        35.281    23825340.968 6  95934772.75206      -736.455 6        37.438
E21         6.000    28276797.651 5 148595583.58105      2431.206 5        35.875    28276803.381 5 110964256.98705      1815.778 5        30.156    28276801.664 5                      1862.647 5        32.750
E27        45.000    28675094.168 6 150688643.35206      1085.840 6        37.094    28675097.766 4                       810.319 4        28.719    28675096.300 5                       831.847 5        31.250
E33        35.000    26134010.694 6 137335105.93806     -2617.578 6        41.156    26134013.382 5 102555421.16905     -1954.568 5        32.219    26134012.405 6 105230774.24206     -2005.594 6        36.656
G05         5.000    20437569.687 7 107400154.96307        39.372 7        46.938    20437564.106 8  83688408.20408        30.683 8        49.188    20437564.147 7  83688397.20807        30.745 7        46.719
G07         7.000    25975303.595 5 136501117.93705     -2651.809 5        32.281    25975300.364 3 106364485.42003     -2066.335 3        18.906    25975299.015 4 106364509.36604     -2065.900 4        26.625
G11        11.000    23421663.705 6 123081615.92306     -3254.993 6        41.750    23421662.875 4  95907719.86404     -2536.351 4        25.938    23421663.078 6  95907716.85206     -2536.289 6        39.125    23421668.443 5  91911579.24605     -2430.431 5        34.219
G13        13.000    19949806.517 7 104836949.69707      -650.135 7        46.781    19949799.941 6  81691106.21106      -506.599 6        39.125
G14        33.000    25037810.141 6 131574615.90906      2019.276 6        37.625    25037810.706 3 102525663.89503      1573.480 3        19.844    25037811.403 6 102525659.89606      1573.422 6        36.844    25037816.702 5  98253777.51305      1507.726 5        32.250
G15        15.000    20510993.838 7 107786036.01107      1623.633 7        47.031    20510988.873 7  83989113.08907      1265.170 7        46.875    20510988.483 7  83989110.10507      1265.106 7        44.344
G18        27.000    23011688.794 6 120927284.40706      3187.020 6        41.875    23011686.434 4  94229054.63504      2483.392 4        28.406    23011685.597 6  94229056.64806      2483.475 6        41.656    23011690.522 6  90302866.92406      2380.021 6        36.406
G20         4.000    21123815.461 7 111006382.62507     -1217.743 7        46.156    21123810.160 5  86498448.70305      -948.888 5        35.469
G22        52.000    25206736.287 6 132462297.81706      2303.813 6        36.563    25206736.062 2 103217379.98102      1795.220 2        15.188
G24         3.000    23566771.551 6 123844275.94406      4245.992 6        37.375    23566776.486 5  96502066.69305      3308.561 5        31.750    23566775.443 6  96502087.73806      3308.729 6        37.313    23566777.997 5  92481164.54605      3170.551 5        33.313
G29         8.000    23957368.816 6 125896778.57106     -1887.127 6        41.219    23957367.744 4  98101357.99904     -1470.478 4        29.625    23957366.755 5  98101351.97305     -1470.192 5        32.406
G30         1.000    23255669.550 7 122209356.37907     -1972.719 7        42.813    23255667.774 6  95228058.00006     -1537.180 6        39.875    23255667.469 6  95228045.00306     -1537.233 6        39.313    23255667.745 6  91260223.31206     -1473.154 6        36.563
J03        46.000    37053778.226 7 194718910.67807       546.922 7        44.375    37053774.964 7 151729000.29907       426.291 7        46.531    37053777.190 6 145406968.43606       408.515 6        40.188
J07        21.000    37132646.477 6 195133376.01706       321.904 6        38.469    37132642.251 7 152051956.61207       250.869 7        44.406    37132644.820 6 145716477.28706       240.348 6        39.719
R01        37.000    21338868.568 7 114068466.38907     -1675.640 7        45.469    21338865.671 6  88719892.56706     -1303.228 6        39.875
R02         2.000    20188234.973 8 107728300.19608       418.159 8        51.375    20188231.174 8  83788674.05808       325.202 8        48.219
R03        34.000    22570118.144 7 120819718.18307      2457.321 7        43.563    22570115.776 6  93970935.40506      1911.252 6        40.906
R11        36.000    22126521.152 7 118237456.95307       197.833 7        47.750    22126518.062 7  91962472.62807       153.929 7        43.813
R12        24.000    22132203.822 7 118226432.06207      3569.342 7        47.125    22132205.366 6  91953963.71906      2776.296 6        41.875
R13        55.000    24332385.676 5 129933591.94805      4329.083 5        33.656    24332396.517 5 101059510.95005      3367.192 5        31.000
R17        10.000    19959181.258 8 106805606.48108      -424.004 8        50.406    19959177.473 8  83071012.15608      -329.711 8        48.781
R18        57.000    21973149.622 7 117294187.37407      3108.513 7        45.000    21973147.847 7  91228827.66007      2417.833 7        43.656
R24        19.000    21719109.320 7 116141776.28907     -3739.938 7        46.219    21719109.113 7  90332463.62407     -2908.793 7        44.875
> 2024 06 24 08 20  3.0000000  0 57
C01         9.000    36689042.665 7 191049475.52607       305.759 7        43.406    36689037.543 6 147731553.64406       236.389 6        39.500    36689038.470 7 155243332.18407       248.464 7        45.969
C02        44.000    38962215.697 6 202886480.82906       354.853 6        36.188    38962211.286 5 156884679.97905       274.379 5        34.406    38962212.831 6 164861872.59006       287.946 6        38.281
C03        54.000    37375775.283 7 194625470.50607       316.638 7        42.125    37375768.426 6 150496734.21406       244.884 6        36.844    37375769.774 7 158149116.23407       257.408 7        44.469
C04        26.000    37590859.117 7 195745473.16807       290.904 7        42.219    37590851.589 6 151362785.26006       224.904 6        38.656    37590852.735 7 159059199.87107       236.390 7        43.469
C05        60.000    41654571.288 6 216906284.49006       358.653 6        36.375    41654572.636 5 167725705.85605       277.571 5        31.625    41654569.704 5 176254121.10105       291.457 5        35.219
C06        17.000    38927454.377 6 202705502.09106      1648.578 6        38.719    38927449.880 5 156744755.31005      1274.572 5        34.063    38927448.991 7 164714816.42907      1339.679 7        42.063
C07        40.000    41174488.888 5 214406284.91605     -1121.827 5        34.188    41174493.218 5                      -867.023 5        30.844    41174489.559 6 174222625.45106      -911.443 6        38.688
C08        39.000    36756579.488 7 191401163.40807      1030.715 7        42.688    36756569.624 6 148003482.93306       797.130 6        39.969    36756568.781 7 155529081.38807       837.576 7        46.750
C10        30.000    40679648.807 5 211829524.08705     -1249.731 5        32.375    40679654.093 5                      -966.275 5        30.750    40679649.645 6 172128817.90206     -1015.521 6        36.406
C13        32.000    37227644.658 7 193854127.74607      1080.661 7        44.000    37227644.005 6 149900303.29306       835.410 6        37.656    37227641.614 7 157522343.00807       878.097 7        45.906
C16        49.000    38992582.676 6 203044658.17006      1592.610 6        40.781    38992583.351 5 157006999.19605      1231.486 5        33.969    38992580.159 6 164990419.26106      1294.208 6        40.969
C23        47.000    24501840.321 7 127587636.83807      3049.262 7        44.094                                                                    24501831.874 7 103675423.11207      2477.852 7        45.906
C24        41.000    26036558.855 6 135579191.45706     -1473.787 6        40.594                                                                    26036554.641 6 110169181.66906     -1197.370 6        38.375
C25        48.000    23588783.142 7 122833026.02507       889.247 7        46.344                                                                    23588779.082 7  99811895.45207       722.602 7        47.031
C27        31.000    23506536.241 7 122404667.54807     -2093.240 7        44.656                                                                    23506534.262 7  99463796.17307     -1700.928 7        46.719
C28        23.000    25864486.986 6 134683068.61506     -2911.120 6        36.125                                                                    25864491.309 6 109441001.65406     -2365.422 6        38.406
C30        42.000    23957156.238 7 124751201.98607       268.509 7        46.219                                                                    23957155.354 7 101370570.84407       218.132 7        46.563
C32        43.000    23135716.915 7 120473775.00307      1596.130 7        46.906                                                                    23135713.997 8  97894813.16808      1296.971 8        49.750
C33        56.000    25891191.062 6 134822178.35106     -1794.981 6        41.813                                                                    25891202.568 6 109554095.06606     -1458.492 6        41.375
C38        51.000    36066261.569 7 187806489.00007       829.796 7        46.844                                                                    36066255.307 8 152608133.35208       674.281 8        51.625
C39        58.000    38053906.265 7 198156709.18407      1531.887 7        44.094                                                                    38053901.904 7 161018552.20107      1244.738 7        45.969
C40        59.000    41235160.985 5 214722163.07605     -1376.526 5        35.344                                                                    41235169.235 5 174479322.80905     -1118.623 5        33.563
C41        16.000    22680607.508 8 118103871.73808      -531.843 8        48.500                                                                    22680609.801 8  95969075.88308      -432.151 8        52.219
C59        22.000    36907671.949 7 192187937.87207       334.101 7        45.219                                                                    36907656.182 8 156168374.79508       271.530 8        50.094
C60        53.000    39490762.226 6 205638766.12806       325.876 6        38.188                                                                    39490748.695 7 167098283.48907       264.827 7        42.250
E04        20.000    24493398.514 7 128713710.84007      1489.814 7        44.594    24493397.299 6  96117392.63406      1112.605 6        38.875    24493396.006 6  98624800.48606      1141.571 6        41.125
E09        50.000    28498729.069 5 149761868.90405      2562.466 5        34.281                                                                    28498737.138 4 114752647.05304      1963.310 4        26.344
E10        18.000    23916519.237 7 125682163.53307       965.602 7        46.094    23916517.051 6  93853560.26706       720.960 6        40.250    23916516.269 7  96301910.41107       739.889 7        42.344
E11        29.000    24499759.827 6 128747137.11006      2303.934 6        40.750    24499755.445 5  96142342.93105      1720.564 5        33.031    24499754.450 5  98650397.69705      1765.223 5        34.469
E12        25.000    23730549.223 7 124704870.74807      -456.808 7        42.000    23730544.959 6  93123748.21806      -341.040 6        38.219    23730544.242 6  95553059.25906      -349.996 6        40.844
E19        12.000    23825528.373 7 125203992.99807      -961.467 7        42.406    23825524.977 5  93496474.10105      -718.000 5        35.438    23825523.868 6  95935509.30906      -736.809 6        37.156
E21         6.000    28276335.102 5 148593152.53105      2430.838 5        35.969    28276340.958 5 110962441.61405      1815.157 5        31.125    28276339.083 5                      1862.780 5        32.688
E27        45.000    28674887.617 6 150687557.62106      1085.348 6        37.219    28674891.338 4                       810.616 4        28.719    28674889.819 5                       831.995 5        30.781
E33        35.000    26134508.824 6 137337723.44406     -2617.662 6        41.031    26134511.541 5 102557375.81505     -1954.733 5        32.438    26134510.622 6 105232779.85606     -2005.700 6        36.656
G05         5.000    20437562.228 7 107400115.70907        38.962 7        46.906    20437556.638 8  83688377.61608        30.361 8        49.219    20437556.546 7  83688366.62207        30.377 7        46.750
G07         7.000    25975807.818 5 136503769.82905     -2652.242 5        31.906    25975804.955 2 106366551.81602     -2066.653 2        17.875    25975804.022 4 106366575.70404     -2065.742 4        24.969
G11        11.000    23422283.144 6 123084871.04306     -3255.352 6        41.781    23422282.320 4  95910256.31804     -2536.625 4        25.875    23422282.480 6  95910253.29706     -2536.556 6        39.250    23422287.802 5  91914010.00605     -2430.883 5        34.313
G13        13.000    19949930.254 7 104837600.06307      -650.643 7        46.750    19949923.711 6  81691612.99006      -506.995 6        39.094
G14        33.000    25037425.993 6 131572596.80606      2018.955 6        37.938    25037426.450 3 102524090.57003      1573.207 3        19.469    25037427.078 6 102524086.57106      1573.250 6        36.875    25037432.280 5  98252269.74205      1507.468 5        32.156
G15        15.000    20510684.857 7 107784412.59207      1623.191 7        47.063    20510679.947 7  83987848.08907      1264.823 7        46.875    20510679.649 7  83987845.09607      1264.869 7        44.344
G18        27.000    23011082.364 6 120924097.58306      3186.511 6        41.844    23011079.965 4  94226571.39804      2482.994 4        28.313    23011079.171 6  94226573.39606      2483.151 6        41.750    23011084.059 6  90300487.15006      2379.336 6        36.438
G20         4.000    21124047.214 7 111007600.56907     -1218.143 7        46.281    21124041.920 5  86499397.74705      -949.199 5        35.469
G22        52.000    25206297.874 6 132459994.07006      2303.535 6        36.031    25206297.641 2 103215584.85602      1794.952 2        15.313
G24         3.000    23565963.725 6 123840030.05806      4245.813 6        37.563    23565968.482 5  96498758.22105      3308.421 5        31.750    23565967.533 6  96498779.25706      3308.343 6        37.719    23565969.733 5  92477993.90805      3170.657 5        33.438
G29         8.000    23957727.917 6 125898665.73106     -1887.348 6        41.063    23957726.901 4  98102828.51104     -1470.659 4        29.563    23957726.246 5  98102822.53905     -1470.843 5        32.813
G30         1.000    23256044.819 7 122211329.31607     -1973.302 7        42.781    23256043.220 6  95229595.35506     -1537.638 6        39.906    23256043.178 6  95229582.35606     -1537.481 6        39.438    23256043.259 6  91261696.61006     -1473.509 6        36.469
J03        46.000    37053674.054 7 194718363.67307       546.897 7        44.375    37053670.679 7 151728574.07007       426.136 7        46.563    37053673.131 6 145406559.97106       408.400 6        39.938
J07        21.000    37132585.418 6 195133054.12306       321.693 6        38.438    37132580.897 7 152051705.77607       250.736 7        44.469    37132583.486 6 145716236.90706       240.295 6        39.563
R01        37.000    21339181.898 7 114070142.07407     -1675.748 7        45.563    21339179.442 6  88721195.87206     -1303.333 6        40.156
R02         2.000    20188156.574 8 107727882.14108       417.906 8        51.281    20188152.712 8  83788348.90608       325.048 8        48.156
R03        34.000    22569658.897 7 120817260.91707      2457.142 7        43.531    22569656.711 6  93969024.20306      1911.211 6        41.063
R11        36.000    22126484.268 7 118237259.54907       196.908 7        47.844    22126481.234 7  91962319.09307       153.216 7        43.813
R12        24.000    22131535.582 7 118222862.88207      3568.962 7        47.063    22131537.048 7  91951187.69707      2775.819 7        42.156
R13        55.000    24331574.169 5 129929262.51905      4329.555 5        33.375    24331585.689 5 101056143.61105      3367.367 5        30.656
R17        10.000    19959260.613 8 106806030.99008      -425.043 8        50.375    19959256.684 8  83071342.33408      -330.586 8        48.813
R18        57.000    21972567.129 7 117291079.13007      3107.806 7        45.125    21972565.510 7  91226410.14907      2417.259 7        43.563
R24        19.000    21719808.665 7 116145516.33707     -3740.263 7        46.250    21719808.607 7  90335372.55407     -2909.087 7        45.094
> 2024 06 24 08 20  4.0000000  0 57
C01         9.000    36688983.966 7 191049169.74307       305.441 7        43.438    36688978.741 6 147731317.20206       236.134 6        39.625    36688979.740 7 155243083.70907       248.213 7        46.031
C02        44.000    38962147.751 6 202886125.96306       354.467 6        36.219    38962143.000 5 156884405.57905       273.935 5        34.375    38962144.670 6 164861584.20906       288.286 6        38.469
C03        54.000    37375714.340 7 194625153.64907       316.525 7        42.125    37375707.545 6 150496489.18706       244.719 6        36.594    37375708.933 7 158148858.78107       257.113 7        44.344
C04        26.000    37590803.199 7 195745182.18207       290.658 7        42.375    37590795.814 6 151362560.25006       224.833 6        38.594    37590796.822 7 159058963.42207       236.180 7        43.688
C05        60.000    41654502.340 6 216905925.59206       358.348 6        36.094    41654503.961 5 167725428.37105       277.280 5        31.594    41654500.761 5 176253829.46205       291.395 5        34.969
C06        17.000    38927137.592 6 202703853.38906      1648.459 6        38.594    38927133.423 5 156743480.39605      1274.731 5        33.781    38927132.367 7 164713476.74007      1339.307 7        42.094
C07        40.000    41174704.198 5 214407406.34605     -1121.708 5        34.563    41174709.532 5                      -867.095 5        30.844    41174705.057 6 174223536.72606      -911.589 6        38.938
C08        39.000    36756381.456 7 191400132.39107      1030.744 7        42.719    36756371.826 6 148002685.70906       796.853 6        39.969    36756370.779 7 155528243.61407       837.388 7        46.719
C10        30.000    40679888.812 5 211830773.76805     -1250.030 5        32.219    40679894.058 5                      -966.356 5        30.594    40679889.638 6 172129833.38806     -1015.733 6        36.250
C13        32.000    37227437.204 7 193853046.96307      1080.464 7        43.969    37227436.345 6 149899467.54906       835.539 6        37.750    37227434.018 7 157521464.78107       878.018 7        45.906
C16        49.000    38992276.752 6 203043065.42906      1592.425 6        40.781    38992277.662 5 157005767.60105      1231.121 5        34.094    38992274.261 6 164989125.04706      1293.961 6        40.844
C23        47.000    24501254.681 7 127584587.46607      3048.943 7        44.063                                                                    24501246.277 7 103672945.24807      2477.545 7        46.063
C24        41.000    26036842.086 6 135580665.22206     -1474.392 6        40.719                                                                    26036837.751 6 110170379.25106     -1198.051 6        38.500
C25        48.000    23588612.382 7 122832136.88007       888.426 7        46.438                                                                    23588608.323 7  99811172.95107       722.034 7        47.125
C27        31.000    23506938.193 7 122406760.82307     -2093.763 7        44.781                                                                    23506936.273 7  99465497.12607     -1701.358 7        46.719
C28        23.000    25865045.990 6 134685979.52706     -2911.151 6        36.563                                                                    25865050.306 6 109443367.00306     -2365.568 6        38.750
C30        42.000    23957104.596 7 124750933.61107       267.757 7        46.188                                                                    23957103.811 7 101370352.76007       217.562 7        46.719
C32        43.000    23135410.390 7 120472178.78107      1595.802 7        46.969                                                                    23135407.443 8  97893516.10308      1296.758 8        49.969
C33        56.000    25891535.780 6 134823973.14906     -1795.135 6        41.813                                                                    25891547.283 6 109555553.49706     -1458.793 6        41.375
C38        51.000    36066102.323 7 187805659.05507       829.573 7        46.875                                                                    36066095.910 8 152607458.94808       674.110 8        51.688
C39        58.000    38053612.044 7 198155177.28107      1531.512 7        44.031                                                                    38053607.701 7 161017307.40507      1244.501 7        46.094
C40        59.000    41235425.372 5 214723539.34805     -1376.765 5        35.688                                                                    41235433.542 5 174480441.10905     -1118.563 5        33.625
C41        16.000    22680709.662 8 118104403.47408      -532.152 8        48.594                                                                    22680711.921 8  95969507.95908      -432.400 8        52.313
C59        22.000    36907607.853 7 192187603.59207       333.902 7        45.344                                                                    36907591.969 8 156168103.16308       271.373 8        50.063
C60        53.000    39490699.767 6 205638440.09906       325.628 6        38.250                                                                    39490686.065 7 167098018.55007       264.703 7        42.406
E04        20.000    24493115.008 7 128712220.95707      1489.368 7        44.594    24493113.779 6  96116280.07006      1112.095 6        38.688    24493112.545 6  98623658.88506      1141.162 6        41.156
E09        50.000    28498241.491 5 149759306.31405      2562.237 5        33.969                                                                    28498249.624 4 114750683.48304      1963.160 4        26.000
E10        18.000    23916335.544 7 125681197.98507       964.990 7        46.094    23916333.254 6  93852839.22506       720.626 6        40.219    23916332.530 7  96301170.56407       739.480 7        42.406
E11        29.000    24499321.555 6 128744833.27206      2303.221 6        40.969    24499316.877 5  96140622.52605      1719.838 5        33.063    24499316.083 5  98648632.39105      1764.990 5        34.438
E12        25.000    23730636.149 7 124705327.63007      -457.415 7        42.094    23730631.923 6  93124089.40406      -341.640 6        38.063    23730631.189 6  95553409.34606      -350.557 6        40.719
E19        12.000    23825711.264 7 125204954.30807      -961.708 7        42.406    23825707.904 5  93497191.95405      -718.235 5        35.281    23825706.867 6  95936245.89306      -736.823 6        37.250
E21         6.000    28275872.610 6 148590721.46106      2430.671 6        36.313    28275878.445 5 110960626.15005      1815.440 5        30.750    28275876.695 5                      1862.703 5        32.563
E27        45.000    28674681.144 6 150686472.17006      1084.940 6        36.969    28674684.865 4                       810.592 4        29.406    28674683.060 5                       831.574 5        31.219
E33        35.000    26135007.000 6 137340341.02906     -2617.934 6        41.125    26135009.411 5 102559330.51105     -1955.096 5        32.188    26135008.757 6 105234785.55306     -2006.137 6        36.531
G05         5.000    20437554.807 7 107400076.70807        38.447 7        46.906    20437549.220 8  83688347.22508        29.956 8        49.250    20437549.130 7  83688336.23207        29.955 7        46.781
G07         7.000    25976312.035 5 136506421.67305     -2652.154 5        32.156    25976309.506 2 106368618.16802     -2066.615 2        17.094    25976309.764 4 106368642.21404     -2067.192 4        25.469
G11        11.000    23422902.587 6 123088126.26406     -3255.680 6        41.969    23422901.800 4  95912792.84804     -2536.889 4        26.031    23422902.015 6  95912789.83506     -2536.862 6        39.156    23422907.122 5  91916440.84805     -2431.176 5        34.250
G13        13.000    19950053.993 7 104838250.75607      -651.291 7        46.719    19950047.552 6  81692120.02106      -507.499 6        39.094
G14        33.000    25037041.983 6 131570577.88406      2018.282 6        38.031    25037042.275 3 102522517.39103      1572.687 3        19.406    25037042.868 6 102522513.39106      1572.886 6        37.031    25037048.138 5  98250762.09905      1507.459 5        32.313
G15        15.000    20510375.921 7 107782789.44007      1622.643 7        47.156    20510371.078 7  83986583.29607      1264.392 7        46.906    20510370.636 7  83986580.31107      1264.429 7        44.375
G18        27.000    23010475.937 7 120920911.03307      3186.020 7        42.000    23010473.591 4  94224088.37304      2482.611 4        28.313    23010472.804 6  94224090.38606      2482.604 6        41.719    23010477.750 6  90298107.59706      2379.123 6        36.688
G20         4.000    21124278.990 7 111008818.79207     -1218.763 7        46.375    21124273.742 5  86500347.00905      -949.684 5        35.500
G22        52.000    25205859.261 5 132457690.25805      2303.654 5        35.813    25205859.262 2 103213789.70002      1794.997 2        15.000
G24         3.000    23565155.750 6 123835784.20606      4245.555 6        37.594    23565160.509 5  96495449.77205      3308.216 5        31.844    23565159.643 6  96495470.81606      3308.127 6        37.813    23565161.806 5  92474823.34805      3170.262 5        33.656
G29         8.000    23958087.104 6 125900553.09106     -1887.905 6        40.875    23958086.057 4  98104299.17604     -1471.097 4        29.656    23958085.727 5  98104293.18005     -1470.816 5        32.594
G30         1.000    23256420.324 7 122213302.57107     -1973.731 7        42.875    23256418.734 6  95231132.95606     -1537.972 6        40.000    23256418.648 6  95231119.96506     -1537.993 6        39.344    23256418.803 6  91263170.13706     -1473.862 6        36.781
J03        46.000    37053569.946 7 194717816.65907       546.619 7        44.375    37053566.737 7 151728147.81907       425.972 7        46.594    37053569.085 6 145406151.49206       408.201 6        40.000
J07        21.000    37132524.051 6 195132732.11006       321.740 6        38.375    37132519.553 7 152051454.86907       250.591 7        44.469    37132522.221 6 145715996.44906       240.325 6        39.500
R01        37.000    21339495.291 7 114071817.74607     -1676.077 7        45.344    21339492.836 6  88722499.16106     -1303.592 6        40.375
