% program   : RTKPOST ver.2.4.3 b34
% inp file  : C:\Users\Taro\Dropbox\github\MU-PF\data\static\rover.obs
% inp file  : C:\Users\Taro\Dropbox\github\MU-PF\data\static\base.obs
% inp file  : C:\Users\Taro\Dropbox\github\MU-PF\data\static\base.nav
% obs start : 2018/08/30 02:03:00.0 GPST (week2016 352980.0s)
% obs end   : 2018/08/30 02:13:00.0 GPST (week2016 353580.0s)
% pos mode  : Kinematic
% freqs     : L1+2
% solution  : Forward
% elev mask : 15.0 deg
% dynamics  : off
% tidecorr  : off
% ionos opt : Broadcast
% tropo opt : Saastamoinen
% ephemeris : Broadcast
% navi sys  : GPS GLONASS Galileo QZSS BDS
% amb res   : Instantaneous
% amb glo   : ON
% val thres : 3.0
% antenna1  :                       ( 0.0000  0.0000  0.0000)
% antenna2  :                       ( 0.0000  0.0000  0.0000)
% ref pos   : 35.891188010  139.569992800    47.5153
%
% (lat/lon/height=WGS84/ellipsoidal,Q=1:fix,2:float,3:sbas,4:dgps,5:single,6:ppp,ns=# of satellites)
%  GPST                  latitude(deg) longitude(deg)  height(m)   Q  ns   sdn(m)   sde(m)   sdu(m)  sdne(m)  sdeu(m)  sdun(m) age(s)  ratio    vn(m/s)    ve(m/s)    vu(m/s)      sdvn     sdve     sdvu    sdvne    sdveu    sdvun
2018/08/30 02:03:00.000   35.891147821  139.570046999    46.0899   1  19   0.0039   0.0036   0.0134   0.0018  -0.0025   0.0028   0.00    7.5    0.00000    0.00000    0.00000   0.00000  0.00000  0.00000  0.00000  0.00000  0.00000
2018/08/30 02:03:00.100   35.891147810  139.570046983    46.0975   1  19   0.0040   0.0035   0.0136   0.0017  -0.0027   0.0028  -0.90    7.1    0.00000    0.00000    0.00000   0.00000  0.00000  0.00000  0.00000  0.00000  0.00000
2018/08/30 02:03:00.200   35.891147811  139.570046979    46.0949   1  19   0.0040   0.0035   0.0136   0.0017  -0.0027   0.0028  -0.80    6.1    0.00000    0.00000    0.00000   0.00000  0.00000  0.00000  0.00000  0.00000  0.00000
2018/08/30 02:03:00.300   35.891147802  139.570046979    46.0976   1  19   0.0040   0.0035   0.0135   0.0017  -0.0026   0.0028  -0.70    7.4    0.00000    0.00000    0.00000   0.00000  0.00000  0.00000  0.00000  0.00000  0.00000
2018/08/30 02:03:00.400   35.891147817  139.570046994    46.0944   1  19   0.0039   0.0035   0.0135   0.0017  -0.0026   0.0028  -0.60    6.2    0.00000    0.00000    0.00000   0.00000  0.00000  0.00000  0.00000  0.00000  0.00000
2018/08/30 02:03:00.500   35.891147823  139.570046997    46.0944   1  19   0.0039   0.0036   0.0135   0.0018  -0.0026   0.0028  -0.50    6.2    0.00000    0.00000    0.00000   0.00000  0.00000  0.00000  0.00000  0.00000  0.00000
2018/08/30 02:03:00.600   35.891147813  139.570047007    46.0935   1  19   0.0039   0.0035   0.0135   0.0017  -0.0026   0.0028  -0.40    7.8    0.00000    0.00000    0.00000   0.00000  0.00000  0.00000  0.00000  0.00000  0.00000
2018/08/30 02:03:00.700   35.891147829  139.570046979    46.0965   1  19   0.0040   0.0035   0.0135   0.0017  -0.0026   0.0028  -0.30    6.1    0.00000    0.00000    0.00000   0.00000  0.00000  0.00000  0.00000  0.00000  0.00000
2018/08/30 02:03:00.800   35.891147848  139.570047003    46.0950   1  19   0.0040   0.0035   0.0136   0.0017  -0.0027   0.0028  -0.20    6.8    0.00000    0.00000    0.00000   0.00000  0.00000  0.00000  0.00000  0.00000  0.00000
2018/08/30 02:03:00.900   35.891147809  139.570046994    46.0935   1  19   0.0040   0.0035   0.0136   0.0017  -0.0027   0.0028  -0.10    6.0    0.00000    0.00000    0.00000   0.00000  0.00000  0.00000  0.00000  0.00000  0.00000
2018/08/30 02:03:01.000   35.891147820  139.570046992    46.1007   1  19   0.0039   0.0036   0.0134   0.0018  -0.0025   0.0028   0.00    6.6    0.00000    0.00000    0.00000   0.00000  0.00000  0.00000  0.00000  0.00000  0.00000
2018/08/30 02:03:01.100   35.891147816  139.570046964    46.1003   1  19   0.0040   0.0036   0.0136   0.0018  -0.0026   0.0028  -0.90    5.6    0.00000    0.00000    0.00000   0.00000  0.00000  0.00000  0.00000  0.00000  0.00000
2018/08/30 02:03:01.200   35.891147809  139.570046979    46.0933   1  19   0.0040   0.0036   0.0136   0.0018  -0.0026   0.0028  -0.80    7.1    0.00000    0.00000    0.00000   0.00000  0.00000  0.00000  0.00000  0.00000  0.00000
2018/08/30 02:03:01.300   35.891147825  139.570046974    46.1020   1  19   0.0040   0.0036   0.0135   0.0018  -0.0026   0.0028  -0.70    6.0    0.00000    0.00000    0.00000   0.00000  0.00000  0.00000  0.00000  0.00000  0.00000
2018/08/30 02:03:01.400   35.891147805  139.570046987    46.1165   1  19   0.0040   0.0036   0.0135   0.0018  -0.0026   0.0028  -0.60    5.0    0.00000    0.00000    0.00000   0.00000  0.00000  0.00000  0.00000  0.00000  0.00000
2018/08/30 02:03:01.500   35.891147841  139.570046986    46.0826   1  19   0.0040   0.0038   0.0137   0.0020  -0.0031   0.0024  -0.50    5.6    0.00000    0.00000    0.00000   0.00000  0.00000  0.00000  0.00000  0.00000  0.00000
2018/08/30 02:03:01.600   35.891147841  139.570046996    46.0975   1  19   0.0040   0.0036   0.0135   0.0018  -0.0026   0.0028  -0.40    6.8    0.00000    0.00000    0.00000   0.00000  0.00000  0.00000  0.00000  0.00000  0.00000
2018/08/30 02:03:01.700   35.891147814  139.570046979    46.0964   1  19   0.0040   0.0035   0.0135   0.0017  -0.0026   0.0028  -0.30    8.1    0.00000    0.00000    0.00000   0.00000  0.00000  0.00000  0.00000  0.00000  0.00000
2018/08/30 02:03:01.800   35.891147831  139.570046995    46.1024   1  19   0.0040   0.0035   0.0136   0.0017  -0.0027   0.0028  -0.20    7.3    0.00000    0.00000    0.00000   0.00000  0.00000  0.00000  0.00000  0.00000  0.00000
2018/08/30 02:03:01.900   35.891147825  139.570046975    46.1064   1  19   0.0040   0.0035   0.0136   0.0017  -0.0027   0.0028  -0.10    7.4    0.00000    0.00000    0.00000   0.00000  0.00000  0.00000  0.00000  0.00000  0.00000
2018/08/30 02:03:02.000   35.891147821  139.570046981    46.1031   1  19   0.0039   0.0036   0.0134   0.0018  -0.0025   0.0028   0.00    8.1    0.00000    0.00000    0.00000   0.00000  0.00000  0.00000  0.00000  0.00000  0.00000
2018/08/30 02:03:02.100   35.891147810  139.570046965    46.0966   1  19   0.0040   0.0036   0.0136   0.0018  -0.0026   0.0028  -0.90    7.2    0.00000    0.00000    0.00000   0.00000  0.00000  0.00000  0.00000  0.00000  0.00000
2018/08/30 02:03:02.200   35.891147816  139.570046981    46.0990   1  19   0.0040   0.0036   0.0136   0.0018  -0.0026   0.0028  -0.80    8.1    0.00000    0.00000    0.00000   0.00000  0.00000  0.00000  0.00000  0.00000  0.00000
2018/08/30 02:03:02.300   35.891147832  139.570046971    46.1013   1  19   0.0040   0.0036   0.0135   0.0018  -0.0026   0.0028  -0.70    7.2    0.00000    0.00000    0.00000   0.00000  0.00000  0.00000  0.00000  0.00000  0.00000
2018/08/30 02:03:02.400   35.891147820  139.570046978    46.0965   1  19   0.0040   0.0038   0.0138   0.0020  -0.0031   0.0024  -0.60    6.5    0.00000    0.00000    0.00000   0.00000  0.00000  0.00000  0.00000  0.00000  0.00000
2018/08/30 02:03:02.500   35.891147835  139.570046981    46.0990   1  19   0.0040   0.0038   0.0137   0.0020  -0.0031   0.0024  -0.50    5.7    0.00000    0.00000    0.00000   0.00000  0.00000  0.00000  0.00000  0.00000  0.00000
2018/08/30 02:03:02.600   35.891147828  139.570046978    46.0881   1  19   0.0040   0.0038   0.0138   0.0020  -0.0031   0.0024  -0.40    4.9    0.00000    0.00000    0.00000   0.00000  0.00000  0.00000  0.00000  0.00000  0.00000
2018/08/30 02:03:02.700   35.891147816  139.570046983    46.1105   1  19   0.0040   0.0036   0.0135   0.0018  -0.0026   0.0028  -0.30    5.3    0.00000    0.00000    0.00000   0.00000  0.00000  0.00000  0.00000  0.00000  0.00000
2018/08/30 02:03:02.800   35.891147805  139.570046992    46.0960   1  19   0.0040   0.0036   0.0136   0.0018  -0.0026   0.0028  -0.20    7.2    0.00000    0.00000    0.00000   0.00000  0.00000  0.00000  0.00000  0.00000  0.00000
2018/08/30 02:03:02.900   35.891147840  139.570046995    46.0985   1  19   0.0041   0.0038   0.0139   0.0020  -0.0032   0.0024  -0.10    5.8    0.00000    0.00000    0.00000   0.00000  0.00000  0.00000  0.00000  0.00000  0.00000
2018/08/30 02:03:03.000   35.891147818  139.570046975    46.1004   1  19   0.0039   0.0035   0.0134   0.0017  -0.0026   0.0028   0.00    5.7    0.00000    0.00000    0.00000   0.00000  0.00000  0.00000  0.00000  0.00000  0.00000
2018/08/30 02:03:03.100   35.891147832  139.570046993    46.0948   1  19   0.0040   0.0035   0.0136   0.0017  -0.0027   0.0028  -0.90    5.6    0.00000    0.00000    0.00000   0.00000  0.00000  0.00000  0.00000  0.00000  0.00000
2018/08/30 02:03:03.200   35.891147833  139.570047003    46.0959   1  19   0.0040   0.0035   0.0136   0.0017  -0.0027   0.0028  -0.80    6.7    0.00000    0.00000    0.00000   0.00000  0.00000  0.00000  0.00000  0.00000  0.00000
2018/08/30 02:03:03.300   35.891147821  139.570046985    46.1023   1  19   0.0040   0.0038   0.0138   0.0020  -0.0032   0.0024  -0.70    5.5    0.00000    0.00000    0.00000   0.00000  0.00000  0.00000  0.00000  0.00000  0.00000
2018/08/30 02:03:03.400   35.891147822  139.570046997    46.0946   1  19   0.0039   0.0035   0.0135   0.0017  -0.0026   0.0028  -0.60    6.4    0.00000    0.00000    0.00000   0.00000  0.00000  0.00000  0.00000  0.00000  0.00000
2018/08/30 02:03:03.500   35.891147806  139.570046982    46.1006   1  19   0.0039   0.0035   0.0135   0.0017  -0.0026   0.0028  -0.50    6.2    0.00000    0.00000    0.00000   0.00000  0.00000  0.00000  0.00000  0.00000  0.00000
2018/08/30 02:03:03.600   35.891147813  139.570046994    46.0969   1  19   0.0040   0.0036   0.0135   0.0018  -0.0026   0.0028  -0.40    6.5    0.00000    0.00000    0.00000   0.00000  0.00000  0.00000  0.00000  0.00000  0.00000
2018/08/30 02:03:03.700   35.891147818  139.570046998    46.0999   1  19   0.0040   0.0038   0.0138   0.0020  -0.0032   0.0024  -0.30    5.9    0.00000    0.00000    0.00000   0.00000  0.00000  0.00000  0.00000  0.00000  0.00000
2018/08/30 02:03:03.800   35.891147818  139.570046999    46.0917   1  19   0.0041   0.0038   0.0138   0.0020  -0.0032   0.0024  -0.20    6.7    0.00000    0.00000    0.00000   0.00000  0.00000  0.00000  0.00000  0.00000  0.00000
2018/08/30 02:03:03.900   35.891147811  139.570047003    46.0921   1  19   0.0040   0.0036   0.0136   0.0018  -0.0026   0.0028  -0.10    7.0    0.00000    0.00000    0.00000   0.00000  0.00000  0.00000  0.00000  0.00000  0.00000
2018/08/30 02:03:04.000   35.891147816  139.570046982    46.1022   1  19   0.0040   0.0038   0.0137   0.0020  -0.0031   0.0024   0.00    6.4    0.00000    0.00000    0.00000   0.00000  0.00000  0.00000  0.00000  0.00000  0.00000
2018/08/30 02:03:04.100   35.891147812  139.570047002    46.0919   1  19   0.0040   0.0036   0.0136   0.0018  -0.0026   0.0028  -0.90    6.8    0.00000    0.00000    0.00000   0.00000  0.00000  0.00000  0.00000  0.00000  0.00000
2018/08/30 02:03:04.200   35.891147810  139.570046994    46.0941   1  19   0.0040   0.0036   0.0136   0.0018  -0.0026   0.0028  -0.80    6.7    0.00000    0.00000    0.00000   0.00000  0.00000  0.00000  0.00000  0.00000  0.00000
2018/08/30 02:03:04.300   35.891147775  139.570046991    46.0873   1  19   0.0040   0.0036   0.0135   0.0018  -0.0026   0.0028  -0.70    8.1    0.00000    0.00000    0.00000   0.00000  0.00000  0.00000  0.00000  0.00000  0.00000
2018/08/30 02:03:04.400   35.891147824  139.570046983    46.0907   1  19   0.0040   0.0036   0.0135   0.0018  -0.0026   0.0028  -0.60    6.7    0.00000    0.00000    0.00000   0.00000  0.00000  0.00000  0.00000  0.00000  0.00000
2018/08/30 02:03:04.500   35.891147823  139.570046984    46.0990   1  19   0.0040   0.0038   0.0137   0.0020  -0.0032   0.0024  -0.50    7.0    0.00000    0.00000    0.00000   0.00000  0.00000  0.00000  0.00000  0.00000  0.00000
2018/08/30 02:03:04.600   35.891147824  139.570046982    46.1003   1  19   0.0039   0.0035   0.0135   0.0017  -0.0026   0.0028  -0.40    7.5    0.00000    0.00000    0.00000   0.00000  0.00000  0.00000  0.00000  0.00000  0.00000
2018/08/30 02:03:04.700   35.891147830  139.570046991    46.1019   1  19   0.0040   0.0035   0.0135   0.0017  -0.0026   0.0028  -0.30    5.9    0.00000    0.00000    0.00000   0.00000  0.00000  0.00000  0.00000  0.00000  0.00000
2018/08/30 02:03:04.800   35.891147808  139.570046987    46.0906   1  19   0.0040   0.0035   0.0136   0.0017  -0.0027   0.0028  -0.20    6.8    0.00000    0.00000    0.00000   0.00000  0.00000  0.00000  0.00000  0.00000  0.00000
2018/08/30 02:03:04.900   35.891147798  139.570046980    46.0919   1  19   0.0040   0.0035   0.0136   0.0017  -0.0027   0.0028  -0.10    6.5    0.00000    0.00000    0.00000   0.00000  0.00000  0.00000  0.00000  0.00000  0.00000
2018/08/30 02:03:05.000   35.891147826  139.570046982    46.0979   1  19   0.0039   0.0035   0.0134   0.0017  -0.0026   0.0028   0.00    6.8    0.00000    0.00000    0.00000   0.00000  0.00000  0.00000  0.00000  0.00000  0.00000
2018/08/30 02:03:05.100   35.891147821  139.570046975    46.1010   1  19   0.0040   0.0036   0.0136   0.0018  -0.0026   0.0028  -0.90    6.6    0.00000    0.00000    0.00000   0.00000  0.00000  0.00000  0.00000  0.00000  0.00000
2018/08/30 02:03:05.200   35.891147819  139.570046981    46.0984   1  19   0.0040   0.0036   0.0136   0.0018  -0.0026   0.0028  -0.80    6.9    0.00000    0.00000    0.00000   0.00000  0.00000  0.00000  0.00000  0.00000  0.00000
2018/08/30 02:03:05.300   35.891147807  139.570046991    46.0975   1  19   0.0040   0.0036   0.0135   0.0018  -0.0026   0.0028  -0.70    7.6    0.00000    0.00000    0.00000   0.00000  0.00000  0.00000  0.00000  0.00000  0.00000
2018/08/30 02:03:05.400   35.891147813  139.570046985    46.0944   1  19   0.0040   0.0036   0.0135   0.0018  -0.0026   0.0028  -0.60    7.4    0.00000    0.00000    0.00000   0.00000  0.00000  0.00000  0.00000  0.00000  0.00000
2018/08/30 02:03:05.500   35.891147829  139.570046984    46.1034   1  19   0.0039   0.0036   0.0135   0.0018  -0.0026   0.0028  -0.50    6.2    0.00000    0.00000    0.00000   0.00000  0.00000  0.00000  0.00000  0.00000  0.00000
2018/08/30 02:03:05.600   35.891147819  139.570046977    46.0968   1  19   0.0040   0.0038   0.0138   0.0020  -0.0031   0.0024  -0.40    5.8    0.00000    0.00000    0.00000   0.00000  0.00000  0.00000  0.00000  0.00000  0.00000
2018/08/30 02:03:05.700   35.891147815  139.570046987    46.0972   1  19   0.0040   0.0035   0.0135   0.0017  -0.0026   0.0028  -0.30    6.2    0.00000    0.00000    0.00000   0.00000  0.00000  0.00000  0.00000  0.00000  0.00000
2018/08/30 02:03:05.800   35.891147821  139.570046979    46.1007   1  19   0.0040   0.0035   0.0136   0.0017  -0.0027   0.0028  -0.20    7.7    0.00000    0.00000    0.00000   0.00000  0.00000  0.00000  0.00000  0.00000  0.00000
2018/08/30 02:03:05.900   35.891147833  139.570047008    46.1031   1  19   0.0040   0.0035   0.0136   0.0017  -0.0027   0.0028  -0.10    6.8    0.00000    0.00000    0.00000   0.00000  0.00000  0.00000  0.00000  0.00000  0.00000
2018/08/30 02:03:06.000   35.891147826  139.570047007    46.0959   1  19   0.0039   0.0035   0.0134   0.0017  -0.0026   0.0028   0.00    6.5    0.00000    0.00000    0.00000   0.00000  0.00000  0.00000  0.00000  0.00000  0.00000
2018/08/30 02:03:06.100   35.891147848  139.570046990    46.0917   1  19   0.0040   0.0036   0.0136   0.0018  -0.0026   0.0028  -0.90    6.4    0.00000    0.00000    0.00000   0.00000  0.00000  0.00000  0.00000  0.00000  0.00000
2018/08/30 02:03:06.200   35.891147847  139.570047001    46.1020   1  19   0.0041   0.0038   0.0138   0.0020  -0.0032   0.0024  -0.80    8.4    0.00000    0.00000    0.00000   0.00000  0.00000  0.00000  0.00000  0.00000  0.00000
2018/08/30 02:03:06.300   35.891147830  139.570046994    46.0956   1  19   0.0040   0.0038   0.0138   0.0020  -0.0031   0.0024  -0.70    6.7    0.00000    0.00000    0.00000   0.00000  0.00000  0.00000  0.00000  0.00000  0.00000
2018/08/30 02:03:06.400   35.891147827  139.570046978    46.0977   1  19   0.0040   0.0036   0.0135   0.0018  -0.0026   0.0028  -0.60    7.9    0.00000    0.00000    0.00000   0.00000  0.00000  0.00000  0.00000  0.00000  0.00000
2018/08/30 02:03:06.500   35.891147833  139.570046990    46.0920   1  19   0.0039   0.0036   0.0135   0.0018  -0.0026   0.0028  -0.50    7.5    0.00000    0.00000    0.00000   0.00000  0.00000  0.00000  0.00000  0.00000  0.00000
2018/08/30 02:03:06.600   35.891147815  139.570046989    46.0929   1  19   0.0040   0.0036   0.0135   0.0018  -0.0026   0.0028  -0.40    7.0    0.00000    0.00000    0.00000   0.00000  0.00000  0.00000  0.00000  0.00000  0.00000
2018/08/30 02:03:06.700   35.891147811  139.570046970    46.1002   1  19   0.0040   0.0036   0.0135   0.0018  -0.0026   0.0028  -0.30    7.3    0.00000    0.00000    0.00000   0.00000  0.00000  0.00000  0.00000  0.00000  0.00000
2018/08/30 02:03:06.800   35.891147809  139.570046985    46.0880   1  19   0.0040   0.0036   0.0136   0.0018  -0.0026   0.0028  -0.20    6.5    0.00000    0.00000    0.00000   0.00000  0.00000  0.00000  0.00000  0.00000  0.00000
2018/08/30 02:03:06.900   35.891147819  139.570046992    46.1016   1  19   0.0040   0.0036   0.0136   0.0018  -0.0026   0.0028  -0.10    9.8    0.00000    0.00000    0.00000   0.00000  0.00000  0.00000  0.00000  0.00000  0.00000
2018/08/30 02:03:07.000   35.891147821  139.570046985    46.1019   1  19   0.0040   0.0037   0.0136   0.0020  -0.0032   0.0024   0.00    8.2    0.00000    0.00000    0.00000   0.00000  0.00000  0.00000  0.00000  0.00000  0.00000
2018/08/30 02:03:07.100   35.891147835  139.570046983    46.1008   1  19   0.0041   0.0038   0.0138   0.0020  -0.0033   0.0023  -0.90    8.4    0.00000    0.00000    0.00000   0.00000  0.00000  0.00000  0.00000  0.00000  0.00000
2018/08/30 02:03:07.200   35.891147794  139.570047019    46.0857   1  19   0.0039   0.0034   0.0135   0.0018  -0.0023   0.0026  -0.80    6.1    0.00000    0.00000    0.00000   0.00000  0.00000  0.00000  0.00000  0.00000  0.00000
2018/08/30 02:03:07.300   35.891147807  139.570046976    46.0950   1  19   0.0040   0.0038   0.0138   0.0020  -0.0032   0.0024  -0.70    9.2    0.00000    0.00000    0.00000   0.00000  0.00000  0.00000  0.00000  0.00000  0.00000
2018/08/30 02:03:07.400   35.891147804  139.570046990    46.0921   1  19   0.0040   0.0036   0.0135   0.0018  -0.0026   0.0028  -0.60    9.8    0.00000    0.00000    0.00000   0.00000  0.00000  0.00000  0.00000  0.00000  0.00000
2018/08/30 02:03:07.500   35.891147815  139.570046985    46.1022   1  19   0.0039   0.0036   0.0135   0.0018  -0.0026   0.0028  -0.50    6.9    0.00000    0.00000    0.00000   0.00000  0.00000  0.00000  0.00000  0.00000  0.00000
2018/08/30 02:03:07.600   35.891147801  139.570046974    46.0953   1  19   0.0040   0.0038   0.0137   0.0020  -0.0032   0.0024  -0.40    7.8    0.00000    0.00000    0.00000   0.00000  0.00000  0.00000  0.00000  0.00000  0.00000
2018/08/30 02:03:07.700   35.891147804  139.570046990    46.0966   1  19   0.0040   0.0038   0.0138   0.0020  -0.0032   0.0024  -0.30    7.8    0.00000    0.00000    0.00000   0.00000  0.00000  0.00000  0.00000  0.00000  0.00000
2018/08/30 02:03:07.800   35.891147815  139.570046968    46.1024   1  19   0.0040   0.0035   0.0136   0.0017  -0.0027   0.0028  -0.20    7.2    0.00000    0.00000    0.00000   0.00000  0.00000  0.00000  0.00000  0.00000  0.00000
2018/08/30 02:03:07.900   35.891147812  139.570046977    46.0999   1  19   0.0041   0.0038   0.0139   0.0020  -0.0032   0.0024  -0.10    8.1    0.00000    0.00000    0.00000   0.00000  0.00000  0.00000  0.00000  0.00000  0.00000
2018/08/30 02:03:08.000   35.891147812  139.570046992    46.0932   1  19   0.0039   0.0035   0.0134   0.0017  -0.0026   0.0028   0.00    8.3    0.00000    0.00000    0.00000   0.00000  0.00000  0.00000  0.00000  0.00000  0.00000
2018/08/30 02:03:08.100   35.891147818  139.570046988    46.0986   1  19   0.0040   0.0036   0.0136   0.0018  -0.0026   0.0028  -0.90    7.8    0.00000    0.00000    0.00000   0.00000  0.00000  0.00000  0.00000  0.00000  0.00000
2018/08/30 02:03:08.200   35.891147801  139.570046974    46.0932   1  19   0.0040   0.0036   0.0136   0.0018  -0.0026   0.0028  -0.80   10.5    0.00000    0.00000    0.00000   0.00000  0.00000  0.00000  0.00000  0.00000  0.00000
2018/08/30 02:03:08.300   35.891147809  139.570046983    46.0944   1  19   0.0040   0.0036   0.0135   0.0018  -0.0026   0.0028  -0.70    9.7    0.00000    0.00000    0.00000   0.00000  0.00000  0.00000  0.00000  0.00000  0.00000
2018/08/30 02:03:08.400   35.891147802  139.570046969    46.1012   1  19   0.0040   0.0038   0.0138   0.0020  -0.0031   0.0024  -0.60    7.3    0.00000    0.00000    0.00000   0.00000  0.00000  0.00000  0.00000  0.00000  0.00000
2018/08/30 02:03:08.500   35.891147803  139.570046988    46.0922   1  19   0.0040   0.0038   0.0137   0.0020  -0.0031   0.0024  -0.50    8.7    0.00000    0.00000    0.00000   0.00000  0.00000  0.00000  0.00000  0.00000  0.00000
2018/08/30 02:03:08.600   35.891147815  139.570046980    46.0895   1  19   0.0040   0.0038   0.0138   0.0020  -0.0031   0.0024  -0.40    9.5    0.00000    0.00000    0.00000   0.00000  0.00000  0.00000  0.00000  0.00000  0.00000
2018/08/30 02:03:08.700   35.891147807  139.570046974    46.0914   1  19   0.0040   0.0038   0.0138   0.0020  -0.0032   0.0024  -0.30    7.8    0.00000    0.00000    0.00000   0.00000  0.00000  0.00000  0.00000  0.00000  0.00000
2018/08/30 02:03:08.800   35.891147808  139.570046996    46.0928   1  19   0.0041   0.0038   0.0138   0.0020  -0.0032   0.0024  -0.20    8.1    0.00000    0.00000    0.00000   0.00000  0.00000  0.00000  0.00000  0.00000  0.00000
2018/08/30 02:03:08.900   35.891147793  139.570046981    46.0962   1  19   0.0041   0.0038   0.0139   0.0020  -0.0032   0.0024  -0.10    9.1    0.00000    0.00000    0.00000   0.00000  0.00000  0.00000  0.00000  0.00000  0.00000
2018/08/30 02:03:09.000   35.891147810  139.570046990    46.0943   1  19   0.0039   0.0035   0.0134   0.0017  -0.0026   0.0028   0.00    9.6    0.00000    0.00000    0.00000   0.00000  0.00000  0.00000  0.00000  0.00000  0.00000
2018/08/30 02:03:09.100   35.891147771  139.570046982    46.0971   1  19   0.0040   0.0036   0.0136   0.0018  -0.0026   0.0028  -0.90    7.3    0.00000    0.00000    0.00000   0.00000  0.00000  0.00000  0.00000  0.00000  0.00000
2018/08/30 02:03:09.200   35.891147832  139.570046999    46.0962   1  19   0.0041   0.0038   0.0138   0.0020  -0.0032   0.0024  -0.80    8.5    0.00000    0.00000    0.00000   0.00000  0.00000  0.00000  0.00000  0.00000  0.00000
2018/08/30 02:03:09.300   35.891147816  139.570046997    46.0959   1  19   0.0040   0.0038   0.0138   0.0020  -0.0032   0.0024  -0.70   10.3    0.00000    0.00000    0.00000   0.00000  0.00000  0.00000  0.00000  0.00000  0.00000
2018/08/30 02:03:09.400   35.891147815  139.570046979    46.0957   1  19   0.0040   0.0038   0.0137   0.0020  -0.0032   0.0024  -0.60    8.6    0.00000    0.00000    0.00000   0.00000  0.00000  0.00000  0.00000  0.00000  0.00000
2018/08/30 02:03:09.500   35.891147832  139.570047000    46.0915   1  19   0.0039   0.0035   0.0135   0.0017  -0.0026   0.0028  -0.50    8.7    0.00000    0.00000    0.00000   0.00000  0.00000  0.00000  0.00000  0.00000  0.00000
2018/08/30 02:03:09.600   35.891147799  139.570046989    46.1003   1  19   0.0039   0.0035   0.0135   0.0017  -0.0026   0.0028  -0.40    8.1    0.00000    0.00000    0.00000   0.00000  0.00000  0.00000  0.00000  0.00000  0.00000
2018/08/30 02:03:09.700   35.891147805  139.570046983    46.0978   1  19   0.0040   0.0038   0.0138   0.0020  -0.0031   0.0024  -0.30    7.1    0.00000    0.00000    0.00000   0.00000  0.00000  0.00000  0.00000  0.00000  0.00000
2018/08/30 02:03:09.800   35.891147814  139.570046992    46.1010   1  19   0.0041   0.0038   0.0138   0.0020  -0.0032   0.0024  -0.20    7.1    0.00000    0.00000    0.00000   0.00000  0.00000  0.00000  0.00000  0.00000  0.00000
2018/08/30 02:03:09.900   35.891147831  139.570046985    46.1016   1  19   0.0040   0.0035   0.0136   0.0017  -0.0027   0.0028  -0.10    7.0    0.00000    0.00000    0.00000   0.00000  0.00000  0.00000  0.00000  0.00000  0.00000
2018/08/30 02:03:10.000   35.891147835  139.570046975    46.0997   1  19   0.0039   0.0035   0.0134   0.0017  -0.0026   0.0028   0.00    9.2    0.00000    0.00000    0.00000   0.00000  0.00000  0.00000  0.00000  0.00000  0.00000
2018/08/30 02:03:10.100   35.891147817  139.570046986    46.0973   1  19   0.0040   0.0035   0.0136   0.0017  -0.0027   0.0028  -0.90    7.7    0.00000    0.00000    0.00000   0.00000  0.00000  0.00000  0.00000  0.00000  0.00000
2018/08/30 02:03:10.200   35.891147832  139.570046985    46.0989   1  19   0.0040   0.0035   0.0136   0.0017  -0.0026   0.0028  -0.80    7.2    0.00000    0.00000    0.00000   0.00000  0.00000  0.00000  0.00000  0.00000  0.00000
2018/08/30 02:03:10.300   35.891147817  139.570046997    46.0946   1  19   0.0040   0.0035   0.0135   0.0017  -0.0026   0.0028  -0.70    8.3    0.00000    0.00000    0.00000   0.00000  0.00000  0.00000  0.00000  0.00000  0.00000
2018/08/30 02:03:10.400   35.891147810  139.570046978    46.0973   1  19   0.0039   0.0035   0.0135   0.0017  -0.0026   0.0028  -0.60    6.7    0.00000    0.00000    0.00000   0.00000  0.00000  0.00000  0.00000  0.00000  0.00000
2018/08/30 02:03:10.500   35.891147842  139.570047012    46.0984   1  19   0.0039   0.0035   0.0135   0.0017  -0.0026   0.0028  -0.50    7.8    0.00000    0.00000    0.00000   0.00000  0.00000  0.00000  0.00000  0.00000  0.00000
2018/08/30 02:03:10.600   35.891147830  139.570046980    46.1002   1  19   0.0040   0.0038   0.0137   0.0020  -0.0032   0.0024  -0.40    6.7    0.00000    0.00000    0.00000   0.00000  0.00000  0.00000  0.00000  0.00000  0.00000
2018/08/30 02:03:10.700   35.891147815  139.570046975    46.0879   1  19   0.0040   0.0035   0.0135   0.0017  -0.0026   0.0028  -0.30    8.9    0.00000    0.00000    0.00000   0.00000  0.00000  0.00000  0.00000  0.00000  0.00000
2018/08/30 02:03:10.800   35.891147815  139.570046980    46.0978   1  19   0.0040   0.0035   0.0136   0.0017  -0.0026   0.0028  -0.20    8.3    0.00000    0.00000    0.00000   0.00000  0.00000  0.00000  0.00000  0.00000  0.00000
2018/08/30 02:03:10.900   35.891147822  139.570046985    46.0970   1  19   0.0041   0.0038   0.0138   0.0020  -0.0033   0.0023  -0.10    8.5    0.00000    0.00000    0.00000   0.00000  0.00000  0.00000  0.00000  0.00000  0.00000
2018/08/30 02:03:11.000   35.891147806  139.570046960    46.1018   1  19   0.0040   0.0038   0.0137   0.0020  -0.0031   0.0024   0.00    8.1    0.00000    0.00000    0.00000   0.00000  0.00000  0.00000  0.00000  0.00000  0.00000
2018/08/30 02:03:11.100   35.891147818  139.570046977    46.0941   1  19   0.0041   0.0038   0.0139   0.0020  -0.0032   0.0024  -0.90    7.9    0.00000    0.00000    0.00000   0.00000  0.00000  0.00000  0.00000  0.00000  0.00000
2018/08/30 02:03:11.200   35.891147822  139.570046974    46.0928   1  19   0.0040   0.0036   0.0136   0.0018  -0.0026   0.0028  -0.80    7.2    0.00000    0.00000    0.00000   0.00000  0.00000  0.00000  0.00000  0.00000  0.00000
2018/08/30 02:03:11.300   35.891147830  139.570046981    46.0919   1  19   0.0040   0.0038   0.0138   0.0020  -0.0031   0.0024  -0.70    9.1    0.00000    0.00000    0.00000   0.00000  0.00000  0.00000  0.00000  0.00000  0.00000
2018/08/30 02:03:11.400   35.891147819  139.570046970    46.0958   1  19   0.0040   0.0038   0.0137   0.0020  -0.0032   0.0024  -0.60    7.1    0.00000    0.00000    0.00000   0.00000  0.00000  0.00000  0.00000  0.00000  0.00000
2018/08/30 02:03:11.500   35.891147818  139.570046981    46.0903   1  19   0.0039   0.0036   0.0135   0.0018  -0.0026   0.0028  -0.50    8.9    0.00000    0.00000    0.00000   0.00000  0.00000  0.00000  0.00000  0.00000  0.00000
2018/08/30 02:03:11.600   35.891147821  139.570046981    46.0948   1  19   0.0040   0.0038   0.0137   0.0020  -0.0032   0.0024  -0.40    9.2    0.00000    0.00000    0.00000   0.00000  0.00000  0.00000  0.00000  0.00000  0.00000
2018/08/30 02:03:11.700   35.891147813  139.570046983    46.0878   1  19   0.0040   0.0035   0.0135   0.0017  -0.0026   0.0028  -0.30    8.5    0.00000    0.00000    0.00000   0.00000  0.00000  0.00000  0.00000  0.00000  0.00000
2018/08/30 02:03:11.800   35.891147825  139.570046989    46.0898   1  19   0.0040   0.0035   0.0136   0.0017  -0.0026   0.0028  -0.20    7.3    0.00000    0.00000    0.00000   0.00000  0.00000  0.00000  0.00000  0.00000  0.00000
2018/08/30 02:03:11.900   35.891147803  139.570046965    46.0921   1  19   0.0040   0.0035   0.0136   0.0017  -0.0027   0.0028  -0.10    6.9    0.00000    0.00000    0.00000   0.00000  0.00000  0.00000  0.00000  0.00000  0.00000
2018/08/30 02:03:12.000   35.891147814  139.570046982    46.0929   1  19   0.0039   0.0035   0.0134   0.0017  -0.0026   0.0028   0.00    7.5    0.00000    0.00000    0.00000   0.00000  0.00000  0.00000  0.00000  0.00000  0.00000
2018/08/30 02:03:12.100   35.891147826  139.570046972    46.0924   1  19   0.0040   0.0035   0.0136   0.0017  -0.0027   0.0028  -0.90    7.7    0.00000    0.00000    0.00000   0.00000  0.00000  0.00000  0.00000  0.00000  0.00000
2018/08/30 02:03:12.200   35.891147817  139.570046985    46.0875   1  19   0.0040   0.0035   0.0136   0.0017  -0.0026   0.0028  -0.80    7.4    0.00000    0.00000    0.00000   0.00000  0.00000  0.00000  0.00000  0.00000  0.00000
2018/08/30 02:03:12.300   35.891147819  139.570046970    46.0910   1  19   0.0040   0.0035   0.0135   0.0017  -0.0026   0.0028  -0.70    7.2    0.00000    0.00000    0.00000   0.00000  0.00000  0.00000  0.00000  0.00000  0.00000
2018/08/30 02:03:12.400   35.891147831  139.570046992    46.0909   1  19   0.0039   0.0035   0.0135   0.0017  -0.0026   0.0028  -0.60    8.6    0.00000    0.00000    0.00000   0.00000  0.00000  0.00000  0.00000  0.00000  0.00000
2018/08/30 02:03:12.500   35.891147819  139.570047008    46.0849   1  19   0.0039   0.0035   0.0135   0.0017  -0.0026   0.0028  -0.50    7.8    0.00000    0.00000    0.00000   0.00000  0.00000  0.00000  0.00000  0.00000  0.00000
2018/08/30 02:03:12.600   35.891147822  139.570047016    46.0837   1  19   0.0040   0.0036   0.0135   0.0018  -0.0026   0.0028  -0.40    7.3    0.00000    0.00000    0.00000   0.00000  0.00000  0.00000  0.00000  0.00000  0.00000
2018/08/30 02:03:12.700   35.891147831  139.570046982    46.0932   1  19   0.0040   0.0035   0.0135   0.0017  -0.0026   0.0028  -0.30    7.8    0.00000    0.00000    0.00000   0.00000  0.00000  0.00000  0.00000  0.00000  0.00000
2018/08/30 02:03:12.800   35.891147805  139.570046996    46.0879   1  19   0.0040   0.0035   0.0136   0.0017  -0.0026   0.0028  -0.20    9.0    0.00000    0.00000    0.00000   0.00000  0.00000  0.00000  0.00000  0.00000  0.00000
2018/08/30 02:03:12.900   35.891147812  139.570046973    46.0919   1  19   0.0040   0.0035   0.0136   0.0017  -0.0027   0.0028  -0.10    7.1    0.00000    0.00000    0.00000   0.00000  0.00000  0.00000  0.00000  0.00000  0.00000
2018/08/30 02:03:13.000   35.891147843  139.570047001    46.0995   1  19   0.0039   0.0035   0.0134   0.0017  -0.0026   0.0028   0.00    7.8    0.00000    0.00000    0.00000   0.00000  0.00000  0.00000  0.00000  0.00000  0.00000
2018/08/30 02:03:13.100   35.891147835  139.570047004    46.0908   1  19   0.0040   0.0036   0.0136   0.0018  -0.0026   0.0028  -0.90    7.9    0.00000    0.00000    0.00000   0.00000  0.00000  0.00000  0.00000  0.00000  0.00000
2018/08/30 02:03:13.200   35.891147823  139.570046986    46.0971   1  19   0.0040   0.0036   0.0136   0.0018  -0.0026   0.0028  -0.80    7.2    0.00000    0.00000    0.00000   0.00000  0.00000  0.00000  0.00000  0.00000  0.00000
2018/08/30 02:03:13.300   35.891147814  139.570046986    46.0937   1  19   0.0040   0.0038   0.0138   0.0020  -0.0032   0.0024  -0.70    8.9    0.00000    0.00000    0.00000   0.00000  0.00000  0.00000  0.00000  0.00000  0.00000
2018/08/30 02:03:13.400   35.891147824  139.570046990    46.0978   1  19   0.0040   0.0038   0.0137   0.0020  -0.0032   0.0024  -0.60    7.8    0.00000    0.00000    0.00000   0.00000  0.00000  0.00000  0.00000  0.00000  0.00000
2018/08/30 02:03:13.500   35.891147831  139.570046984    46.0924   1  19   0.0039   0.0035   0.0135   0.0017  -0.0026   0.0028  -0.50    7.1    0.00000    0.00000    0.00000   0.00000  0.00000  0.00000  0.00000  0.00000  0.00000
2018/08/30 02:03:13.600   35.891147841  139.570047004    46.0884   1  19   0.0040   0.0038   0.0137   0.0020  -0.0032   0.0024  -0.40    6.2    0.00000    0.00000    0.00000   0.00000  0.00000  0.00000  0.00000  0.00000  0.00000
2018/08/30 02:03:13.700   35.891147810  139.570046984    46.0902   1  19   0.0040   0.0035   0.0135   0.0017  -0.0026   0.0028  -0.30    7.6    0.00000    0.00000    0.00000   0.00000  0.00000  0.00000  0.00000  0.00000  0.00000
2018/08/30 02:03:13.800   35.891147805  139.570046970    46.0930   1  19   0.0041   0.0038   0.0138   0.0020  -0.0032   0.0024  -0.20    7.1    0.00000    0.00000    0.00000   0.00000  0.00000  0.00000  0.00000  0.00000  0.00000
2018/08/30 02:03:13.900   35.891154800  139.570052854    45.8683   2  19   1.0901   0.9617   3.6619   0.5644  -0.8535   0.4156  -0.10    1.6    0.00000    0.00000    0.00000   0.00000  0.00000  0.00000  0.00000  0.00000  0.00000
2018/08/30 02:03:14.000   35.891154337  139.570053374    45.4182   2  19   1.0901   0.9617   3.6618   0.5644  -0.8535   0.4156   0.00    0.0    0.00000    0.00000    0.00000   0.00000  0.00000  0.00000  0.00000  0.00000  0.00000
2018/08/30 02:03:14.100   35.891147830  139.570047000    46.1039   1  19   0.0041   0.0038   0.0138   0.0020  -0.0033   0.0023  -0.90    6.6    0.00000    0.00000    0.00000   0.00000  0.00000  0.00000  0.00000  0.00000  0.00000
2018/08/30 02:03:14.200   35.891147841  139.570046993    46.1000   1  19   0.0041   0.0038   0.0138   0.0020  -0.0032   0.0024  -0.80    5.8    0.00000    0.00000    0.00000   0.00000  0.00000  0.00000  0.00000  0.00000  0.00000
2018/08/30 02:03:14.300   35.891147825  139.570046964    46.0952   1  19   0.0040   0.0038   0.0138   0.0020  -0.0032   0.0024  -0.70    8.0    0.00000    0.00000    0.00000   0.00000  0.00000  0.00000  0.00000  0.00000  0.00000
2018/08/30 02:03:14.400   35.891147816  139.570046976    46.0915   1  19   0.0039   0.0035   0.0135   0.0017  -0.0026   0.0028  -0.60    7.9    0.00000    0.00000    0.00000   0.00000  0.00000  0.00000  0.00000  0.00000  0.00000
2018/08/30 02:03:14.500   35.891147829  139.570046988    46.0994   1  19   0.0040   0.0038   0.0137   0.0020  -0.0032   0.0024  -0.50    5.0    0.00000    0.00000    0.00000   0.00000  0.00000  0.00000  0.00000  0.00000  0.00000
2018/08/30 02:03:14.600   35.891147810  139.570046976    46.0961   1  19   0.0040   0.0038   0.0137   0.0020  -0.0032   0.0024  -0.40    7.6    0.00000    0.00000    0.00000   0.00000  0.00000  0.00000  0.00000  0.00000  0.00000
2018/08/30 02:03:14.700   35.891147831  139.570047003    46.0816   1  19   0.0039   0.0035   0.0135   0.0017  -0.0026   0.0028  -0.30    8.3    0.00000    0.00000    0.00000   0.00000  0.00000  0.00000  0.00000  0.00000  0.00000
2018/08/30 02:03:14.800   35.891147842  139.570046976    46.0944   1  19   0.0041   0.0038   0.0138   0.0020  -0.0032   0.0024  -0.20    6.6    0.00000    0.00000    0.00000   0.00000  0.00000  0.00000  0.00000  0.00000  0.00000
2018/08/30 02:03:14.900   35.891147791  139.570046984    46.0878   1  19   0.0041   0.0038   0.0138   0.0020  -0.0033   0.0023  -0.10    8.6    0.00000    0.00000    0.00000   0.00000  0.00000  0.00000  0.00000  0.00000  0.00000
2018/08/30 02:03:15.000   35.891147810  139.570047002    46.0919   1  19   0.0040   0.0038   0.0137   0.0020  -0.0031   0.0024   0.00    9.6    0.00000    0.00000    0.00000   0.00000  0.00000  0.00000  0.00000  0.00000  0.00000
2018/08/30 02:03:15.100   35.891147818  139.570046979    46.0962   1  19   0.0041   0.0038   0.0139   0.0020  -0.0032   0.0024  -0.90    8.6    0.00000    0.00000    0.00000   0.00000  0.00000  0.00000  0.00000  0.00000  0.00000
2018/08/30 02:03:15.200   35.891147826  139.570046999    46.0984   1  19   0.0041   0.0038   0.0138   0.0020  -0.0032   0.0024  -0.80    7.9    0.00000    0.00000    0.00000   0.00000  0.00000  0.00000  0.00000  0.00000  0.00000
2018/08/30 02:03:15.300   35.891147830  139.570047003    46.0921   1  19   0.0040   0.0038   0.0138   0.0020  -0.0032   0.0024  -0.70    7.3    0.00000    0.00000    0.00000   0.00000  0.00000  0.00000  0.00000  0.00000  0.00000
2018/08/30 02:03:15.400   35.891147803  139.570046987    46.1000   1  19   0.0040   0.0038   0.0137   0.0020  -0.0032   0.0024  -0.60    7.9    0.00000    0.00000    0.00000   0.00000  0.00000  0.00000  0.00000  0.00000  0.00000
2018/08/30 02:03:15.500   35.891147833  139.570046996    46.0995   1  19   0.0040   0.0038   0.0137   0.0020  -0.0032   0.0024  -0.50    7.2    0.00000    0.00000    0.00000   0.00000  0.00000  0.00000  0.00000  0.00000  0.00000
2018/08/30 02:03:15.600   35.891147821  139.570046973    46.0998   1  19   0.0040   0.0038   0.0138   0.0020  -0.0031   0.0024  -0.40    9.0    0.00000    0.00000    0.00000   0.00000  0.00000  0.00000  0.00000  0.00000  0.00000
2018/08/30 02:03:15.700   35.891147818  139.570046983    46.1013   1  19   0.0040   0.0038   0.0138   0.0020  -0.0031   0.0024  -0.30    7.5    0.00000    0.00000    0.00000   0.00000  0.00000  0.00000  0.00000  0.00000  0.00000
2018/08/30 02:03:15.800   35.891147792  139.570046949    46.0998   1  19   0.0041   0.0038   0.0138   0.0020  -0.0031   0.0024  -0.20    6.5    0.00000    0.00000    0.00000   0.00000  0.00000  0.00000  0.00000  0.00000  0.00000
2018/08/30 02:03:15.900   35.891147821  139.570046976    46.0970   1  19   0.0041   0.0038   0.0139   0.0020  -0.0032   0.0024  -0.10    7.7    0.00000    0.00000    0.00000   0.00000  0.00000  0.00000  0.00000  0.00000  0.00000
2018/08/30 02:03:16.000   35.891147815  139.570046971    46.0932   1  19   0.0040   0.0037   0.0136   0.0020  -0.0032   0.0024   0.00    8.0    0.00000    0.00000    0.00000   0.00000  0.00000  0.00000  0.00000  0.00000  0.00000
2018/08/30 02:03:16.100   35.891147819  139.570046978    46.0930   1  19   0.0040   0.0035   0.0136   0.0017  -0.0027   0.0028  -0.90    8.0    0.00000    0.00000    0.00000   0.00000  0.00000  0.00000  0.00000  0.00000  0.00000
2018/08/30 02:03:16.200   35.891147820  139.570046977    46.0971   1  19   0.0040   0.0036   0.0136   0.0018  -0.0026   0.0028  -0.80    8.0    0.00000    0.00000    0.00000   0.00000  0.00000  0.00000  0.00000  0.00000  0.00000
2018/08/30 02:03:16.300   35.891147822  139.570046972    46.0927   1  19   0.0039   0.0035   0.0135   0.0017  -0.0026   0.0028  -0.70    7.9    0.00000    0.00000    0.00000   0.00000  0.00000  0.00000  0.00000  0.00000  0.00000
2018/08/30 02:03:16.400   35.891147827  139.570046965    46.0961   1  19   0.0040   0.0038   0.0137   0.0020  -0.0032   0.0024  -0.60    8.2    0.00000    0.00000    0.00000   0.00000  0.00000  0.00000  0.00000  0.00000  0.00000
2018/08/30 02:03:16.500   35.891147832  139.570046976    46.0928   1  19   0.0039   0.0035   0.0135   0.0017  -0.0026   0.0028  -0.50    7.9    0.00000    0.00000    0.00000   0.00000  0.00000  0.00000  0.00000  0.00000  0.00000
2018/08/30 02:03:16.600   35.891147811  139.570046968    46.0958   1  19   0.0040   0.0038   0.0138   0.0020  -0.0031   0.0024  -0.40   10.5    0.00000    0.00000    0.00000   0.00000  0.00000  0.00000  0.00000  0.00000  0.00000
2018/08/30 02:03:16.700   35.891147824  139.570046969    46.0962   1  19   0.0040   0.0036   0.0135   0.0018  -0.0026   0.0028  -0.30    6.4    0.00000    0.00000    0.00000   0.00000  0.00000  0.00000  0.00000  0.00000  0.00000
2018/08/30 02:03:16.800   35.891147821  139.570046967    46.0964   1  19   0.0041   0.0038   0.0138   0.0020  -0.0031   0.0024  -0.20    8.7    0.00000    0.00000    0.00000   0.00000  0.00000  0.00000  0.00000  0.00000  0.00000
2018/08/30 02:03:16.900   35.891147809  139.570046987    46.0899   1  19   0.0040   0.0036   0.0136   0.0018  -0.0026   0.0028  -0.10    8.4    0.00000    0.00000    0.00000   0.00000  0.00000  0.00000  0.00000  0.00000  0.00000
2018/08/30 02:03:17.000   35.891147799  139.570046958    46.0943   1  19   0.0040   0.0037   0.0136   0.0020  -0.0032   0.0024   0.00    9.5    0.00000    0.00000    0.00000   0.00000  0.00000  0.00000  0.00000  0.00000  0.00000
2018/08/30 02:03:17.100   35.891147801  139.570046976    46.0922   1  19   0.0041   0.0038   0.0138   0.0020  -0.0032   0.0023  -0.90    8.9    0.00000    0.00000    0.00000   0.00000  0.00000  0.00000  0.00000  0.00000  0.00000
2018/08/30 02:03:17.200   35.891147821  139.570046982    46.0934   1  19   0.0041   0.0038   0.0138   0.0020  -0.0032   0.0024  -0.80    8.5    0.00000    0.00000    0.00000   0.00000  0.00000  0.00000  0.00000  0.00000  0.00000
2018/08/30 02:03:17.300   35.891147809  139.570046964    46.0925   1  19   0.0040   0.0038   0.0138   0.0020  -0.0032   0.0024  -0.70    7.4    0.00000    0.00000    0.00000   0.00000  0.00000  0.00000  0.00000  0.00000  0.00000
2018/08/30 02:03:17.400   35.891147815  139.570046946    46.0891   1  19   0.0039   0.0035   0.0135   0.0017  -0.0026   0.0028  -0.60    7.3    0.00000    0.00000    0.00000   0.00000  0.00000  0.00000  0.00000  0.00000  0.00000
2018/08/30 02:03:17.500   35.891147800  139.570046973    46.0780   1  19   0.0040   0.0038   0.0137   0.0020  -0.0032   0.0024  -0.50    5.6    0.00000    0.00000    0.00000   0.00000  0.00000  0.00000  0.00000  0.00000  0.00000
2018/08/30 02:03:17.600   35.891147799  139.570046988    46.0888   1  19   0.0040   0.0038   0.0138   0.0020  -0.0031   0.0024  -0.40    8.0    0.00000    0.00000    0.00000   0.00000  0.00000  0.00000  0.00000  0.00000  0.00000
2018/08/30 02:03:17.700   35.891147815  139.570046956    46.0931   1  19   0.0040   0.0036   0.0135   0.0018  -0.0026   0.0028  -0.30    6.0    0.00000    0.00000    0.00000   0.00000  0.00000  0.00000  0.00000  0.00000  0.00000
2018/08/30 02:03:17.800   35.891147809  139.570046967    46.0885   1  19   0.0041   0.0038   0.0138   0.0020  -0.0031   0.0024  -0.20    7.7    0.00000    0.00000    0.00000   0.00000  0.00000  0.00000  0.00000  0.00000  0.00000
2018/08/30 02:03:17.900   35.891147812  139.570046976    46.0886   1  19   0.0040   0.0036   0.0136   0.0018  -0.0026   0.0028  -0.10    7.1    0.00000    0.00000    0.00000   0.00000  0.00000  0.00000  0.00000  0.00000  0.00000
2018/08/30 02:03:18.000   35.891147794  139.570046982    46.0990   1  19   0.0040   0.0038   0.0137   0.0020  -0.0031   0.0024   0.00    7.1    0.00000    0.00000    0.00000   0.00000  0.00000  0.00000  0.00000  0.00000  0.00000
2018/08/30 02:03:18.100   35.891147800  139.570046964    46.0916   1  19   0.0041   0.0038   0.0139   0.0020  -0.0032   0.0024  -0.90    6.4    0.00000    0.00000    0.00000   0.00000  0.00000  0.00000  0.00000  0.00000  0.00000
2018/08/30 02:03:18.200   35.891147834  139.570046964    46.0909   1  19   0.0041   0.0038   0.0138   0.0020  -0.0031   0.0024  -0.80    7.2    0.00000    0.00000    0.00000   0.00000  0.00000  0.00000  0.00000  0.00000  0.00000
2018/08/30 02:03:18.300   35.891147813  139.570046971    46.0941   1  18   0.0041   0.0038   0.0141   0.0021  -0.0029   0.0028  -0.70   11.7    0.00000    0.00000    0.00000   0.00000  0.00000  0.00000  0.00000  0.00000  0.00000
2018/08/30 02:03:18.400   35.891147810  139.570046982    46.0980   1  19   0.0040   0.0038   0.0138   0.0020  -0.0031   0.0024  -0.60    6.7    0.00000    0.00000    0.00000   0.00000  0.00000  0.00000  0.00000  0.00000  0.00000
2018/08/30 02:03:18.500   35.891147807  139.570046993    46.0911   1  19   0.0040   0.0038   0.0137   0.0020  -0.0031   0.0024  -0.50    7.2    0.00000    0.00000    0.00000   0.00000  0.00000  0.00000  0.00000  0.00000  0.00000
2018/08/30 02:03:18.600   35.891147815  139.570046972    46.0873   1  19   0.0040   0.0038   0.0138   0.0020  -0.0031   0.0024  -0.40    6.3    0.00000    0.00000    0.00000   0.00000  0.00000  0.00000  0.00000  0.00000  0.00000
2018/08/30 02:03:18.700   35.891147829  139.570046976    46.0881   1  19   0.0040   0.0038   0.0138   0.0020  -0.0031   0.0024  -0.30    7.6    0.00000    0.00000    0.00000   0.00000  0.00000  0.00000  0.00000  0.00000  0.00000
2018/08/30 02:03:18.800   35.891147792  139.570046978    46.0951   1  19   0.0041   0.0038   0.0138   0.0020  -0.0031   0.0024  -0.20    8.0    0.00000    0.00000    0.00000   0.00000  0.00000  0.00000  0.00000  0.00000  0.00000
2018/08/30 02:03:18.900   35.891147810  139.570046989    46.0934   1  19   0.0041   0.0038   0.0139   0.0020  -0.0032   0.0024  -0.10    7.2    0.00000    0.00000    0.00000   0.00000  0.00000  0.00000  0.00000  0.00000  0.00000
2018/08/30 02:03:19.000   35.891147818  139.570046968    46.1001   1  19   0.0040   0.0038   0.0137   0.0020  -0.0031   0.0024   0.00    6.9    0.00000    0.00000    0.00000   0.00000  0.00000  0.00000  0.00000  0.00000  0.00000
2018/08/30 02:03:19.100   35.891147825  139.570046984    46.0894   1  19   0.0041   0.0038   0.0139   0.0020  -0.0032   0.0024  -0.90    6.1    0.00000    0.00000    0.00000   0.00000  0.00000  0.00000  0.00000  0.00000  0.00000
2018/08/30 02:03:19.200   35.891147818  139.570046962    46.0943   1  19   0.0041   0.0038   0.0138   0.0020  -0.0031   0.0024  -0.80    7.0    0.00000    0.00000    0.00000   0.00000  0.00000  0.00000  0.00000  0.00000  0.00000
2018/08/30 02:03:19.300   35.891147829  139.570046994    46.0916   1  19   0.0040   0.0038   0.0138   0.0020  -0.0031   0.0024  -0.70    9.0    0.00000    0.00000    0.00000   0.00000  0.00000  0.00000  0.00000  0.00000  0.00000
2018/08/30 02:03:19.400   35.891147814  139.570046984    46.0912   1  19   0.0040   0.0038   0.0138   0.0020  -0.0031   0.0024  -0.60    6.8    0.00000    0.00000    0.00000   0.00000  0.00000  0.00000  0.00000  0.00000  0.00000
2018/08/30 02:03:19.500   35.891147830  139.570046986    46.0897   1  19   0.0040   0.0038   0.0137   0.0020  -0.0031   0.0024  -0.50    7.3    0.00000    0.00000    0.00000   0.00000  0.00000  0.00000  0.00000  0.00000  0.00000
2018/08/30 02:03:19.600   35.891147821  139.570046989    46.0965   1  19   0.0040   0.0038   0.0137   0.0020  -0.0032   0.0024  -0.40    8.2    0.00000    0.00000    0.00000   0.00000  0.00000  0.00000  0.00000  0.00000  0.00000
2018/08/30 02:03:19.700   35.891147806  139.570046989    46.0902   1  19   0.0040   0.0038   0.0138   0.0020  -0.0032   0.0024  -0.30    8.9    0.00000    0.00000    0.00000   0.00000  0.00000  0.00000  0.00000  0.00000  0.00000
2018/08/30 02:03:19.800   35.891147823  139.570046982    46.0953   1  19   0.0041   0.0038   0.0138   0.0020  -0.0031   0.0024  -0.20    7.7    0.00000    0.00000    0.00000   0.00000  0.00000  0.00000  0.00000  0.00000  0.00000
2018/08/30 02:03:19.900   35.891147834  139.570046977    46.0926   1  19   0.0041   0.0038   0.0138   0.0020  -0.0032   0.0023  -0.10    7.8    0.00000    0.00000    0.00000   0.00000  0.00000  0.00000  0.00000  0.00000  0.00000
2018/08/30 02:03:20.000   35.891147838  139.570046975    46.0939   1  19   0.0040   0.0038   0.0137   0.0020  -0.0031   0.0024   0.00    6.5    0.00000    0.00000    0.00000   0.00000  0.00000  0.00000  0.00000  0.00000  0.00000
2018/08/30 02:03:20.100   35.891147804  139.570046970    46.0857   1  19   0.0041   0.0038   0.0138   0.0020  -0.0032   0.0023  -0.90    6.8    0.00000    0.00000    0.00000   0.00000  0.00000  0.00000  0.00000  0.00000  0.00000
2018/08/30 02:03:20.200   35.891147813  139.570046983    46.0950   1  19   0.0041   0.0038   0.0138   0.0020  -0.0032   0.0024  -0.80    8.9    0.00000    0.00000    0.00000   0.00000  0.00000  0.00000  0.00000  0.00000  0.00000
2018/08/30 02:03:20.300   35.891147802  139.570046982    46.0915   1  19   0.0040   0.0038   0.0138   0.0020  -0.0032   0.0024  -0.70    8.0    0.00000    0.00000    0.00000   0.00000  0.00000  0.00000  0.00000  0.00000  0.00000
2018/08/30 02:03:20.400   35.891147821  139.570046981    46.0967   1  19   0.0040   0.0038   0.0137   0.0020  -0.0032   0.0024  -0.60    7.5    0.00000    0.00000    0.00000   0.00000  0.00000  0.00000  0.00000  0.00000  0.00000
2018/08/30 02:03:20.500   35.891147815  139.570046982    46.0929   1  19   0.0040   0.0038   0.0137   0.0020  -0.0032   0.0024  -0.50    8.1    0.00000    0.00000    0.00000   0.00000  0.00000  0.00000  0.00000  0.00000  0.00000
2018/08/30 02:03:20.600   35.891147801  139.570046984    46.0902   1  19   0.0040   0.0038   0.0137   0.0020  -0.0032   0.0024  -0.40    7.0    0.00000    0.00000    0.00000   0.00000  0.00000  0.00000  0.00000  0.00000  0.00000
2018/08/30 02:03:20.700   35.891147810  139.570046962    46.0909   1  19   0.0040   0.0038   0.0138   0.0020  -0.0031   0.0024  -0.30    6.3    0.00000    0.00000    0.00000   0.00000  0.00000  0.00000  0.00000  0.00000  0.00000
2018/08/30 02:03:20.800   35.891147812  139.570046975    46.0868   1  19   0.0041   0.0038   0.0138   0.0020  -0.0031   0.0024  -0.20    8.0    0.00000    0.00000    0.00000   0.00000  0.00000  0.00000  0.00000  0.00000  0.00000
2018/08/30 02:03:20.900   35.891147776  139.570046980    46.0888   1  19   0.0041   0.0038   0.0139   0.0020  -0.0032   0.0024  -0.10    7.1    0.00000    0.00000    0.00000   0.00000  0.00000  0.00000  0.00000  0.00000  0.00000
2018/08/30 02:03:21.000   35.891147822  139.570046989    46.0936   1  19   0.0040   0.0038   0.0137   0.0020  -0.0031   0.0024   0.00    6.7    0.00000    0.00000    0.00000   0.00000  0.00000  0.00000  0.00000  0.00000  0.00000
2018/08/30 02:03:21.100   35.891147812  139.570046979    46.0854   1  19   0.0041   0.0038   0.0139   0.0020  -0.0032   0.0024  -0.90    7.0    0.00000    0.00000    0.00000   0.00000  0.00000  0.00000  0.00000  0.00000  0.00000
2018/08/30 02:03:21.200   35.891147802  139.570046975    46.0959   1  19   0.0041   0.0038   0.0138   0.0020  -0.0031   0.0024  -0.80    7.4    0.00000    0.00000    0.00000   0.00000  0.00000  0.00000  0.00000  0.00000  0.00000
2018/08/30 02:03:21.300   35.891147818  139.570046986    46.0904   1  19   0.0040   0.0038   0.0138   0.0020  -0.0031   0.0024  -0.70    8.6    0.00000    0.00000    0.00000   0.00000  0.00000  0.00000  0.00000  0.00000  0.00000
2018/08/30 02:03:21.400   35.891147799  139.570046970    46.0894   1  19   0.0040   0.0038   0.0138   0.0020  -0.0031   0.0024  -0.60    5.9    0.00000    0.00000    0.00000   0.00000  0.00000  0.00000  0.00000  0.00000  0.00000
2018/08/30 02:03:21.500   35.891147845  139.570046938    46.0911   1  19   0.0040   0.0038   0.0137   0.0020  -0.0031   0.0024  -0.50    5.2    0.00000    0.00000    0.00000   0.00000  0.00000  0.00000  0.00000  0.00000  0.00000
2018/08/30 02:03:21.600   35.891147803  139.570046969    46.0930   1  19   0.0040   0.0038   0.0138   0.0020  -0.0031   0.0024  -0.40    7.2    0.00000    0.00000    0.00000   0.00000  0.00000  0.00000  0.00000  0.00000  0.00000
2018/08/30 02:03:21.700   35.891147806  139.570046993    46.0959   1  19   0.0040   0.0038   0.0138   0.0020  -0.0032   0.0024  -0.30    7.0    0.00000    0.00000    0.00000   0.00000  0.00000  0.00000  0.00000  0.00000  0.00000
2018/08/30 02:03:21.800   35.891147766  139.570046962    46.1118   1  19   0.0041   0.0038   0.0138   0.0020  -0.0032   0.0024  -0.20    4.7    0.00000    0.00000    0.00000   0.00000  0.00000  0.00000  0.00000  0.00000  0.00000
2018/08/30 02:03:21.900   35.891147807  139.570046980    46.0960   1  19   0.0041   0.0038   0.0139   0.0020  -0.0032   0.0024  -0.10    7.3    0.00000    0.00000    0.00000   0.00000  0.00000  0.00000  0.00000  0.00000  0.00000
2018/08/30 02:03:22.000   35.891147817  139.570046970    46.1035   1  19   0.0041   0.0039   0.0137   0.0023  -0.0033   0.0022   0.00    5.6    0.00000    0.00000    0.00000   0.00000  0.00000  0.00000  0.00000  0.00000  0.00000
2018/08/30 02:03:22.100   35.891147829  139.570046982    46.0957   1  19   0.0041   0.0038   0.0139   0.0020  -0.0032   0.0024  -0.90    5.0    0.00000    0.00000    0.00000   0.00000  0.00000  0.00000  0.00000  0.00000  0.00000
2018/08/30 02:03:22.200   35.891147791  139.570046989    46.1031   1  19   0.0041   0.0038   0.0138   0.0020  -0.0031   0.0024  -0.80    5.8    0.00000    0.00000    0.00000   0.00000  0.00000  0.00000  0.00000  0.00000  0.00000
2018/08/30 02:03:22.300   35.891147807  139.570046971    46.0922   1  19   0.0040   0.0038   0.0138   0.0020  -0.0031   0.0024  -0.70    5.6    0.00000    0.00000    0.00000   0.00000  0.00000  0.00000  0.00000  0.00000  0.00000
2018/08/30 02:03:22.400   35.891147822  139.570046997    46.0936   1  19   0.0040   0.0038   0.0138   0.0020  -0.0031   0.0024  -0.60    7.5    0.00000    0.00000    0.00000   0.00000  0.00000  0.00000  0.00000  0.00000  0.00000
2018/08/30 02:03:22.500   35.891147819  139.570046973    46.0940   1  19   0.0040   0.0038   0.0137   0.0020  -0.0031   0.0024  -0.50    4.4    0.00000    0.00000    0.00000   0.00000  0.00000  0.00000  0.00000  0.00000  0.00000
2018/08/30 02:03:22.600   35.891147817  139.570046971    46.0914   1  19   0.0040   0.0038   0.0138   0.0020  -0.0031   0.0024  -0.40    5.6    0.00000    0.00000    0.00000   0.00000  0.00000  0.00000  0.00000  0.00000  0.00000
2018/08/30 02:03:22.700   35.891147813  139.570046984    46.0925   1  19   0.0040   0.0038   0.0138   0.0020  -0.0031   0.0024  -0.30    6.3    0.00000    0.00000    0.00000   0.00000  0.00000  0.00000  0.00000  0.00000  0.00000
2018/08/30 02:03:22.800   35.891147820  139.570047008    46.0842   1  19   0.0041   0.0038   0.0138   0.0020  -0.0031   0.0024  -0.20    5.4    0.00000    0.00000    0.00000   0.00000  0.00000  0.00000  0.00000  0.00000  0.00000
2018/08/30 02:03:22.900   35.891147804  139.570046982    46.0933   1  19   0.0041   0.0038   0.0139   0.0020  -0.0032   0.0024  -0.10    6.9    0.00000    0.00000    0.00000   0.00000  0.00000  0.00000  0.00000  0.00000  0.00000
2018/08/30 02:03:23.000   35.891147822  139.570046976    46.0974   1  19   0.0040   0.0038   0.0137   0.0020  -0.0031   0.0024   0.00    5.2    0.00000    0.00000    0.00000   0.00000  0.00000  0.00000  0.00000  0.00000  0.00000
2018/08/30 02:03:23.100   35.891147816  139.570046976    46.0965   1  19   0.0041   0.0038   0.0139   0.0020  -0.0032   0.0024  -0.90    5.5    0.00000    0.00000    0.00000   0.00000  0.00000  0.00000  0.00000  0.00000  0.00000
2018/08/30 02:03:23.200   35.891147829  139.570046993    46.1048   1  19   0.0041   0.0038   0.0138   0.0020  -0.0031   0.0024  -0.80    5.8    0.00000    0.00000    0.00000   0.00000  0.00000  0.00000  0.00000  0.00000  0.00000
2018/08/30 02:03:23.300   35.891147807  139.570046990    46.0943   1  19   0.0040   0.0038   0.0138   0.0020  -0.0031   0.0024  -0.70    5.8    0.00000    0.00000    0.00000   0.00000  0.00000  0.00000  0.00000  0.00000  0.00000
2018/08/30 02:03:23.400   35.891147805  139.570046988    46.0958   1  19   0.0040   0.0036   0.0135   0.0018  -0.0026   0.0028  -0.60    5.4    0.00000    0.00000    0.00000   0.00000  0.00000  0.00000  0.00000  0.00000  0.00000
2018/08/30 02:03:23.500   35.891147832  139.570046978    46.0979   1  19   0.0040   0.0038   0.0137   0.0020  -0.0031   0.0024  -0.50    6.6    0.00000    0.00000    0.00000   0.00000  0.00000  0.00000  0.00000  0.00000  0.00000
2018/08/30 02:03:23.600   35.891147809  139.570046984    46.1056   1  19   0.0040   0.0038   0.0138   0.0020  -0.0031   0.0024  -0.40    7.7    0.00000    0.00000    0.00000   0.00000  0.00000  0.00000  0.00000  0.00000  0.00000
2018/08/30 02:03:23.700   35.891147813  139.570046975    46.0916   1  19   0.0040   0.0038   0.0138   0.0020  -0.0032   0.0024  -0.30    7.2    0.00000    0.00000    0.00000   0.00000  0.00000  0.00000  0.00000  0.00000  0.00000
2018/08/30 02:03:23.800   35.891147821  139.570047000    46.0941   1  19   0.0041   0.0038   0.0138   0.0020  -0.0031   0.0024  -0.20    7.5    0.00000    0.00000    0.00000   0.00000  0.00000  0.00000  0.00000  0.00000  0.00000
2018/08/30 02:03:23.900   35.891147809  139.570046983    46.0948   1  19   0.0041   0.0038   0.0139   0.0020  -0.0032   0.0024  -0.10    7.2    0.00000    0.00000    0.00000   0.00000  0.00000  0.00000  0.00000  0.00000  0.00000
2018/08/30 02:03:24.000   35.891147799  139.570046978    46.0972   1  19   0.0040   0.0038   0.0137   0.0020  -0.0031   0.0024   0.00    5.7    0.00000    0.00000    0.00000   0.00000  0.00000  0.00000  0.00000  0.00000  0.00000
2018/08/30 02:03:24.100   35.891147806  139.570046988    46.0955   1  19   0.0041   0.0038   0.0139   0.0020  -0.0032   0.0024  -0.90    6.7    0.00000    0.00000    0.00000   0.00000  0.00000  0.00000  0.00000  0.00000  0.00000
2018/08/30 02:03:24.200   35.891147821  139.570047006    46.0967   1  19   0.0041   0.0038   0.0138   0.0020  -0.0031   0.0024  -0.80    6.3    0.00000    0.00000    0.00000   0.00000  0.00000  0.00000  0.00000  0.00000  0.00000
2018/08/30 02:03:24.300   35.891147812  139.570046992    46.0968   1  19   0.0040   0.0038   0.0138   0.0020  -0.0032   0.0024  -0.70    6.0    0.00000    0.00000    0.00000   0.00000  0.00000  0.00000  0.00000  0.00000  0.00000
2018/08/30 02:03:24.400   35.891147815  139.570046978    46.0910   1  19   0.0040   0.0038   0.0137   0.0020  -0.0032   0.0024  -0.60    6.4    0.00000    0.00000    0.00000   0.00000  0.00000  0.00000  0.00000  0.00000  0.00000
2018/08/30 02:03:24.500   35.891147800  139.570047008    46.0931   1  19   0.0039   0.0035   0.0135   0.0017  -0.0026   0.0028  -0.50    5.6    0.00000    0.00000    0.00000   0.00000  0.00000  0.00000  0.00000  0.00000  0.00000
2018/08/30 02:03:24.600   35.891147800  139.570046998    46.0966   1  19   0.0039   0.0035   0.0135   0.0017  -0.0026   0.0028  -0.40    6.8    0.00000    0.00000    0.00000   0.00000  0.00000  0.00000  0.00000  0.00000  0.00000
2018/08/30 02:03:24.700   35.891147824  139.570047005    46.0948   1  19   0.0039   0.0035   0.0135   0.0017  -0.0026   0.0028  -0.30    5.8    0.00000    0.00000    0.00000   0.00000  0.00000  0.00000  0.00000  0.00000  0.00000
2018/08/30 02:03:24.800   35.891147828  139.570047020    46.0920   1  19   0.0040   0.0036   0.0136   0.0018  -0.0026   0.0028  -0.20    4.8    0.00000    0.00000    0.00000   0.00000  0.00000  0.00000  0.00000  0.00000  0.00000
2018/08/30 02:03:24.900   35.891147815  139.570047004    46.0960   1  19   0.0040   0.0036   0.0136   0.0018  -0.0026   0.0028  -0.10    6.6    0.00000    0.00000    0.00000   0.00000  0.00000  0.00000  0.00000  0.00000  0.00000
2018/08/30 02:03:25.000   35.891157479  139.570047465    46.6170   2  19   1.0676   0.9278   3.6009   0.5089  -0.7047   0.5769   0.00    1.5    0.00000    0.00000    0.00000   0.00000  0.00000  0.00000  0.00000  0.00000  0.00000
2018/08/30 02:03:25.100   35.891147811  139.570046995    46.0946   1  19   0.0040   0.0036   0.0136   0.0018  -0.0026   0.0028  -0.90    5.7    0.00000    0.00000    0.00000   0.00000  0.00000  0.00000  0.00000  0.00000  0.00000
2018/08/30 02:03:25.200   35.891147828  139.570046997    46.0984   1  19   0.0040   0.0036   0.0136   0.0018  -0.0026   0.0028  -0.80    5.9    0.00000    0.00000    0.00000   0.00000  0.00000  0.00000  0.00000  0.00000  0.00000
2018/08/30 02:03:25.300   35.891147795  139.570046984    46.0885   1  19   0.0039   0.0035   0.0135   0.0017  -0.0026   0.0028  -0.70    6.1    0.00000    0.00000    0.00000   0.00000  0.00000  0.00000  0.00000  0.00000  0.00000
2018/08/30 02:03:25.400   35.891147811  139.570046978    46.0957   1  19   0.0039   0.0035   0.0135   0.0017  -0.0026   0.0028  -0.60    6.3    0.00000    0.00000    0.00000   0.00000  0.00000  0.00000  0.00000  0.00000  0.00000
2018/08/30 02:03:25.500   35.891147815  139.570046974    46.0936   1  19   0.0039   0.0035   0.0135   0.0017  -0.0026   0.0028  -0.50    6.4    0.00000    0.00000    0.00000   0.00000  0.00000  0.00000  0.00000  0.00000  0.00000
