% program   : RTKPOST ver.2.4.3 b34
% inp file  : C:\Users\Taro\Dropbox\github\MatRTKLIB\examples\data\static\rover.obs
% inp file  : C:\Users\Taro\Dropbox\github\MatRTKLIB\examples\data\static\base.obs
% inp file  : C:\Users\Taro\Dropbox\github\MatRTKLIB\examples\data\static\base.nav
% obs start : 2024/06/24 08:20:00.0 GPST (week2320 116400.0s)
% obs end   : 2024/06/24 08:25:00.0 GPST (week2320 116700.0s)
% pos mode  : Kinematic
% freqs     : L1+2
% solution  : Forward
% elev mask : 15.0 deg
% dynamics  : off
% tidecorr  : off
% ionos opt : Broadcast
% tropo opt : Saastamoinen
% ephemeris : Broadcast
% navi sys  : GPS GLONASS Galileo QZSS BDS
% amb res   : Instantaneous
% amb glo   : ON
% val thres : 3.0
% antenna1  :                       ( 0.0000  0.0000  0.0000)
% antenna2  :                       ( 0.0000  0.0000  0.0000)
% ref pos   : 35.134707705  136.977577939   104.8530
%
% (lat/lon/height=WGS84/ellipsoidal,Q=1:fix,2:float,3:sbas,4:dgps,5:single,6:ppp,ns=# of satellites)
%  GPST                  latitude(deg) longitude(deg)  height(m)   Q  ns   sdn(m)   sde(m)   sdu(m)  sdne(m)  sdeu(m)  sdun(m) age(s)  ratio    vn(m/s)    ve(m/s)    vu(m/s)      sdvn     sdve     sdvu    sdvne    sdveu    sdvun
2024/06/24 08:20:00.000   35.134699011  136.977575483   104.8619   1  42   0.0024   0.0024   0.0069   0.0008  -0.0013  -0.0024   0.00   12.0    0.00141   -0.00126   -0.01073   0.05834  0.05764  0.15666  0.01063 -0.03203 -0.04989
2024/06/24 08:20:01.000   35.134699008  136.977575479   104.8634   1  42   0.0024   0.0024   0.0069   0.0008  -0.0013  -0.0024   0.00   12.4   -0.00689   -0.00222   -0.00036   0.05834  0.05764  0.15666  0.01061 -0.03203 -0.04989
2024/06/24 08:20:02.000   35.134699009  136.977575486   104.8635   1  42   0.0024   0.0024   0.0069   0.0008  -0.0013  -0.0024   0.00   10.9   -0.00171   -0.00248   -0.00305   0.05834  0.05763  0.15667  0.01060 -0.03202 -0.04989
2024/06/24 08:20:03.000   35.134699010  136.977575475   104.8630   1  42   0.0024   0.0024   0.0069   0.0008  -0.0013  -0.0024   0.00   10.0   -0.00151   -0.00019    0.00674   0.05834  0.05763  0.15668  0.01059 -0.03201 -0.04990
2024/06/24 08:20:04.000   35.134699004  136.977575480   104.8642   1  42   0.0024   0.0024   0.0069   0.0008  -0.0013  -0.0024   0.00    9.6   -0.00105   -0.00416    0.01034   0.05834  0.05763  0.15668  0.01058 -0.03201 -0.04990
2024/06/24 08:20:05.000   35.134699004  136.977575482   104.8639   1  42   0.0024   0.0024   0.0069   0.0008  -0.0013  -0.0024   0.00   10.2    0.00023    0.00526    0.00177   0.05834  0.05763  0.15669  0.01056 -0.03200 -0.04990
2024/06/24 08:20:06.000   35.134699003  136.977575475   104.8636   1  42   0.0024   0.0024   0.0069   0.0008  -0.0013  -0.0024   0.00   11.3    0.00149    0.00136    0.01000   0.05834  0.05763  0.15669  0.01055 -0.03199 -0.04990
2024/06/24 08:20:07.000   35.134699013  136.977575486   104.8635   1  42   0.0024   0.0024   0.0069   0.0008  -0.0013  -0.0024   0.00   11.0    0.00321    0.00222    0.00057   0.05834  0.05763  0.15670  0.01054 -0.03199 -0.04991
2024/06/24 08:20:08.000   35.134699010  136.977575481   104.8612   1  42   0.0024   0.0024   0.0069   0.0008  -0.0013  -0.0024   0.00   10.3    0.00168   -0.00591   -0.00255   0.05834  0.05763  0.15670  0.01053 -0.03198 -0.04991
2024/06/24 08:20:09.000   35.134699012  136.977575480   104.8620   1  42   0.0024   0.0024   0.0069   0.0008  -0.0013  -0.0024   0.00   10.3    0.00356    0.00012    0.00185   0.05834  0.05763  0.15671  0.01052 -0.03197 -0.04991
2024/06/24 08:20:10.000   35.134699011  136.977575480   104.8624   1  42   0.0024   0.0024   0.0069   0.0008  -0.0013  -0.0024   0.00   12.7   -0.00117    0.00212    0.01027   0.05834  0.05763  0.15671  0.01050 -0.03197 -0.04991
2024/06/24 08:20:11.000   35.134699008  136.977575479   104.8620   1  42   0.0024   0.0024   0.0069   0.0008  -0.0013  -0.0024   0.00   11.1    0.00078   -0.00135   -0.00642   0.05834  0.05763  0.15672  0.01049 -0.03196 -0.04992
2024/06/24 08:20:12.000   35.134699011  136.977575479   104.8622   1  42   0.0024   0.0024   0.0069   0.0008  -0.0013  -0.0024   0.00   13.1    0.00216    0.00299   -0.01014   0.05834  0.05763  0.15672  0.01048 -0.03195 -0.04992
2024/06/24 08:20:13.000   35.134699011  136.977575481   104.8648   1  42   0.0024   0.0024   0.0069   0.0008  -0.0013  -0.0024   0.00   11.1    0.00629   -0.00025   -0.00515   0.05834  0.05762  0.15673  0.01047 -0.03194 -0.04992
2024/06/24 08:20:14.000   35.134699011  136.977575488   104.8654   1  42   0.0024   0.0024   0.0069   0.0008  -0.0013  -0.0024   0.00   12.0    0.00107   -0.00467   -0.00910   0.05835  0.05762  0.15674  0.01046 -0.03194 -0.04992
2024/06/24 08:20:15.000   35.134699008  136.977575480   104.8640   1  42   0.0024   0.0024   0.0069   0.0008  -0.0013  -0.0024   0.00    9.6    0.00039   -0.00239   -0.00391   0.05835  0.05762  0.15674  0.01044 -0.03193 -0.04993
2024/06/24 08:20:16.000   35.134699009  136.977575491   104.8618   1  42   0.0024   0.0024   0.0069   0.0008  -0.0013  -0.0024   0.00   13.8   -0.00480   -0.00009   -0.00026   0.05835  0.05762  0.15675  0.01043 -0.03192 -0.04993
2024/06/24 08:20:17.000   35.134699011  136.977575484   104.8628   1  42   0.0024   0.0024   0.0069   0.0008  -0.0013  -0.0024   0.00   12.7   -0.00416   -0.00279    0.01278   0.05835  0.05762  0.15675  0.01042 -0.03192 -0.04993
2024/06/24 08:20:18.000   35.134699009  136.977575484   104.8630   1  42   0.0024   0.0024   0.0069   0.0008  -0.0013  -0.0024   0.00   12.7    0.00101    0.00291    0.00832   0.05835  0.05762  0.15676  0.01041 -0.03191 -0.04993
2024/06/24 08:20:19.000   35.134699015  136.977575492   104.8624   1  42   0.0024   0.0024   0.0069   0.0008  -0.0013  -0.0024   0.00    9.4    0.00197   -0.00026   -0.00080   0.05835  0.05762  0.15676  0.01039 -0.03190 -0.04994
2024/06/24 08:20:20.000   35.134699006  136.977575485   104.8636   1  42   0.0024   0.0024   0.0069   0.0008  -0.0013  -0.0024   0.00   10.7    0.00312    0.00386   -0.00985   0.05835  0.05762  0.15677  0.01038 -0.03190 -0.04994
2024/06/24 08:20:21.000   35.134699012  136.977575483   104.8617   1  42   0.0024   0.0024   0.0069   0.0008  -0.0013  -0.0024   0.00   11.6   -0.00108    0.00026    0.00037   0.05835  0.05762  0.15677  0.01037 -0.03189 -0.04994
2024/06/24 08:20:22.000   35.134699005  136.977575490   104.8651   1  42   0.0024   0.0024   0.0069   0.0008  -0.0013  -0.0024   0.00   10.9    0.00529   -0.00322   -0.00118   0.05835  0.05762  0.15678  0.01036 -0.03188 -0.04994
2024/06/24 08:20:23.000   35.134699003  136.977575490   104.8655   1  42   0.0024   0.0024   0.0069   0.0008  -0.0013  -0.0024   0.00   10.3    0.00566    0.00414    0.00469   0.05835  0.05762  0.15678  0.01034 -0.03188 -0.04995
2024/06/24 08:20:24.000   35.134699011  136.977575477   104.8631   1  42   0.0024   0.0024   0.0069   0.0008  -0.0013  -0.0024   0.00   10.2    0.00182    0.00234    0.01212   0.05835  0.05761  0.15679  0.01033 -0.03187 -0.04995
2024/06/24 08:20:25.000   35.134699004  136.977575482   104.8655   1  42   0.0024   0.0024   0.0069   0.0008  -0.0013  -0.0024   0.00   11.2    0.00130    0.00638    0.01121   0.05835  0.05761  0.15679  0.01032 -0.03186 -0.04995
2024/06/24 08:20:26.000   35.134699010  136.977575483   104.8655   1  42   0.0024   0.0024   0.0069   0.0008  -0.0013  -0.0024   0.00   10.7   -0.00162    0.00015    0.01223   0.05835  0.05761  0.15680  0.01031 -0.03186 -0.04995
2024/06/24 08:20:27.000   35.134699005  136.977575480   104.8672   1  42   0.0024   0.0024   0.0069   0.0008  -0.0013  -0.0024   0.00   11.0    0.00273    0.00279    0.00485   0.05835  0.05761  0.15680  0.01029 -0.03185 -0.04996
2024/06/24 08:20:28.000   35.134699007  136.977575482   104.8646   1  42   0.0024   0.0024   0.0069   0.0008  -0.0013  -0.0024   0.00    9.3   -0.00212    0.00681    0.01428   0.05835  0.05761  0.15681  0.01028 -0.03184 -0.04996
2024/06/24 08:20:29.000   35.134699004  136.977575490   104.8657   1  42   0.0024   0.0024   0.0069   0.0008  -0.0013  -0.0024   0.00   10.5    0.00496    0.00448    0.00206   0.05835  0.05761  0.15682  0.01027 -0.03183 -0.04996
2024/06/24 08:20:30.000   35.134699005  136.977575481   104.8630   1  42   0.0024   0.0024   0.0069   0.0008  -0.0013  -0.0024   0.00   10.6    0.00208   -0.00631    0.00251   0.05835  0.05761  0.15682  0.01026 -0.03183 -0.04996
2024/06/24 08:20:31.000   35.134699011  136.977575488   104.8637   1  42   0.0024   0.0024   0.0069   0.0008  -0.0013  -0.0024   0.00   10.7    0.00514    0.00099   -0.00354   0.05835  0.05761  0.15683  0.01024 -0.03182 -0.04997
2024/06/24 08:20:32.000   35.134699009  136.977575490   104.8613   1  42   0.0024   0.0024   0.0069   0.0008  -0.0013  -0.0024   0.00   14.0    0.00508   -0.00004    0.00895   0.05836  0.05761  0.15683  0.01023 -0.03181 -0.04997
2024/06/24 08:20:33.000   35.134699007  136.977575485   104.8634   1  42   0.0024   0.0024   0.0069   0.0008  -0.0013  -0.0024   0.00   14.1   -0.00044   -0.00447    0.01613   0.05836  0.05761  0.15684  0.01022 -0.03181 -0.04997
2024/06/24 08:20:34.000   35.134699007  136.977575482   104.8644   1  42   0.0024   0.0024   0.0069   0.0008  -0.0013  -0.0024   0.00   10.2   -0.00099    0.00095   -0.00582   0.05836  0.05761  0.15684  0.01021 -0.03180 -0.04997
2024/06/24 08:20:35.000   35.134699005  136.977575485   104.8644   1  42   0.0024   0.0024   0.0069   0.0008  -0.0013  -0.0024   0.00   11.2    0.00128    0.00599    0.00101   0.05836  0.05760  0.15685  0.01019 -0.03179 -0.04998
2024/06/24 08:20:36.000   35.134699007  136.977575481   104.8642   1  42   0.0024   0.0024   0.0069   0.0008  -0.0013  -0.0024   0.00    9.8   -0.00240   -0.00216    0.01283   0.05836  0.05760  0.15685  0.01018 -0.03179 -0.04998
2024/06/24 08:20:37.000   35.134699013  136.977575483   104.8625   1  42   0.0024   0.0024   0.0069   0.0008  -0.0013  -0.0024   0.00   11.9    0.00292    0.00087    0.00191   0.05836  0.05760  0.15686  0.01017 -0.03178 -0.04998
2024/06/24 08:20:38.000   35.134699011  136.977575483   104.8630   1  42   0.0024   0.0024   0.0069   0.0008  -0.0013  -0.0024   0.00   14.7   -0.00096   -0.00455    0.00724   0.05836  0.05760  0.15686  0.01016 -0.03177 -0.04998
2024/06/24 08:20:39.000   35.134699008  136.977575483   104.8631   1  42   0.0024   0.0024   0.0069   0.0008  -0.0013  -0.0024   0.00   12.7    0.00109    0.00212   -0.00380   0.05836  0.05760  0.15687  0.01014 -0.03176 -0.04998
2024/06/24 08:20:40.000   35.134699007  136.977575490   104.8629   1  42   0.0024   0.0024   0.0069   0.0008  -0.0013  -0.0024   0.00    9.3   -0.00359    0.00123   -0.00434   0.05836  0.05760  0.15687  0.01013 -0.03176 -0.04999
2024/06/24 08:20:41.000   35.134699005  136.977575478   104.8643   1  42   0.0024   0.0024   0.0069   0.0008  -0.0013  -0.0024   0.00   11.3   -0.00109   -0.00394    0.00967   0.05836  0.05760  0.15688  0.01012 -0.03175 -0.04999
2024/06/24 08:20:42.000   35.134699008  136.977575483   104.8618   1  42   0.0024   0.0024   0.0069   0.0008  -0.0013  -0.0024   0.00   11.6   -0.00148   -0.00068   -0.00614   0.05836  0.05760  0.15688  0.01010 -0.03174 -0.04999
2024/06/24 08:20:43.000   35.134699006  136.977575477   104.8642   1  42   0.0024   0.0024   0.0069   0.0008  -0.0013  -0.0024   0.00   11.9   -0.00005   -0.00037    0.00073   0.05836  0.05760  0.15689  0.01009 -0.03174 -0.04999
2024/06/24 08:20:44.000   35.134699010  136.977575488   104.8665   1  42   0.0024   0.0024   0.0069   0.0008  -0.0013  -0.0024   0.00    8.1    0.00377   -0.00284    0.01750   0.05836  0.05760  0.15689  0.01008 -0.03173 -0.05000
2024/06/24 08:20:45.000   35.134699006  136.977575486   104.8627   1  42   0.0024   0.0024   0.0069   0.0008  -0.0013  -0.0024   0.00   11.5   -0.00388    0.00047    0.00084   0.05836  0.05760  0.15690  0.01007 -0.03172 -0.05000
2024/06/24 08:20:46.000   35.134699007  136.977575474   104.8607   1  42   0.0024   0.0024   0.0069   0.0008  -0.0013  -0.0024   0.00   10.2   -0.00469    0.00470   -0.00173   0.05836  0.05759  0.15690  0.01005 -0.03172 -0.05000
2024/06/24 08:20:47.000   35.134699011  136.977575482   104.8625   1  42   0.0024   0.0024   0.0069   0.0008  -0.0013  -0.0024   0.00   12.3    0.00337   -0.00350    0.00136   0.05836  0.05759  0.15691  0.01004 -0.03171 -0.05000
2024/06/24 08:20:48.000   35.134699006  136.977575488   104.8658   1  42   0.0024   0.0024   0.0069   0.0008  -0.0013  -0.0024   0.00    8.2   -0.00100    0.00241    0.02694   0.05836  0.05759  0.15691  0.01003 -0.03170 -0.05001
2024/06/24 08:20:49.000   35.134699016  136.977575482   104.8641   1  42   0.0024   0.0024   0.0069   0.0008  -0.0013  -0.0024   0.00   14.4    0.00274   -0.00084    0.00888   0.05836  0.05759  0.15692  0.01002 -0.03169 -0.05001
2024/06/24 08:20:50.000   35.134699007  136.977575476   104.8638   1  42   0.0024   0.0024   0.0067   0.0008  -0.0015  -0.0024   0.00   10.8    0.00244   -0.00145    0.00954   0.05837  0.05759  0.15692  0.01000 -0.03169 -0.05001
2024/06/24 08:20:51.000   35.134699011  136.977575487   104.8646   1  42   0.0024   0.0024   0.0067   0.0008  -0.0015  -0.0024   0.00    8.7    0.00461    0.00491    0.00008   0.05837  0.05759  0.15693  0.00999 -0.03168 -0.05001
2024/06/24 08:20:52.000   35.134699000  136.977575485   104.8653   1  42   0.0024   0.0024   0.0069   0.0008  -0.0013  -0.0024   0.00    9.6    0.00638   -0.00185    0.01005   0.05837  0.05759  0.15693  0.00998 -0.03167 -0.05002
2024/06/24 08:20:53.000   35.134699010  136.977575480   104.8614   1  42   0.0024   0.0024   0.0067   0.0008  -0.0015  -0.0024   0.00   11.0    0.00020   -0.00443   -0.00330   0.05837  0.05759  0.15694  0.00996 -0.03167 -0.05002
2024/06/24 08:20:54.000   35.134699011  136.977575483   104.8624   1  42   0.0024   0.0024   0.0067   0.0008  -0.0015  -0.0024   0.00   10.5    0.00185   -0.00400    0.00276   0.05837  0.05759  0.15694  0.00995 -0.03166 -0.05002
2024/06/24 08:20:55.000   35.134699016  136.977575485   104.8624   1  42   0.0024   0.0024   0.0067   0.0008  -0.0015  -0.0024   0.00   10.0   -0.00330    0.00106    0.00078   0.05837  0.05759  0.15695  0.00994 -0.03165 -0.05002
2024/06/24 08:20:56.000   35.134699014  136.977575480   104.8628   1  42   0.0024   0.0024   0.0067   0.0008  -0.0015  -0.0024   0.00   10.4   -0.00133    0.00156    0.01205   0.05837  0.05759  0.15695  0.00992 -0.03164 -0.05002
2024/06/24 08:20:57.000   35.134699013  136.977575488   104.8633   1  42   0.0024   0.0024   0.0069   0.0008  -0.0013  -0.0024   0.00   11.6    0.00271   -0.00070   -0.02251   0.05837  0.05758  0.15695  0.00991 -0.03164 -0.05003
2024/06/24 08:20:58.000   35.134699008  136.977575481   104.8646   1  42   0.0024   0.0024   0.0067   0.0008  -0.0015  -0.0024   0.00    9.7    0.00177    0.00133    0.01508   0.05837  0.05758  0.15696  0.00990 -0.03163 -0.05003
2024/06/24 08:20:59.000   35.134699016  136.977575481   104.8650   1  42   0.0024   0.0024   0.0067   0.0008  -0.0015  -0.0024   0.00   10.9    0.00176   -0.00244    0.00848   0.05837  0.05758  0.15696  0.00989 -0.03162 -0.05003
2024/06/24 08:21:00.000   35.134699015  136.977575478   104.8639   1  42   0.0024   0.0024   0.0067   0.0008  -0.0015  -0.0024   0.00    9.0   -0.00601   -0.00381    0.00268   0.05837  0.05758  0.15697  0.00987 -0.03162 -0.05003
2024/06/24 08:21:01.000   35.134699009  136.977575488   104.8632   1  42   0.0024   0.0024   0.0069   0.0008  -0.0013  -0.0024   0.00    9.9   -0.00033    0.00474   -0.00449   0.05837  0.05758  0.15697  0.00986 -0.03161 -0.05004
2024/06/24 08:21:02.000   35.134699013  136.977575492   104.8630   1  42   0.0024   0.0024   0.0069   0.0008  -0.0013  -0.0024   0.00   11.1    0.00119    0.00158    0.00729   0.05837  0.05758  0.15698  0.00985 -0.03160 -0.05004
2024/06/24 08:21:03.000   35.134699017  136.977575481   104.8632   1  42   0.0024   0.0024   0.0069   0.0008  -0.0013  -0.0024   0.00   13.4    0.00250   -0.00793    0.01577   0.05837  0.05758  0.15698  0.00983 -0.03159 -0.05004
2024/06/24 08:21:04.000   35.134699011  136.977575483   104.8611   1  42   0.0024   0.0024   0.0069   0.0008  -0.0013  -0.0024   0.00    9.1   -0.00097    0.00631    0.00078   0.05837  0.05758  0.15699  0.00982 -0.03159 -0.05004
2024/06/24 08:21:05.000   35.134699014  136.977575482   104.8601   1  42   0.0024   0.0024   0.0069   0.0008  -0.0013  -0.0024   0.00   12.5   -0.00302   -0.00213   -0.00648   0.05837  0.05758  0.15699  0.00981 -0.03158 -0.05005
2024/06/24 08:21:06.000   35.134699010  136.977575481   104.8626   1  42   0.0024   0.0024   0.0067   0.0008  -0.0015  -0.0024   0.00   12.7    0.00143   -0.00004    0.00326   0.05837  0.05758  0.15700  0.00979 -0.03157 -0.05005
2024/06/24 08:21:07.000   35.134699010  136.977575475   104.8635   1  42   0.0024   0.0024   0.0069   0.0008  -0.0013  -0.0024   0.00   11.3    0.01160   -0.00140    0.01026   0.05837  0.05758  0.15700  0.00978 -0.03157 -0.05005
2024/06/24 08:21:08.000   35.134699013  136.977575479   104.8626   1  42   0.0024   0.0024   0.0067   0.0008  -0.0015  -0.0024   0.00   10.2    0.00017   -0.00375   -0.00114   0.05838  0.05757  0.15701  0.00977 -0.03156 -0.05005
2024/06/24 08:21:09.000   35.134699014  136.977575471   104.8624   1  42   0.0024   0.0024   0.0067   0.0008  -0.0015  -0.0024   0.00   10.6    0.00808   -0.00425    0.01240   0.05838  0.05757  0.15701  0.00975 -0.03155 -0.05005
2024/06/24 08:21:10.000   35.134699005  136.977575487   104.8628   1  42   0.0024   0.0024   0.0067   0.0008  -0.0015  -0.0024   0.00   10.0   -0.00308    0.00570    0.00936   0.05838  0.05757  0.15702  0.00974 -0.03154 -0.05006
2024/06/24 08:21:11.000   35.134699018  136.977575484   104.8599   1  42   0.0024   0.0024   0.0067   0.0007  -0.0015  -0.0025   0.00    9.2    0.00398    0.00955    0.01215   0.05838  0.05757  0.15702  0.00973 -0.03154 -0.05006
2024/06/24 08:21:12.000   35.134699010  136.977575476   104.8632   1  42   0.0024   0.0024   0.0068   0.0007  -0.0014  -0.0025   0.00   12.5   -0.00074   -0.00064    0.00282   0.05838  0.05757  0.15703  0.00971 -0.03153 -0.05006
2024/06/24 08:21:13.000   35.134699005  136.977575480   104.8625   1  42   0.0024   0.0024   0.0068   0.0007  -0.0014  -0.0025   0.00   10.2   -0.00192   -0.00369   -0.02230   0.05838  0.05757  0.15703  0.00970 -0.03152 -0.05006
2024/06/24 08:21:14.000   35.134699013  136.977575487   104.8636   1  42   0.0024   0.0024   0.0068   0.0007  -0.0014  -0.0025   0.00   10.0   -0.00248   -0.00231    0.00465   0.05838  0.05757  0.15703  0.00969 -0.03151 -0.05007
2024/06/24 08:21:15.000   35.134699008  136.977575487   104.8638   1  42   0.0024   0.0024   0.0069   0.0008  -0.0013  -0.0024   0.00   10.9   -0.00111   -0.00007   -0.00350   0.05838  0.05757  0.15704  0.00967 -0.03151 -0.05007
2024/06/24 08:21:16.000   35.134699013  136.977575487   104.8632   1  42   0.0024   0.0024   0.0068   0.0007  -0.0014  -0.0025   0.00    9.8    0.00733   -0.00380   -0.00455   0.05838  0.05757  0.15704  0.00966 -0.03150 -0.05007
2024/06/24 08:21:17.000   35.134699010  136.977575483   104.8639   1  42   0.0024   0.0024   0.0068   0.0007  -0.0014  -0.0025   0.00   10.0   -0.00047    0.00340    0.01142   0.05838  0.05757  0.15705  0.00965 -0.03149 -0.05007
2024/06/24 08:21:18.000   35.134699012  136.977575484   104.8613   1  42   0.0024   0.0024   0.0069   0.0008  -0.0013  -0.0024   0.00   10.7    0.00516   -0.00128    0.00745   0.05838  0.05757  0.15705  0.00963 -0.03149 -0.05008
2024/06/24 08:21:19.000   35.134699020  136.977575479   104.8642   1  42   0.0024   0.0024   0.0069   0.0008  -0.0013  -0.0024   0.00   11.9    0.00672    0.00149    0.00386   0.05838  0.05756  0.15706  0.00962 -0.03148 -0.05008
2024/06/24 08:21:20.000   35.134699011  136.977575486   104.8631   1  42   0.0024   0.0024   0.0068   0.0007  -0.0014  -0.0025   0.00   10.2    0.00533   -0.00138    0.01437   0.05838  0.05756  0.15706  0.00961 -0.03147 -0.05008
2024/06/24 08:21:21.000   35.134699013  136.977575486   104.8632   1  42   0.0024   0.0024   0.0068   0.0007  -0.0014  -0.0025   0.00   10.1    0.00061    0.00003    0.01662   0.05838  0.05756  0.15707  0.00959 -0.03146 -0.05008
2024/06/24 08:21:22.000   35.134699014  136.977575485   104.8632   1  42   0.0024   0.0024   0.0068   0.0007  -0.0014  -0.0025   0.00   10.8    0.00592    0.00374    0.00557   0.05838  0.05756  0.15707  0.00958 -0.03146 -0.05008
2024/06/24 08:21:23.000   35.134699017  136.977575485   104.8630   1  42   0.0024   0.0024   0.0068   0.0007  -0.0014  -0.0025   0.00   12.2   -0.00168   -0.00470    0.01936   0.05838  0.05756  0.15707  0.00957 -0.03145 -0.05009
2024/06/24 08:21:24.000   35.134699009  136.977575485   104.8644   1  42   0.0024   0.0024   0.0068   0.0007  -0.0014  -0.0025   0.00    9.0   -0.00207   -0.00275    0.00035   0.05838  0.05756  0.15708  0.00955 -0.03144 -0.05009
2024/06/24 08:21:25.000   35.134699009  136.977575477   104.8614   1  42   0.0024   0.0024   0.0068   0.0007  -0.0014  -0.0025   0.00   11.8   -0.00212   -0.00115   -0.01981   0.05838  0.05756  0.15708  0.00954 -0.03143 -0.05009
2024/06/24 08:21:26.000   35.134699011  136.977575485   104.8616   1  42   0.0024   0.0024   0.0068   0.0007  -0.0014  -0.0025   0.00   11.1   -0.00204   -0.00150    0.01353   0.05838  0.05756  0.15709  0.00953 -0.03143 -0.05009
2024/06/24 08:21:27.000   35.134699017  136.977575483   104.8640   1  42   0.0024   0.0024   0.0068   0.0007  -0.0014  -0.0025   0.00    8.9    0.00101   -0.00135    0.00702   0.05839  0.05756  0.15709  0.00951 -0.03142 -0.05010
2024/06/24 08:21:28.000   35.134699014  136.977575483   104.8638   1  42   0.0024   0.0024   0.0068   0.0007  -0.0014  -0.0025   0.00   10.6    0.00225   -0.00191   -0.00443   0.05839  0.05756  0.15710  0.00950 -0.03141 -0.05010
2024/06/24 08:21:29.000   35.134699014  136.977575483   104.8630   1  42   0.0024   0.0024   0.0068   0.0007  -0.0014  -0.0025   0.00   14.6    0.00547   -0.00461    0.00571   0.05839  0.05756  0.15710  0.00949 -0.03140 -0.05010
2024/06/24 08:21:30.000   35.134699015  136.977575485   104.8600   1  42   0.0024   0.0024   0.0068   0.0007  -0.0014  -0.0025   0.00   10.8    0.00133   -0.00187   -0.01714   0.05839  0.05755  0.15711  0.00947 -0.03140 -0.05010
2024/06/24 08:21:31.000   35.134699017  136.977575478   104.8609   1  42   0.0024   0.0024   0.0068   0.0007  -0.0014  -0.0025   0.00   12.7    0.00400   -0.00436   -0.00547   0.05839  0.05755  0.15711  0.00946 -0.03139 -0.05010
2024/06/24 08:21:32.000   35.134699019  136.977575481   104.8615   1  42   0.0024   0.0024   0.0068   0.0007  -0.0014  -0.0025   0.00   11.4    0.00660    0.00181   -0.00366   0.05839  0.05755  0.15711  0.00944 -0.03138 -0.05011
2024/06/24 08:21:33.000   35.134699017  136.977575495   104.8625   1  42   0.0024   0.0024   0.0068   0.0007  -0.0014  -0.0025   0.00   12.0    0.00500   -0.00318   -0.01945   0.05839  0.05755  0.15712  0.00943 -0.03138 -0.05011
2024/06/24 08:21:34.000   35.134699018  136.977575490   104.8631   1  42   0.0024   0.0024   0.0068   0.0007  -0.0014  -0.0025   0.00   13.0    0.00349    0.00545    0.00539   0.05839  0.05755  0.15712  0.00942 -0.03137 -0.05011
2024/06/24 08:21:35.000   35.134699019  136.977575484   104.8609   1  42   0.0024   0.0024   0.0068   0.0007  -0.0014  -0.0025   0.00   13.1   -0.00048    0.00168    0.00427   0.05839  0.05755  0.15713  0.00940 -0.03136 -0.05011
2024/06/24 08:21:36.000   35.134699018  136.977575476   104.8619   1  42   0.0024   0.0024   0.0068   0.0007  -0.0014  -0.0025   0.00    9.8   -0.00055   -0.00080    0.00592   0.05839  0.05755  0.15713  0.00939 -0.03135 -0.05012
2024/06/24 08:21:37.000   35.134699020  136.977575478   104.8617   1  42   0.0024   0.0024   0.0068   0.0007  -0.0014  -0.0025   0.00   11.0    0.00899   -0.00070    0.00618   0.05839  0.05755  0.15714  0.00938 -0.03135 -0.05012
2024/06/24 08:21:38.000   35.134699015  136.977575488   104.8628   1  42   0.0024   0.0024   0.0068   0.0007  -0.0014  -0.0025   0.00   11.7    0.00484    0.00289    0.01911   0.05839  0.05755  0.15714  0.00936 -0.03134 -0.05012
2024/06/24 08:21:39.000   35.134699016  136.977575491   104.8607   1  42   0.0024   0.0024   0.0068   0.0007  -0.0014  -0.0025   0.00   14.9   -0.00239    0.00272    0.00992   0.05839  0.05755  0.15714  0.00935 -0.03133 -0.05012
2024/06/24 08:21:40.000   35.134699011  136.977575490   104.8650   1  42   0.0024   0.0024   0.0068   0.0007  -0.0014  -0.0025   0.00   11.5    0.00589    0.00479    0.01509   0.05839  0.05755  0.15715  0.00933 -0.03132 -0.05012
2024/06/24 08:21:41.000   35.134699012  136.977575486   104.8617   1  42   0.0024   0.0024   0.0068   0.0007  -0.0014  -0.0025   0.00   10.0    0.00379    0.00126    0.00258   0.05839  0.05754  0.15715  0.00932 -0.03132 -0.05013
2024/06/24 08:21:42.000   35.134699003  136.977575489   104.8629   1  42   0.0024   0.0024   0.0068   0.0007  -0.0014  -0.0025   0.00   12.5   -0.00226    0.00498    0.00838   0.05839  0.05754  0.15716  0.00931 -0.03131 -0.05013
2024/06/24 08:21:43.000   35.134699005  136.977575481   104.8625   1  42   0.0024   0.0024   0.0068   0.0007  -0.0014  -0.0025   0.00   11.7   -0.00563   -0.00139    0.00801   0.05839  0.05754  0.15716  0.00929 -0.03130 -0.05013
2024/06/24 08:21:44.000   35.134699014  136.977575482   104.8616   1  42   0.0024   0.0024   0.0068   0.0007  -0.0014  -0.0025   0.00   11.1   -0.00038   -0.00212    0.02459   0.05839  0.05754  0.15716  0.00928 -0.03129 -0.05013
2024/06/24 08:21:45.000   35.134699015  136.977575482   104.8596   1  42   0.0024   0.0024   0.0068   0.0007  -0.0014  -0.0025   0.00   11.2    0.00727    0.00073   -0.00910   0.05840  0.05754  0.15717  0.00926 -0.03129 -0.05014
2024/06/24 08:21:46.000   35.134699014  136.977575483   104.8626   1  42   0.0024   0.0024   0.0068   0.0007  -0.0014  -0.0025   0.00   12.2    0.00228   -0.00217   -0.01392   0.05840  0.05754  0.15717  0.00925 -0.03128 -0.05014
2024/06/24 08:21:47.000   35.134699016  136.977575487   104.8612   1  42   0.0024   0.0024   0.0068   0.0007  -0.0014  -0.0025   0.00    9.0   -0.00311    0.00275    0.01331   0.05840  0.05754  0.15718  0.00924 -0.03127 -0.05014
2024/06/24 08:21:48.000   35.134699016  136.977575491   104.8615   1  42   0.0024   0.0024   0.0068   0.0007  -0.0014  -0.0025   0.00   11.0   -0.00154    0.00416    0.00353   0.05840  0.05754  0.15718  0.00922 -0.03126 -0.05014
2024/06/24 08:21:49.000   35.134699012  136.977575488   104.8618   1  42   0.0024   0.0024   0.0068   0.0007  -0.0014  -0.0025   0.00   11.4   -0.00749   -0.00443    0.00901   0.05840  0.05754  0.15718  0.00921 -0.03126 -0.05014
2024/06/24 08:21:50.000   35.134699015  136.977575490   104.8632   1  42   0.0024   0.0024   0.0068   0.0007  -0.0014  -0.0025   0.00   13.5    0.00110    0.00347   -0.00209   0.05840  0.05754  0.15719  0.00919 -0.03125 -0.05015
2024/06/24 08:21:51.000   35.134699014  136.977575483   104.8646   1  42   0.0024   0.0024   0.0068   0.0007  -0.0014  -0.0025   0.00   10.1   -0.00131   -0.00024    0.00799   0.05840  0.05754  0.15719  0.00918 -0.03124 -0.05015
2024/06/24 08:21:52.000   35.134699018  136.977575488   104.8622   1  42   0.0024   0.0024   0.0068   0.0007  -0.0014  -0.0025   0.00   11.8    0.00924    0.00129    0.00111   0.05840  0.05754  0.15720  0.00917 -0.03123 -0.05015
2024/06/24 08:21:53.000   35.134699016  136.977575484   104.8610   1  42   0.0024   0.0024   0.0068   0.0007  -0.0014  -0.0025   0.00   10.8    0.00356    0.00095    0.00602   0.05840  0.05753  0.15720  0.00915 -0.03123 -0.05015
2024/06/24 08:21:54.000   35.134699014  136.977575482   104.8630   1  42   0.0024   0.0024   0.0068   0.0007  -0.0014  -0.0025   0.00   11.0    0.00062    0.00570    0.02320   0.05840  0.05753  0.15720  0.00914 -0.03122 -0.05016
2024/06/24 08:21:55.000   35.134699019  136.977575489   104.8598   1  42   0.0024   0.0024   0.0068   0.0007  -0.0014  -0.0025   0.00   12.2    0.00006    0.00135    0.00608   0.05840  0.05753  0.15721  0.00912 -0.03121 -0.05016
2024/06/24 08:21:56.000   35.134699011  136.977575489   104.8654   1  42   0.0024   0.0024   0.0068   0.0007  -0.0014  -0.0025   0.00    9.6   -0.00326   -0.00053    0.00870   0.05840  0.05753  0.15721  0.00911 -0.03120 -0.05016
2024/06/24 08:21:57.000   35.134699009  136.977575489   104.8627   1  42   0.0024   0.0024   0.0068   0.0007  -0.0014  -0.0025   0.00   13.3    0.00211   -0.00195    0.00327   0.05840  0.05753  0.15722  0.00909 -0.03120 -0.05016
2024/06/24 08:21:58.000   35.134699017  136.977575488   104.8612   1  42   0.0024   0.0024   0.0068   0.0007  -0.0014  -0.0025   0.00   12.5   -0.00584   -0.00340    0.01873   0.05840  0.05753  0.15722  0.00908 -0.03119 -0.05016
2024/06/24 08:21:59.000   35.134699009  136.977575484   104.8625   1  42   0.0024   0.0024   0.0066   0.0008  -0.0016  -0.0024   0.00   12.4   -0.00402    0.00123    0.01621   0.05840  0.05753  0.15722  0.00907 -0.03118 -0.05017
2024/06/24 08:22:00.000   35.134699010  136.977575490   104.8615   1  42   0.0024   0.0024   0.0068   0.0007  -0.0014  -0.0025   0.00   14.0   -0.00341   -0.00211    0.01400   0.05840  0.05753  0.15723  0.00905 -0.03117 -0.05017
2024/06/24 08:22:01.000   35.134699010  136.977575489   104.8617   1  42   0.0024   0.0024   0.0066   0.0008  -0.0016  -0.0024   0.00    9.7   -0.00678   -0.00601   -0.01325   0.05840  0.05753  0.15723  0.00904 -0.03117 -0.05017
2024/06/24 08:22:02.000   35.134699018  136.977575485   104.8622   1  42   0.0024   0.0024   0.0066   0.0008  -0.0016  -0.0024   0.00    9.0    0.00742    0.00594    0.00232   0.05840  0.05753  0.15724  0.00902 -0.03116 -0.05017
2024/06/24 08:22:03.000   35.134699014  136.977575489   104.8614   1  42   0.0024   0.0024   0.0066   0.0008  -0.0016  -0.0024   0.00    9.7   -0.00246   -0.00269   -0.00173   0.05841  0.05753  0.15724  0.00901 -0.03115 -0.05017
2024/06/24 08:22:04.000   35.134699010  136.977575489   104.8619   1  42   0.0024   0.0024   0.0066   0.0008  -0.0016  -0.0024   0.00   11.7   -0.00596    0.00427    0.01615   0.05841  0.05752  0.15724  0.00899 -0.03114 -0.05018
2024/06/24 08:22:05.000   35.134699010  136.977575486   104.8620   1  42   0.0024   0.0024   0.0066   0.0008  -0.0016  -0.0024   0.00   12.3    0.00118    0.00332   -0.00009   0.05841  0.05752  0.15725  0.00898 -0.03114 -0.05018
2024/06/24 08:22:06.000   35.134699008  136.977575487   104.8615   1  42   0.0024   0.0024   0.0066   0.0008  -0.0016  -0.0024   0.00    8.8   -0.00273    0.00364   -0.00587   0.05841  0.05752  0.15725  0.00897 -0.03113 -0.05018
2024/06/24 08:22:07.000   35.134699014  136.977575496   104.8604   1  42   0.0024   0.0024   0.0066   0.0008  -0.0016  -0.0024   0.00   11.9    0.00091    0.00061    0.01946   0.05841  0.05752  0.15726  0.00895 -0.03112 -0.05018
2024/06/24 08:22:08.000   35.134699019  136.977575494   104.8629   1  42   0.0024   0.0024   0.0066   0.0008  -0.0016  -0.0024   0.00   10.0    0.00514   -0.00397    0.00288   0.05841  0.05752  0.15726  0.00894 -0.03111 -0.05018
2024/06/24 08:22:09.000   35.134699011  136.977575492   104.8627   1  42   0.0024   0.0024   0.0066   0.0008  -0.0016  -0.0024   0.00   10.3    0.00447   -0.00116    0.00852   0.05841  0.05752  0.15726  0.00892 -0.03110 -0.05019
2024/06/24 08:22:10.000   35.134699015  136.977575492   104.8610   1  42   0.0024   0.0024   0.0066   0.0008  -0.0016  -0.0024   0.00   11.2    0.00206    0.00250    0.00514   0.05841  0.05752  0.15727  0.00891 -0.03110 -0.05019
2024/06/24 08:22:11.000   35.134699014  136.977575490   104.8613   1  42   0.0024   0.0024   0.0066   0.0008  -0.0016  -0.0024   0.00   11.2   -0.00529   -0.00145   -0.00566   0.05841  0.05752  0.15727  0.00889 -0.03109 -0.05019
2024/06/24 08:22:12.000   35.134699011  136.977575491   104.8640   1  42   0.0024   0.0024   0.0066   0.0008  -0.0016  -0.0024   0.00    8.8   -0.00145    0.00462    0.00803   0.05841  0.05752  0.15727  0.00888 -0.03108 -0.05019
2024/06/24 08:22:13.000   35.134699011  136.977575484   104.8635   1  42   0.0024   0.0024   0.0066   0.0008  -0.0016  -0.0024   0.00   11.7    0.00570   -0.00092    0.00457   0.05841  0.05752  0.15728  0.00886 -0.03107 -0.05020
2024/06/24 08:22:14.000   35.134699010  136.977575485   104.8622   1  42   0.0024   0.0024   0.0066   0.0008  -0.0016  -0.0024   0.00    9.4   -0.00276    0.00096   -0.00302   0.05841  0.05752  0.15728  0.00885 -0.03107 -0.05020
2024/06/24 08:22:15.000   35.134699012  136.977575487   104.8622   1  42   0.0024   0.0024   0.0066   0.0008  -0.0016  -0.0024   0.00    8.6    0.00309    0.00143    0.01666   0.05841  0.05751  0.15729  0.00883 -0.03106 -0.05020
2024/06/24 08:22:16.000   35.134699013  136.977575496   104.8619   1  42   0.0024   0.0024   0.0068   0.0007  -0.0014  -0.0025   0.00   13.4   -0.00282    0.00564    0.00691   0.05841  0.05751  0.15729  0.00882 -0.03105 -0.05020
2024/06/24 08:22:17.000   35.134699014  136.977575488   104.8599   1  42   0.0024   0.0024   0.0066   0.0008  -0.0016  -0.0024   0.00   10.4   -0.00146    0.00323   -0.01893   0.05841  0.05751  0.15729  0.00880 -0.03104 -0.05020
2024/06/24 08:22:18.000   35.134699014  136.977575495   104.8606   1  42   0.0024   0.0024   0.0066   0.0008  -0.0016  -0.0024   0.00   10.2   -0.00244   -0.00085    0.00622   0.05841  0.05751  0.15730  0.00879 -0.03104 -0.05021
2024/06/24 08:22:19.000   35.134699011  136.977575489   104.8631   1  42   0.0024   0.0024   0.0066   0.0008  -0.0016  -0.0024   0.00   10.8    0.00147   -0.00106    0.01920   0.05841  0.05751  0.15730  0.00878 -0.03103 -0.05021
2024/06/24 08:22:20.000   35.134699012  136.977575492   104.8636   1  42   0.0024   0.0024   0.0066   0.0008  -0.0016  -0.0024   0.00   10.2    0.00489    0.00211    0.02092   0.05841  0.05751  0.15730  0.00876 -0.03102 -0.05021
2024/06/24 08:22:21.000   35.134699007  136.977575489   104.8615   1  42   0.0024   0.0024   0.0066   0.0008  -0.0016  -0.0024   0.00    8.1    0.00015   -0.00344   -0.01223   0.05842  0.05751  0.15731  0.00875 -0.03101 -0.05021
2024/06/24 08:22:22.000   35.134699006  136.977575489   104.8620   1  42   0.0024   0.0024   0.0066   0.0008  -0.0016  -0.0024   0.00    9.9    0.00396    0.00056    0.00258   0.05842  0.05751  0.15731  0.00873 -0.03100 -0.05021
2024/06/24 08:22:23.000   35.134699012  136.977575487   104.8617   1  42   0.0024   0.0024   0.0066   0.0008  -0.0016  -0.0024   0.00   11.5    0.00120   -0.00632   -0.00933   0.05842  0.05751  0.15731  0.00872 -0.03100 -0.05022
2024/06/24 08:22:24.000   35.134699011  136.977575495   104.8601   1  42   0.0024   0.0024   0.0066   0.0008  -0.0016  -0.0024   0.00   11.0    0.00411    0.00429    0.00657   0.05842  0.05751  0.15732  0.00870 -0.03099 -0.05022
2024/06/24 08:22:25.000   35.134699008  136.977575490   104.8588   1  42   0.0024   0.0024   0.0066   0.0008  -0.0016  -0.0024   0.00   12.5    0.00179   -0.00211    0.00255   0.05842  0.05751  0.15732  0.00869 -0.03098 -0.05022
2024/06/24 08:22:26.000   35.134699009  136.977575495   104.8627   1  42   0.0024   0.0024   0.0066   0.0008  -0.0016  -0.0024   0.00    9.6   -0.00148    0.00026    0.00553   0.05842  0.05751  0.15732  0.00867 -0.03097 -0.05022
2024/06/24 08:22:27.000   35.134699007  136.977575494   104.8616   1  42   0.0024   0.0024   0.0066   0.0008  -0.0016  -0.0024   0.00   10.5    0.00606    0.00237   -0.00825   0.05842  0.05750  0.15733  0.00866 -0.03097 -0.05022
2024/06/24 08:22:28.000   35.134699009  136.977575494   104.8613   1  42   0.0024   0.0024   0.0066   0.0008  -0.0016  -0.0024   0.00   10.4    0.00819    0.00241    0.01166   0.05842  0.05750  0.15733  0.00864 -0.03096 -0.05023
2024/06/24 08:22:29.000   35.134699019  136.977575496   104.8615   1  42   0.0024   0.0024   0.0066   0.0008  -0.0016  -0.0024   0.00   10.8    0.00225    0.00011   -0.00399   0.05842  0.05750  0.15734  0.00863 -0.03095 -0.05023
2024/06/24 08:22:30.000   35.134699012  136.977575489   104.8628   1  42   0.0024   0.0024   0.0066   0.0008  -0.0016  -0.0024   0.00   12.4    0.00479   -0.00234   -0.00657   0.05842  0.05750  0.15734  0.00861 -0.03094 -0.05023
2024/06/24 08:22:31.000   35.134699012  136.977575491   104.8609   1  42   0.0024   0.0024   0.0066   0.0008  -0.0016  -0.0024   0.00   10.8    0.00486    0.00342   -0.00786   0.05842  0.05750  0.15734  0.00860 -0.03093 -0.05023
2024/06/24 08:22:32.000   35.134699011  136.977575498   104.8629   1  42   0.0024   0.0024   0.0066   0.0008  -0.0016  -0.0024   0.00    9.7    0.00423    0.00076   -0.00632   0.05842  0.05750  0.15735  0.00858 -0.03093 -0.05023
2024/06/24 08:22:33.000   35.134699011  136.977575494   104.8629   1  42   0.0024   0.0024   0.0066   0.0008  -0.0016  -0.0024   0.00   13.2    0.00629    0.00157    0.01090   0.05842  0.05750  0.15735  0.00857 -0.03092 -0.05024
2024/06/24 08:22:34.000   35.134699000  136.977575496   104.8624   1  42   0.0024   0.0024   0.0066   0.0008  -0.0016  -0.0024   0.00   10.1   -0.00277    0.00317   -0.01689   0.05842  0.05750  0.15735  0.00855 -0.03091 -0.05024
2024/06/24 08:22:35.000   35.134699004  136.977575491   104.8631   1  42   0.0024   0.0024   0.0066   0.0008  -0.0016  -0.0024   0.00    9.9    0.00151    0.00031   -0.00791   0.05842  0.05750  0.15736  0.00853 -0.03090 -0.05024
2024/06/24 08:22:36.000   35.134699005  136.977575493   104.8616   1  42   0.0024   0.0024   0.0066   0.0008  -0.0016  -0.0024   0.00   14.5    0.00426   -0.00413    0.00765   0.05842  0.05750  0.15736  0.00852 -0.03090 -0.05024
2024/06/24 08:22:37.000   35.134699003  136.977575492   104.8622   1  42   0.0024   0.0024   0.0066   0.0008  -0.0016  -0.0024   0.00   10.0    0.00299    0.00325    0.00913   0.05842  0.05750  0.15736  0.00850 -0.03089 -0.05025
2024/06/24 08:22:38.000   35.134699005  136.977575493   104.8621   1  42   0.0024   0.0024   0.0066   0.0008  -0.0016  -0.0024   0.00   11.8    0.00048   -0.00335    0.01882   0.05842  0.05749  0.15737  0.00849 -0.03088 -0.05025
2024/06/24 08:22:39.000   35.134699011  136.977575490   104.8607   1  42   0.0024   0.0024   0.0066   0.0008  -0.0016  -0.0024   0.00   11.9    0.00176    0.00473    0.00883   0.05843  0.05749  0.15737  0.00847 -0.03087 -0.05025
2024/06/24 08:22:40.000   35.134699012  136.977575496   104.8610   1  42   0.0024   0.0024   0.0066   0.0008  -0.0016  -0.0024   0.00   10.4    0.00073    0.00179    0.00691   0.05843  0.05749  0.15737  0.00846 -0.03086 -0.05025
2024/06/24 08:22:41.000   35.134699015  136.977575490   104.8605   1  42   0.0024   0.0024   0.0066   0.0008  -0.0016  -0.0024   0.00   12.2   -0.00078    0.00277   -0.00450   0.05843  0.05749  0.15738  0.00844 -0.03086 -0.05025
2024/06/24 08:22:42.000   35.134699014  136.977575489   104.8614   1  42   0.0024   0.0024   0.0066   0.0008  -0.0016  -0.0024   0.00   11.2    0.00654    0.00233    0.00109   0.05843  0.05749  0.15738  0.00843 -0.03085 -0.05026
2024/06/24 08:22:43.000   35.134699009  136.977575489   104.8617   1  42   0.0024   0.0024   0.0066   0.0008  -0.0016  -0.0024   0.00    9.9   -0.00049   -0.00509    0.01649   0.05843  0.05749  0.15738  0.00841 -0.03084 -0.05026
2024/06/24 08:22:44.000   35.134699010  136.977575490   104.8626   1  42   0.0024   0.0024   0.0066   0.0008  -0.0016  -0.0024   0.00   13.0    0.00348   -0.00236    0.00971   0.05843  0.05749  0.15739  0.00840 -0.03083 -0.05026
2024/06/24 08:22:45.000   35.134699008  136.977575478   104.8621   1  42   0.0024   0.0024   0.0066   0.0008  -0.0016  -0.0024   0.00   10.8    0.00584   -0.00066    0.00684   0.05843  0.05749  0.15739  0.00838 -0.03082 -0.05026
2024/06/24 08:22:46.000   35.134699015  136.977575485   104.8633   1  42   0.0024   0.0024   0.0066   0.0008  -0.0016  -0.0024   0.00   11.5    0.00529   -0.00145    0.00394   0.05843  0.05749  0.15739  0.00837 -0.03082 -0.05026
2024/06/24 08:22:47.000   35.134699009  136.977575488   104.8622   1  42   0.0024   0.0024   0.0066   0.0008  -0.0016  -0.0024   0.00   14.5    0.00066   -0.00120   -0.00130   0.05843  0.05749  0.15740  0.00835 -0.03081 -0.05027
2024/06/24 08:22:48.000   35.134699012  136.977575488   104.8623   1  42   0.0024   0.0024   0.0066   0.0008  -0.0016  -0.0024   0.00   15.4    0.00237   -0.00176   -0.00480   0.05843  0.05749  0.15740  0.00833 -0.03080 -0.05027
2024/06/24 08:22:49.000   35.134699012  136.977575494   104.8618   1  42   0.0024   0.0024   0.0066   0.0008  -0.0016  -0.0024   0.00   12.7   -0.00340    0.00450    0.01754   0.05843  0.05749  0.15740  0.00832 -0.03079 -0.05027
2024/06/24 08:22:50.000   35.134699020  136.977575489   104.8616   1  42   0.0024   0.0024   0.0066   0.0008  -0.0016  -0.0024   0.00   10.8    0.00949   -0.00645   -0.01038   0.05843  0.05748  0.15740  0.00830 -0.03079 -0.05027
2024/06/24 08:22:51.000   35.134699016  136.977575495   104.8616   1  42   0.0024   0.0024   0.0066   0.0008  -0.0016  -0.0024   0.00   11.3    0.00490   -0.00064    0.01258   0.05843  0.05748  0.15741  0.00829 -0.03078 -0.05027
2024/06/24 08:22:52.000   35.134699014  136.977575489   104.8617   1  42   0.0024   0.0024   0.0066   0.0008  -0.0016  -0.0024   0.00   10.1    0.00432    0.00225    0.00824   0.05843  0.05748  0.15741  0.00827 -0.03077 -0.05028
2024/06/24 08:22:53.000   35.134699015  136.977575494   104.8630   1  42   0.0024   0.0024   0.0066   0.0008  -0.0016  -0.0024   0.00   10.7    0.00414    0.00087    0.00540   0.05843  0.05748  0.15741  0.00826 -0.03076 -0.05028
2024/06/24 08:22:54.000   35.134699012  136.977575488   104.8603   1  42   0.0024   0.0024   0.0066   0.0008  -0.0016  -0.0024   0.00   10.3    0.00291   -0.00304   -0.01322   0.05843  0.05748  0.15742  0.00824 -0.03075 -0.05028
2024/06/24 08:22:55.000   35.134699005  136.977575481   104.8618   1  42   0.0024   0.0024   0.0066   0.0008  -0.0016  -0.0024   0.00    9.1    0.00009   -0.00408   -0.00474   0.05843  0.05748  0.15742  0.00822 -0.03075 -0.05028
2024/06/24 08:22:56.000   35.134699005  136.977575483   104.8629   1  42   0.0024   0.0024   0.0066   0.0008  -0.0016  -0.0024   0.00   12.2    0.00587   -0.00400    0.00192   0.05843  0.05748  0.15742  0.00821 -0.03074 -0.05028
2024/06/24 08:22:57.000   35.134699007  136.977575489   104.8633   1  42   0.0024   0.0024   0.0066   0.0008  -0.0016  -0.0024   0.00   10.1   -0.00068   -0.00425    0.01269   0.05843  0.05748  0.15743  0.00819 -0.03073 -0.05029
2024/06/24 08:22:58.000   35.134699014  136.977575490   104.8644   1  42   0.0024   0.0024   0.0066   0.0008  -0.0016  -0.0024   0.00   10.3    0.00816    0.00137    0.01711   0.05844  0.05748  0.15743  0.00818 -0.03072 -0.05029
2024/06/24 08:22:59.000   35.134699005  136.977575492   104.8644   1  42   0.0024   0.0024   0.0066   0.0008  -0.0016  -0.0024   0.00    9.5   -0.00978   -0.00347    0.01761   0.05844  0.05748  0.15743  0.00816 -0.03071 -0.05029
2024/06/24 08:23:00.000   35.134699009  136.977575489   104.8629   1  42   0.0024   0.0024   0.0066   0.0008  -0.0016  -0.0024   0.00   10.8   -0.00074   -0.00088   -0.00709   0.05844  0.05748  0.15744  0.00814 -0.03071 -0.05029
2024/06/24 08:23:01.000   35.134699011  136.977575492   104.8623   1  42   0.0024   0.0024   0.0066   0.0008  -0.0016  -0.0024   0.00    9.4    0.00595    0.00438    0.01261   0.05844  0.05747  0.15744  0.00813 -0.03070 -0.05029
2024/06/24 08:23:02.000   35.134699007  136.977575489   104.8624   1  42   0.0024   0.0024   0.0066   0.0008  -0.0016  -0.0024   0.00    9.1    0.00515   -0.00079    0.00711   0.05844  0.05747  0.15744  0.00811 -0.03069 -0.05030
2024/06/24 08:23:03.000   35.134699010  136.977575488   104.8610   1  42   0.0024   0.0024   0.0066   0.0008  -0.0016  -0.0024   0.00   11.9    0.00031    0.00061   -0.00413   0.05844  0.05747  0.15744  0.00810 -0.03068 -0.05030
2024/06/24 08:23:04.000   35.134699015  136.977575489   104.8603   1  42   0.0024   0.0024   0.0066   0.0008  -0.0016  -0.0024   0.00   11.3   -0.00216   -0.00006    0.00017   0.05844  0.05747  0.15745  0.00808 -0.03067 -0.05030
2024/06/24 08:23:05.000   35.134699012  136.977575489   104.8632   1  42   0.0024   0.0024   0.0066   0.0008  -0.0016  -0.0024   0.00   10.3    0.00616    0.00406   -0.00919   0.05844  0.05747  0.15745  0.00806 -0.03067 -0.05030
2024/06/24 08:23:06.000   35.134699018  136.977575487   104.8627   1  42   0.0024   0.0024   0.0066   0.0008  -0.0016  -0.0024   0.00   11.9    0.00351    0.00274    0.01010   0.05844  0.05747  0.15745  0.00805 -0.03066 -0.05030
2024/06/24 08:23:07.000   35.134699005  136.977575496   104.8646   1  42   0.0024   0.0024   0.0066   0.0008  -0.0016  -0.0024   0.00    9.0    0.00254    0.00051    0.01705   0.05844  0.05747  0.15746  0.00803 -0.03065 -0.05030
2024/06/24 08:23:08.000   35.134699019  136.977575495   104.8607   1  42   0.0024   0.0024   0.0066   0.0008  -0.0016  -0.0024   0.00   10.5    0.00847    0.00319   -0.01290   0.05844  0.05747  0.15746  0.00801 -0.03064 -0.05031
2024/06/24 08:23:09.000   35.134699010  136.977575488   104.8619   1  42   0.0024   0.0024   0.0066   0.0008  -0.0016  -0.0024   0.00   13.2   -0.00071   -0.00053   -0.00298   0.05844  0.05747  0.15746  0.00800 -0.03063 -0.05031
2024/06/24 08:23:10.000   35.134699015  136.977575483   104.8626   1  42   0.0024   0.0024   0.0066   0.0008  -0.0016  -0.0024   0.00   12.8    0.00530    0.00065    0.00446   0.05844  0.05747  0.15747  0.00798 -0.03063 -0.05031
2024/06/24 08:23:11.000   35.134699009  136.977575498   104.8620   1  42   0.0024   0.0024   0.0066   0.0008  -0.0016  -0.0024   0.00    9.3   -0.00025    0.00459    0.00341   0.05844  0.05747  0.15747  0.00797 -0.03062 -0.05031
2024/06/24 08:23:12.000   35.134699003  136.977575485   104.8630   1  42   0.0024   0.0024   0.0066   0.0008  -0.0016  -0.0024   0.00    8.6    0.00108   -0.00228    0.00294   0.05844  0.05747  0.15747  0.00795 -0.03061 -0.05031
2024/06/24 08:23:13.000   35.134699007  136.977575493   104.8619   1  42   0.0024   0.0024   0.0066   0.0008  -0.0016  -0.0024   0.00    9.4    0.00830   -0.00215   -0.00931   0.05844  0.05746  0.15747  0.00793 -0.03060 -0.05032
2024/06/24 08:23:14.000   35.134699010  136.977575483   104.8637   1  42   0.0024   0.0024   0.0066   0.0008  -0.0016  -0.0024   0.00   10.4    0.00068   -0.00159    0.00614   0.05844  0.05746  0.15748  0.00792 -0.03059 -0.05032
2024/06/24 08:23:15.000   35.134699010  136.977575488   104.8624   1  42   0.0024   0.0024   0.0066   0.0008  -0.0016  -0.0024   0.00   11.5    0.00871   -0.00008   -0.00662   0.05844  0.05746  0.15748  0.00790 -0.03058 -0.05032
2024/06/24 08:23:16.000   35.134699007  136.977575487   104.8621   1  42   0.0024   0.0024   0.0066   0.0008  -0.0015  -0.0024   0.00   11.8    0.00027   -0.00009    0.00317   0.05845  0.05746  0.15748  0.00788 -0.03058 -0.05032
2024/06/24 08:23:17.000   35.134699007  136.977575491   104.8615   1  42   0.0024   0.0024   0.0066   0.0008  -0.0015  -0.0024   0.00   10.0    0.00161    0.00570    0.01902   0.05845  0.05746  0.15748  0.00787 -0.03057 -0.05032
2024/06/24 08:23:18.000   35.134699011  136.977575490   104.8601   1  42   0.0024   0.0024   0.0066   0.0008  -0.0015  -0.0024   0.00   13.2    0.00457   -0.00034    0.00440   0.05845  0.05746  0.15749  0.00785 -0.03056 -0.05033
2024/06/24 08:23:19.000   35.134699011  136.977575491   104.8633   1  42   0.0024   0.0024   0.0066   0.0008  -0.0015  -0.0024   0.00   12.1    0.00280    0.00273    0.00762   0.05845  0.05746  0.15749  0.00783 -0.03055 -0.05033
2024/06/24 08:23:20.000   35.134699009  136.977575494   104.8618   1  42   0.0024   0.0024   0.0066   0.0008  -0.0015  -0.0024   0.00    9.2    0.00367   -0.00014   -0.00187   0.05845  0.05746  0.15749  0.00782 -0.03054 -0.05033
2024/06/24 08:23:21.000   35.134699016  136.977575486   104.8621   1  42   0.0024   0.0024   0.0066   0.0008  -0.0015  -0.0024   0.00   10.8    0.00729    0.00213   -0.00637   0.05845  0.05746  0.15750  0.00780 -0.03054 -0.05033
2024/06/24 08:23:22.000   35.134699011  136.977575484   104.8638   1  42   0.0024   0.0024   0.0066   0.0008  -0.0015  -0.0024   0.00   10.4    0.00127    0.00463   -0.00471   0.05845  0.05746  0.15750  0.00778 -0.03053 -0.05033
2024/06/24 08:23:23.000   35.134699009  136.977575484   104.8626   1  42   0.0024   0.0024   0.0066   0.0008  -0.0015  -0.0024   0.00   10.2    0.00030   -0.00009   -0.00254   0.05845  0.05746  0.15750  0.00777 -0.03052 -0.05034
2024/06/24 08:23:24.000   35.134699016  136.977575484   104.8610   1  42   0.0024   0.0024   0.0066   0.0008  -0.0015  -0.0024   0.00    9.8    0.00166    0.00440   -0.00132   0.05845  0.05746  0.15750  0.00775 -0.03051 -0.05034
2024/06/24 08:23:25.000   35.134698997  136.977575485   104.8644   1  42   0.0024   0.0024   0.0066   0.0008  -0.0015  -0.0024   0.00   10.2   -0.00221    0.00135   -0.00149   0.05845  0.05745  0.15751  0.00773 -0.03050 -0.05034
2024/06/24 08:23:26.000   35.134699008  136.977575484   104.8627   1  42   0.0024   0.0024   0.0066   0.0008  -0.0015  -0.0024   0.00   12.4    0.00844    0.00237   -0.00111   0.05845  0.05745  0.15751  0.00772 -0.03050 -0.05034
2024/06/24 08:23:27.000   35.134699015  136.977575488   104.8624   1  42   0.0024   0.0024   0.0066   0.0008  -0.0015  -0.0024   0.00   10.5    0.00161   -0.00410    0.00806   0.05845  0.05745  0.15751  0.00770 -0.03049 -0.05034
2024/06/24 08:23:28.000   35.134699010  136.977575491   104.8619   1  42   0.0024   0.0024   0.0066   0.0008  -0.0015  -0.0024   0.00   11.6    0.00104    0.00498   -0.00103   0.05845  0.05745  0.15751  0.00768 -0.03048 -0.05035
2024/06/24 08:23:29.000   35.134699012  136.977575478   104.8601   1  42   0.0024   0.0024   0.0066   0.0008  -0.0015  -0.0024   0.00   11.4    0.00005    0.00013    0.01092   0.05845  0.05745  0.15752  0.00766 -0.03047 -0.05035
2024/06/24 08:23:30.000   35.134699005  136.977575486   104.8629   1  42   0.0024   0.0024   0.0066   0.0008  -0.0015  -0.0024   0.00   12.3    0.00151   -0.00228   -0.00251   0.05845  0.05745  0.15752  0.00765 -0.03046 -0.05035
2024/06/24 08:23:31.000   35.134699012  136.977575489   104.8655   1  42   0.0024   0.0024   0.0066   0.0008  -0.0015  -0.0024   0.00    9.9    0.00254    0.00145    0.03169   0.05845  0.05745  0.15752  0.00763 -0.03045 -0.05035
2024/06/24 08:23:32.000   35.134699015  136.977575484   104.8603   1  42   0.0024   0.0024   0.0068   0.0007  -0.0014  -0.0025   0.00   11.6   -0.00383   -0.00656    0.00668   0.05845  0.05745  0.15752  0.00761 -0.03045 -0.05035
2024/06/24 08:23:33.000   35.134699009  136.977575491   104.8619   1  42   0.0024   0.0024   0.0068   0.0007  -0.0014  -0.0025   0.00   11.9    0.00064    0.00287   -0.00618   0.05845  0.05745  0.15753  0.00760 -0.03044 -0.05035
2024/06/24 08:23:34.000   35.134699010  136.977575493   104.8629   1  42   0.0024   0.0024   0.0068   0.0007  -0.0014  -0.0025   0.00   13.1    0.00111    0.00280   -0.00259   0.05846  0.05745  0.15753  0.00758 -0.03043 -0.05036
2024/06/24 08:23:35.000   35.134699006  136.977575484   104.8632   1  42   0.0024   0.0024   0.0068   0.0007  -0.0014  -0.0025   0.00   11.3    0.00938    0.00476   -0.00888   0.05846  0.05745  0.15753  0.00756 -0.03042 -0.05036
2024/06/24 08:23:36.000   35.134699010  136.977575488   104.8628   1  42   0.0024   0.0024   0.0068   0.0007  -0.0014  -0.0025   0.00   10.5    0.00127   -0.00399    0.00358   0.05846  0.05745  0.15753  0.00754 -0.03041 -0.05036
2024/06/24 08:23:37.000   35.134699012  136.977575487   104.8628   1  42   0.0024   0.0024   0.0068   0.0007  -0.0014  -0.0025   0.00   10.2   -0.00083   -0.00731    0.00893   0.05846  0.05744  0.15754  0.00753 -0.03040 -0.05036
2024/06/24 08:23:38.000   35.134699000  136.977575488   104.8615   1  42   0.0024   0.0024   0.0068   0.0007  -0.0014  -0.0025   0.00   10.3    0.00288   -0.00165    0.00603   0.05846  0.05744  0.15754  0.00751 -0.03040 -0.05036
2024/06/24 08:23:39.000   35.134699006  136.977575482   104.8639   1  42   0.0024   0.0024   0.0068   0.0007  -0.0014  -0.0025   0.00   10.9    0.00104   -0.00012   -0.01257   0.05846  0.05744  0.15754  0.00749 -0.03039 -0.05037
2024/06/24 08:23:40.000   35.134699008  136.977575490   104.8644   1  42   0.0024   0.0024   0.0068   0.0007  -0.0014  -0.0025   0.00   10.5    0.00470    0.00035   -0.00195   0.05846  0.05744  0.15754  0.00747 -0.03038 -0.05037
2024/06/24 08:23:41.000   35.134699008  136.977575488   104.8615   1  42   0.0024   0.0024   0.0068   0.0007  -0.0014  -0.0025   0.00    9.7    0.00152   -0.00610    0.00939   0.05846  0.05744  0.15755  0.00746 -0.03037 -0.05037
2024/06/24 08:23:42.000   35.134699012  136.977575481   104.8630   1  42   0.0024   0.0024   0.0067   0.0007  -0.0015  -0.0025   0.00   10.8    0.00105    0.00048    0.01319   0.05846  0.05744  0.15755  0.00744 -0.03036 -0.05037
2024/06/24 08:23:43.000   35.134699011  136.977575485   104.8628   1  42   0.0024   0.0024   0.0067   0.0007  -0.0015  -0.0025   0.00    9.8   -0.00177    0.00078    0.00613   0.05846  0.05744  0.15755  0.00742 -0.03035 -0.05037
2024/06/24 08:23:44.000   35.134699012  136.977575480   104.8633   1  42   0.0024   0.0024   0.0067   0.0007  -0.0015  -0.0025   0.00   10.6    0.00484   -0.00619    0.00803   0.05846  0.05744  0.15755  0.00740 -0.03035 -0.05037
2024/06/24 08:23:45.000   35.134699013  136.977575486   104.8607   1  42   0.0024   0.0024   0.0067   0.0007  -0.0015  -0.0025   0.00   13.3    0.00007   -0.00610   -0.01072   0.05846  0.05744  0.15756  0.00739 -0.03034 -0.05038
2024/06/24 08:23:46.000   35.134699011  136.977575492   104.8641   1  42   0.0024   0.0024   0.0067   0.0007  -0.0015  -0.0025   0.00   11.0    0.00138    0.00138    0.00674   0.05846  0.05744  0.15756  0.00737 -0.03033 -0.05038
2024/06/24 08:23:47.000   35.134699007  136.977575478   104.8616   1  42   0.0024   0.0024   0.0067   0.0007  -0.0015  -0.0025   0.00   12.1   -0.00296   -0.00166    0.00162   0.05846  0.05744  0.15756  0.00735 -0.03032 -0.05038
2024/06/24 08:23:48.000   35.134699003  136.977575488   104.8644   1  42   0.0024   0.0024   0.0067   0.0007  -0.0015  -0.0025   0.00   10.4    0.00384   -0.00319   -0.00355   0.05846  0.05743  0.15756  0.00733 -0.03031 -0.05038
2024/06/24 08:23:49.000   35.134699012  136.977575484   104.8633   1  42   0.0024   0.0024   0.0067   0.0007  -0.0015  -0.0025   0.00   11.1    0.00017    0.00065    0.01656   0.05846  0.05743  0.15757  0.00731 -0.03030 -0.05038
2024/06/24 08:23:50.000   35.134699009  136.977575484   104.8643   1  42   0.0024   0.0024   0.0067   0.0007  -0.0015  -0.0025   0.00    9.7    0.01328   -0.00404   -0.00086   0.05846  0.05743  0.15757  0.00730 -0.03030 -0.05039
2024/06/24 08:23:51.000   35.134699004  136.977575494   104.8642   1  42   0.0024   0.0024   0.0067   0.0007  -0.0015  -0.0025   0.00   11.0    0.00019    0.00154    0.02051   0.05846  0.05743  0.15757  0.00728 -0.03029 -0.05039
2024/06/24 08:23:52.000   35.134699002  136.977575491   104.8624   1  42   0.0024   0.0024   0.0067   0.0007  -0.0015  -0.0025   0.00    9.4    0.00193    0.00227    0.00859   0.05846  0.05743  0.15757  0.00726 -0.03028 -0.05039
2024/06/24 08:23:53.000   35.134699006  136.977575492   104.8633   1  42   0.0024   0.0024   0.0067   0.0007  -0.0015  -0.0025   0.00    9.7    0.00293   -0.00301    0.00043   0.05847  0.05743  0.15757  0.00724 -0.03027 -0.05039
2024/06/24 08:23:54.000   35.134699007  136.977575486   104.8623   1  42   0.0024   0.0024   0.0067   0.0007  -0.0015  -0.0025   0.00   10.1    0.00316    0.00274    0.00944   0.05847  0.05743  0.15758  0.00722 -0.03026 -0.05039
2024/06/24 08:23:55.000   35.134699010  136.977575486   104.8656   1  42   0.0024   0.0024   0.0067   0.0007  -0.0015  -0.0025   0.00   10.8    0.00257    0.00235    0.01364   0.05847  0.05743  0.15758  0.00721 -0.03025 -0.05039
2024/06/24 08:23:56.000   35.134699002  136.977575489   104.8643   1  42   0.0024   0.0024   0.0067   0.0007  -0.0015  -0.0025   0.00   11.4   -0.00218    0.00195    0.01432   0.05847  0.05743  0.15758  0.00719 -0.03025 -0.05040
2024/06/24 08:23:57.000   35.134699002  136.977575490   104.8627   1  42   0.0024   0.0024   0.0067   0.0007  -0.0015  -0.0025   0.00   10.2    0.00437    0.00184    0.00778   0.05847  0.05743  0.15758  0.00717 -0.03024 -0.05040
2024/06/24 08:23:58.000   35.134699000  136.977575487   104.8658   1  42   0.0024   0.0024   0.0067   0.0007  -0.0015  -0.0025   0.00   10.9    0.00367   -0.00253    0.02587   0.05847  0.05743  0.15759  0.00715 -0.03023 -0.05040
2024/06/24 08:23:59.000   35.134699003  136.977575489   104.8642   1  42   0.0024   0.0024   0.0067   0.0007  -0.0015  -0.0025   0.00   10.1    0.00517   -0.00256    0.00555   0.05847  0.05743  0.15759  0.00713 -0.03022 -0.05040
2024/06/24 08:24:00.000   35.134699007  136.977575488   104.8635   1  42   0.0024   0.0024   0.0067   0.0007  -0.0015  -0.0025   0.00   11.4   -0.00401    0.00102    0.01016   0.05847  0.05742  0.15759  0.00711 -0.03021 -0.05040
2024/06/24 08:24:01.000   35.134699008  136.977575495   104.8626   1  42   0.0024   0.0024   0.0067   0.0007  -0.0015  -0.0025   0.00   12.5   -0.00549   -0.00073    0.00254   0.05847  0.05742  0.15759  0.00710 -0.03020 -0.05041
2024/06/24 08:24:02.000   35.134699005  136.977575482   104.8638   1  42   0.0024   0.0024   0.0067   0.0007  -0.0015  -0.0025   0.00   10.2    0.00240   -0.00750   -0.00253   0.05847  0.05742  0.15759  0.00708 -0.03020 -0.05041
2024/06/24 08:24:03.000   35.134699006  136.977575492   104.8641   1  42   0.0024   0.0024   0.0066   0.0008  -0.0016  -0.0024   0.00   11.0   -0.00154   -0.00168   -0.00543   0.05847  0.05742  0.15760  0.00706 -0.03019 -0.05041
2024/06/24 08:24:04.000   35.134699008  136.977575491   104.8648   1  42   0.0024   0.0024   0.0067   0.0007  -0.0015  -0.0025   0.00    9.0    0.00134    0.00420   -0.01131   0.05847  0.05742  0.15760  0.00704 -0.03018 -0.05041
2024/06/24 08:24:05.000   35.134699007  136.977575486   104.8641   1  42   0.0024   0.0024   0.0067   0.0007  -0.0015  -0.0025   0.00   10.6    0.00109    0.00110   -0.01028   0.05847  0.05742  0.15760  0.00702 -0.03017 -0.05041
2024/06/24 08:24:06.000   35.134699002  136.977575488   104.8640   1  42   0.0024   0.0024   0.0067   0.0007  -0.0015  -0.0025   0.00   11.8    0.00257   -0.00317   -0.00537   0.05847  0.05742  0.15760  0.00700 -0.03016 -0.05041
2024/06/24 08:24:07.000   35.134699005  136.977575490   104.8618   1  42   0.0024   0.0024   0.0067   0.0007  -0.0015  -0.0025   0.00   10.1    0.00856    0.00266   -0.01806   0.05847  0.05742  0.15760  0.00698 -0.03015 -0.05042
2024/06/24 08:24:08.000   35.134699005  136.977575494   104.8637   1  42   0.0024   0.0024   0.0067   0.0007  -0.0015  -0.0025   0.00    8.0    0.00954   -0.00007   -0.00351   0.05847  0.05742  0.15761  0.00697 -0.03014 -0.05042
2024/06/24 08:24:09.000   35.134699011  136.977575488   104.8618   1  42   0.0024   0.0024   0.0067   0.0007  -0.0015  -0.0025   0.00   11.8    0.00517    0.00258   -0.01308   0.05847  0.05742  0.15761  0.00695 -0.03014 -0.05042
2024/06/24 08:24:10.000   35.134699007  136.977575492   104.8652   1  42   0.0024   0.0024   0.0067   0.0007  -0.0015  -0.0025   0.00    8.7    0.00258    0.00507   -0.00110   0.05847  0.05742  0.15761  0.00693 -0.03013 -0.05042
2024/06/24 08:24:11.000   35.134698998  136.977575486   104.8618   1  42   0.0024   0.0024   0.0067   0.0007  -0.0015  -0.0025   0.00   11.0    0.00013    0.00325    0.00983   0.05848  0.05742  0.15761  0.00691 -0.03012 -0.05042
2024/06/24 08:24:12.000   35.134699005  136.977575488   104.8624   1  42   0.0024   0.0024   0.0067   0.0007  -0.0015  -0.0025   0.00   12.1   -0.00080   -0.00429   -0.00359   0.05848  0.05741  0.15761  0.00689 -0.03011 -0.05042
2024/06/24 08:24:13.000   35.134699013  136.977575492   104.8621   1  42   0.0024   0.0024   0.0067   0.0007  -0.0015  -0.0025   0.00   12.5    0.00176   -0.00237    0.00434   0.05848  0.05741  0.15762  0.00687 -0.03010 -0.05043
2024/06/24 08:24:14.000   35.134699005  136.977575492   104.8630   1  42   0.0024   0.0024   0.0067   0.0007  -0.0015  -0.0025   0.00   11.4    0.00298    0.00435   -0.00035   0.05848  0.05741  0.15762  0.00685 -0.03009 -0.05043
2024/06/24 08:24:15.000   35.134699007  136.977575489   104.8628   1  42   0.0024   0.0024   0.0067   0.0007  -0.0015  -0.0025   0.00   10.1   -0.00044    0.00063    0.00581   0.05848  0.05741  0.15762  0.00683 -0.03008 -0.05043
