     3.03           OBSERVATION DATA    M: Mixed            RINEX VERSION / TYPE
                                        20240618 035837 UTC PGM / RUN BY / DATE 
                                                            MARKER NAME         
                                                            MARKER NUMBER       
                                                            MARKER TYPE         
                                                            OBSERVER / AGENCY   
                                                            REC # / TYPE / VERS 
                                                            ANT # / TYPE        
 -3937816.0244  3354851.9908  3718428.4550                  APPROX POSITION XYZ 
        0.0000        0.0000        0.0000                  ANTENNA: DELTA H/E/N
G    6 C1C L1C S1C C2W L2W S2W                              SYS / # / OBS TYPES 
R    6 C1C L1C S1C C2C L2C S2C                              SYS / # / OBS TYPES 
E    6 C1X L1X S1X C8X L8X S8X                              SYS / # / OBS TYPES 
J    9 C1C L1C S1C C2X L2X S2X C5X L5X S5X                  SYS / # / OBS TYPES 
C    6 C7I L7I S7I C2I L2I S2I                              SYS / # / OBS TYPES 
  2018    08    30    02    03   00.0000000     GPS         TIME OF FIRST OBS   
  2018    08    30    02    13   00.0000000     GPS         TIME OF LAST OBS    
G L1C                                                       SYS / PHASE SHIFT   
G L2W  0.00000                                              SYS / PHASE SHIFT   
R L1C                                                       SYS / PHASE SHIFT   
R L2C                                                       SYS / PHASE SHIFT   
E L1X  0.00000                                              SYS / PHASE SHIFT   
E L8X  0.00000                                              SYS / PHASE SHIFT   
J L1C                                                       SYS / PHASE SHIFT   
J L2X  0.00000                                              SYS / PHASE SHIFT   
J L5X  0.00000                                              SYS / PHASE SHIFT   
C L7I                                                       SYS / PHASE SHIFT   
C L2I                                                       SYS / PHASE SHIFT   
  0                                                         GLONASS SLOT / FRQ #
 C1C    0.000 C1P    0.000 C2C    0.000 C2P    0.000        GLONASS COD/PHS/BIS 
                                                            END OF HEADER       
> 2018 08 30 02 03 00.0000000  0 30                     
G01  21150644.742   111147388.448          43.250    21150650.695    86608377.712          31.500  
G03  20393247.172   107167232.473          46.000    20393252.633    83506960.418          34.000  
G11  21424218.625   112585030.189          43.000    21424222.355    87728603.718          27.500  
G17  22496998.492   118222522.878          45.500    22497000.777    92121446.190          31.750  
G18  22633315.242   118938875.975          41.500    22633320.773    92679642.669          25.000  
G19  24354960.969   127986204.689          37.500    24354962.133    99729500.551          18.250  
G22  21131088.000   111044616.014          43.500    21131088.441    86528270.220          29.500  
G28  20751772.125   109051300.031          42.500    20751774.496    84975048.246          30.750  
R02  23102564.016   123279684.749          39.500    23102571.168    95884213.825          37.750  
R03  20420524.227   109312660.201          44.250    20420528.867    85020955.583          39.000  
R04  21336586.141   114256450.783          40.500    21336592.168    88866129.909          40.750  
R09  21554860.500   115101745.428          42.250    21554863.961    89523579.388          40.000  
R10  23482309.227   125173847.271          31.500    23482310.930    97357505.205          30.000  
R16  22614269.422   120801366.877          34.750    22614274.453    93956639.360          35.250  
R19  20669664.094   110568756.182          41.500    20669667.480    85997925.556          38.000  
E04  25959175.617   136416390.174          43.750    25959177.715   103198120.301          43.250  
E11  23033146.883   121040003.545          43.500    23033145.125    91565976.586          40.500  
E12  22755089.539   119578799.898          41.500    22755088.508    90460584.743          42.500  
E19  25651126.602   134797532.965          38.500    25651127.438   101973497.057          36.000  
E24  23669656.836   124384882.853          44.500    23669669.992    94096407.332          41.750  
E25  24669018.836   129636566.848          43.750    24669021.504    98069231.495          41.500  
J01  36896679.734   193893354.377          42.000    36896680.668   151085731.880          35.250    36896683.637   144790493.058          37.250  
C01  37053777.434   149200244.202          37.250    37053786.375   192948791.562          39.500  
C03  37847988.891   152397998.881          26.750    37847999.109   197084490.953          36.250  
C04  37395048.023   150574193.696          29.500    37395054.750   194725853.157          37.000  
C07  37335928.230   150336345.168          36.000    37335937.852   194418018.857          41.000  
C08  36727879.070   147887949.815          38.500    36727887.469   191251750.344          40.000  
C10  37108353.953   149419800.450          37.000    37108359.344   193232954.606          40.000  
C13  38349589.055   154417906.822          34.750    38349589.484   199696376.879          39.250  
C17  36937676.520   148732548.179          27.000    36937682.773   192344214.460          39.000  
> 2018 08 30 02 03 01.0000000  0 30                     
G01  21151073.164   111149636.213          43.500    21151078.520    86610129.223          31.750  
G03  20393161.961   107166784.222          46.500    20393167.441    83506611.125          34.000  
G11  21424655.078   112587319.021          43.500    21424657.828    87730387.230          27.000  
G17  22496611.508   118220490.539          46.250    22496614.086    92119862.548          32.000  
G18  22633920.945   118942056.089          41.250    22633926.008    92682120.663          24.500  
G19  24354435.234   127983440.636          37.250    24354436.074    99727346.744          18.500  
G22  21131352.281   111046002.944          43.500    21131352.309    86529350.946          29.500  
G28  20751833.703   109051621.708          43.000    20751835.609    84975298.897          30.000  
R02  23103221.930   123283197.336          39.500    23103228.871    95886945.829          38.250  
R03  20420559.844   109312852.553          44.500    20420564.578    85021105.190          39.750  
R04  21335948.094   114253036.882          40.500    21335954.496    88863474.649          41.500  
R09  21555059.961   115102815.174          42.500    21555064.461    89524411.415          40.750  
R10  23481925.375   125171801.218          31.500    23481926.852    97355913.821          29.750  
R16  22615037.953   120805472.365          34.750    22615042.863    93959832.520          36.000  
R19  20669480.586   110567768.384          42.000    20669482.512    85997157.260          38.750  
E04  25958746.563   136414135.071          44.000    25958748.590   103196414.337          44.000  
E11  23033032.258   121039401.492          43.250    23033030.570    91565521.132          41.500  
E12  22755322.328   119580021.287          41.500    22755320.930    90461508.710          43.250  
E19  25651118.219   134797489.979          38.500    25651119.262   101973464.531          37.000  
E24  23670218.383   124387834.436          44.250    23670231.668    94098640.184          42.750  
E25  24669174.273   129637384.148          44.000    24669177.035    98069849.772          42.500  
J01  36896753.805   193893744.522          42.500    36896754.582   151086035.890          36.000    36896757.887   144790784.395          37.750  
C01  37053846.617   149200522.654          37.500    37053855.664   192949151.669          39.750  
C03  37848054.285   152398262.1951         28.000    37848065.148   197084832.168          36.000  
C04  37395112.656   150574453.9461         29.500    37395119.617   194726189.262          37.000  
C07  37336291.086   150337806.327          36.500    37336300.547   194419908.458          41.250  
C08  36727935.992   147888179.134          39.250    36727943.789   191252046.912          40.500  
C10  37108633.945   149420927.832          38.000    37108639.070   193234412.564          40.000  
C13  38349613.949   154418006.509          34.750    38349614.594   199696505.798          39.250  
C17  36937743.090   148732816.2291         26.500    36937749.406   192344561.246          38.750  
> 2018 08 30 02 03 02.0000000  0 30                     
G01  21151500.273   111151883.634          43.250    21151506.117    86611880.458          30.750  
G03  20393076.656   107166336.075          47.000    20393082.023    83506261.923          32.750  
G11  21425090.164   112589607.554          43.250    21425093.293    87732170.502          26.500  
G17  22496225.047   118218457.714          46.500    22496227.277    92118278.521          31.500  
G18  22634525.484   118945235.705          41.500    22634531.129    92684598.285          23.500  
G19  24353909.094   127980675.958          37.500    24353909.801    99725192.462          18.250  
G22  21131616.227   111047389.860          43.250    21131616.453    86530431.658          29.250  
G28  20751894.859   109051943.437          42.750    20751896.648    84975549.601          30.500  
R02  23103880.000   123286709.866          39.500    23103887.652    95889677.795          38.000  
R03  20420597.578   109313045.211          44.500    20420600.672    85021255.038          40.500  
R04  21335311.109   114249622.824          40.000    21335316.938    88860819.269          42.000  
R09  21555261.680   115103885.166          42.750    21555265.168    89525243.629          41.250  
R10  23481540.445   125169755.331          30.750    23481543.309    97354322.579          31.000  
R16  22615807.242   120809577.452          35.250    22615811.234    93963025.360          35.500  
R19  20669294.281   110566780.147          42.500    20669298.027    85996388.635          39.500  
E04  25958317.406   136411879.576          44.500    25958319.387   103194708.068          44.250  
E11  23032917.523   121038798.944          43.500    23032915.898    91565065.302          41.500  
E12  22755554.438   119581242.158          41.500    22755553.242    90462432.290          43.500  
E19  25651109.742   134797446.879          38.750    25651111.047   101973431.930          36.500  
E24  23670779.828   124390785.653          44.500    23670793.262    94100872.758          42.750  
E25  24669329.898   129638201.390          44.000    24669332.531    98070468.009          42.500  
J01  36896828.266   193894134.201          42.500    36896828.898   151086339.537          36.000    36896832.031   144791075.382          38.000  
C01  37053915.473   149200800.700          37.500    37053924.852   192949511.242          39.500  
C03  37848119.625   152398525.2921         24.750    37848129.711   197085172.812          36.000  
C04  37395177.000   150574713.0331         29.500    37395184.297   194726524.803          37.000  
C07  37336653.801   150339267.171          37.000    37336662.711   194421797.653          40.750  
C08  36727993.066   147888408.023          39.000    36728001.281   191252342.911          40.500  
C10  37108913.973   149422054.948          37.750    37108919.195   193235870.177          40.000  
C13  38349638.629   154418105.766          35.000    38349638.758   199696634.152          39.500  
C17  36937809.430   148733083.3531         23.250    36937815.813   192344907.479          39.000  
> 2018 08 30 02 03 03.0000000  0 30                     
G01  21151927.805   111154130.818          43.750    21151933.758    86613631.516          32.000  
G03  20392991.094   107165888.121          46.500    20392996.781    83505912.868          33.500  
G11  21425525.961   112591895.861          43.500    21425528.801    87733953.600          27.750  
G17  22495838.344   118216424.502          47.000    22495840.316    92116694.199          31.500  
G18  22635130.727   118948414.975          41.250    22635136.230    92687075.642          22.250  
G19  24353382.625   127977910.830          36.750    24353383.543    99723037.838          18.250  
G22  21131880.102   111048776.883          43.250    21131880.352    86531512.462          30.250  
G28  20751956.156   109052265.338          43.500    20751958.016    84975800.431          30.250  
R02  23104539.992   123290222.432          39.750    23104545.793    95892409.790          38.750  
R03  20420631.898   109313238.299          45.000    20420636.750    85021405.226          40.500  
R04  21334673.648   114246208.711          40.500    21334679.223    88858163.848          41.500  
R09  21555461.328   115104955.488          43.000    21555465.633    89526076.101          41.500  
R10  23481156.680   125167709.646          30.500    23481159.434    97352731.477          30.750  
R16  22616575.727   120813682.321          34.750    22616579.504    93966218.032          35.500  
R19  20669110.422   110565791.581          42.750    20669113.270    85995619.750          39.500  
E04  25957888.328   136409623.795          44.500    25957890.137   103193001.590          44.000  
E11  23032802.977   121038196.020          43.750    23032801.188    91564609.193          41.500  
E12  22755786.867   119582462.662          41.500    22755785.512    90463355.594          43.000  
E19  25651101.734   134797403.784          38.500    25651102.855   101973399.325          37.000  
E24  23671341.305   124393736.637          44.500    23671354.836    94103105.165          43.500  
E25  24669485.367   129639018.650          44.000    24669488.063    98071086.268          43.000  
J01  36896901.594   193894523.520          42.500    36896902.809   151086642.901          36.000    36896906.125   144791366.114          37.500  
C01  37053984.320   149201078.391          37.500    37053993.906   192949870.363          39.500  
C03  37848185.141   152398789.0981         28.000    37848194.266   197085513.004          36.000  
C04  37395241.125   150574971.2371         28.500    37395248.547   194726859.920          37.000  
C07  37337016.703   150340727.747          37.000    37337025.969   194423686.489          40.750  
C08  36728050.000   147888636.535          39.500    36728057.734   191252638.421          40.750  
C10  37109193.902   149423181.813          38.000    37109199.016   193237327.460          40.000  
C13  38349663.313   154418204.647          34.500    38349662.867   199696762.034          39.500  
C17  36937875.848   148733350.7901         26.500    36937882.070   192345253.277          38.750  
> 2018 08 30 02 03 04.0000000  0 30                     
G01  21152355.461   111156377.486          44.250    21152361.266    86615382.176          31.250  
G03  20392906.148   107165440.117          47.250    20392911.629    83505563.778          34.250  
G11  21425961.625   112594183.708          43.750    21425964.176    87735736.334          28.000  
G17  22495450.961   118214390.655          47.000    22495453.340    92115109.393          31.750  
G18  22635735.086   118951593.602          41.000    22635741.152    92689552.483          23.500  
G19  24352856.703   127975144.981          36.750    24352857.285    99720882.655          18.250  
G22  21132144.133   111050163.746          43.500    21132144.398    86532593.130          29.750  
G28  20752017.758   109052587.127          43.000    20752019.234    84976051.178          29.750  
R02  23105196.414   123293734.834          39.500    23105204.098    95895141.662          39.250  
R03  20420667.477   109313431.530          44.500    20420672.699    85021555.527          40.750  
R04  21334036.328   114242794.265          40.000    21334041.809    88855508.169          41.750  
R09  21555660.563   115106025.919          42.500    21555665.879    89526908.670          41.500  
R10  23480770.922   125165663.964          29.750    23480775.555    97351140.410          31.500  
R16  22617343.813   120817786.663          34.750    22617348.074    93969410.296          36.000  
R19  20668925.234   110564802.435          42.750    20668928.301    85994850.418          40.250  
E04  25957458.586   136407367.408          44.500    25957460.770   103191294.654          44.500  
E11  23032687.898   121037592.467          44.250    23032686.328    91564152.610          42.250  
E12  22756018.914   119583682.505          41.500    22756017.629    90464278.404          43.750  
E19  25651093.227   134797360.436          39.000    25651094.598   101973366.535          36.750  
E24  23671902.578   124396687.100          44.500    23671916.297    94105337.171          43.750  
E25  24669640.547   129639835.675          44.500    24669643.547    98071704.347          43.750  
J01  36896976.203   193894912.210          42.500    36896977.031   151086945.781          37.000    36896980.109   144791656.368          38.250  
C01  37054053.547   149201355.543          37.500    37054063.016   192950228.774          39.750  
C03  37848250.387   152399051.8171         27.750    37848259.781   197085852.521          36.000  
C04  37395305.418   150575230.1191         29.000    37395313.102   194727194.313          37.000  
C07  37337379.258   150342187.846          37.500    37337388.891   194425574.724          41.000  
C08  36728106.426   147888864.443          39.750    36728114.313   191252933.156          41.000  
C10  37109473.309   149424308.252          38.250    37109478.484   193238784.195          40.250  
C13  38349687.652   154418303.010          34.750    38349688.102   199696889.233          39.250  
C17  36937942.059   148733617.3951         28.000    36937948.922   192345598.362          38.750  
> 2018 08 30 02 03 05.0000000  0 30                     
G01  21152783.063   111158624.260          44.250    21152788.945    86617132.897          31.500  
G03  20392821.375   107164992.686          47.250    20392826.438    83505215.127          34.250  
G11  21426396.305   112596471.713          43.500    21426399.594    87737519.183          28.000  
G17  22495064.078   118212356.797          47.500    22495066.395    92113524.558          32.000  
G18  22636340.430   118954772.246          41.000    22636345.891    92692029.351          24.000  
G19  24352330.633   127972379.032          36.750    24352331.082    99718727.344          18.250  
G22  21132408.234   111051551.087          43.250    21132408.363    86533674.170          30.000  
G28  20752078.984   109052909.451          43.250    20752080.551    84976302.328          30.750  
R02  23105854.633   123297247.709          39.250    23105862.207    95897873.903          39.500  
R03  20420703.445   109313625.544          44.500    20420708.770    85021706.432          40.750  
R04  21333399.055   114239380.117          40.000    21333404.027    88852852.722          42.250  
R09  21555861.625   115107097.130          42.750    21555866.609    89527741.829          42.250  
R10  23480386.688   125163618.835          29.500    23480391.828    97349549.756          29.750  
R16  22618111.602   120821891.088          35.000    22618116.379    93972602.626          35.500  
R19  20668739.367   110563813.310          43.000    20668743.680    85994081.094          40.750  
E04  25957029.383   136405111.106          45.000    25957031.418   103189587.773          45.000  
E11  23032573.266   121036988.898          44.250    23032571.473    91563696.013          42.500  
E12  22756250.945   119584902.362          42.250    22756249.770    90465201.215          44.250  
E19  25651085.125   134797317.474          38.500    25651086.418   101973334.027          37.000  
E24  23672464.242   124399637.699          44.500    23672477.777    94107569.278          44.500  
E25  24669796.461   129640653.099          44.500    24669799.090    98072322.710          44.500  
J01  36897050.094   193895300.903          42.500    36897051.289   151087248.653          36.500    36897054.047   144791946.622          38.000  
C01  37054122.227   149201632.637          38.000    37054131.367   192950587.120          39.500  
C03  37848315.344   152399313.3721         26.250    37848324.594   197086191.920          36.250  
C04  37395369.559   150575488.3881         28.500    37395377.109   194727528.622          37.250  
C07  37337741.961   150343647.969          37.500    37337751.539   194427462.991          41.000  
C08  36728163.172   147889092.272          40.250    36728170.656   191253227.795          41.000  
C10  37109753.238   149425434.777          38.250    37109758.336   193240241.030          40.250  
C13  38349711.953   154418401.260          35.000    38349712.719   199697016.298          39.250  
C17  36938008.383   148733884.4541         26.500    36938015.211   192345943.349          38.750  
> 2018 08 30 02 03 06.0000000  0 30                     
G01  21153210.906   111160870.787          44.000    21153216.324    86618883.434          31.000  
G03  20392735.719   107164545.456          47.250    20392741.387    83504866.640          34.250  
G11  21426831.703   112598759.523          43.500    21426834.953    87739301.896          27.750  
G17  22494676.594   118210322.578          47.500    22494679.242    92111939.450          32.000  
G18  22636945.125   118957950.537          41.000    22636950.473    92694505.944          23.250  
G19  24351803.547   127969612.641          37.000    24351804.781    99716571.713          18.500  
G22  21132672.227   111052938.554          43.500    21132672.488    86534755.314          30.250  
G28  20752140.172   109053231.934          43.250    20752142.004    84976553.612          30.250  
R02  23106513.898   123300760.685          39.250    23106520.758    95900606.214          39.750  
R03  20420740.148   109313820.013          44.500    20420745.063    85021857.687          41.500  
R04  21332760.141   114235965.963          40.500    21332766.289    88850197.269          42.500  
R09  21556063.133   115108168.716          43.000    21556066.910    89528575.281          42.750  
R10  23480002.922   125161573.923          29.500    23480008.191    97347959.276          29.500  
R16  22618879.492   120825995.305          35.250    22618884.781    93975794.788          35.750  
R19  20668555.500   110562823.888          42.750    20668558.910    85993311.545          40.750  
E04  25956600.125   136402854.542          45.000    25956602.008   103187880.696          45.000  
E11  23032458.266   121036384.972          44.000    23032456.566    91563239.153          42.750  
E12  22756483.203   119586121.844          41.750    22756481.820    90466123.740          44.500  
E19  25651076.664   134797274.511          38.250    25651078.238   101973301.527          37.250  
E24  23673025.516   124402588.075          44.750    23673039.223    94109801.217          44.750  
E25  24669951.789   129641470.552          44.500    24669954.625    98072941.109          44.500  
J01  36897123.688   193895689.263          42.500    36897125.176   151087551.271          36.500    36897127.914   144792236.639          38.500  
C01  37054190.973   149201909.390          38.000    37054200.039   192950945.028          39.500  
C03  37848380.578   152399576.0421         25.500    37848389.906   197086530.909          36.250  
C04  37395433.680   150575746.5761         29.250    37395441.594   194727862.515          37.000  
C07  37338104.383   150345107.874          38.000    37338113.516   194429350.973          40.250  
C08  36728219.539   147889319.766          40.250    36728227.391   191253521.983          40.750  
C10  37110032.859   149426561.066          38.500    37110038.102   193241697.576          40.000  
C13  38349736.496   154418499.183          34.500    38349736.383   199697142.923          39.500  
C17  36938074.492   148734150.6471         27.250    36938081.172   192346287.926          39.000  
> 2018 08 30 02 03 07.0000000  0 30                     
G01  21153638.523   111163117.231          43.750    21153643.813    86620633.915          32.000  
G03  20392651.023   107164098.592          46.500    20392656.352    83504518.429          34.250  
G11  21427266.977   112601047.259          44.250    21427270.223    87741084.550          26.500  
G17  22494289.648   118208288.113          47.750    22494292.090    92110354.154          32.000  
G18  22637550.109   118961128.623          41.250    22637555.043    92696982.372          24.500  
G19  24351277.023   127966845.893          37.500    24351278.289    99714415.802          18.250  
G22  21132935.898   111054326.244          43.500    21132936.543    86535836.638          30.500  
G28  20752201.875   109053554.713          43.250    20752203.465    84976805.135          29.500  
R02  23107172.500   123304273.895          39.000    23107178.648    95903338.710          40.000  
R03  20420776.156   109314015.069          44.500    20420781.539    85022009.410          41.500  
R04  21332123.531   114232551.916          41.000    21332128.344    88847541.904          42.500  
R09  21556263.078   115109240.792          42.500    21556267.742    89529409.118          42.750  
R10  23479618.758   125159529.439          30.250    23479624.422    97346369.130          30.000  
R16  22619649.227   120830099.373          34.500    22619652.867    93978986.845          35.750  
R19  20668370.203   110561834.279          43.000    20668373.934    85992541.841          40.750  
E04  25956170.453   136400597.798          45.000    25956172.551   103186173.485          45.250  
E11  23032343.055   121035780.800          44.000    23032341.598    91562782.094          42.500  
E12  22756715.164   119587341.063          42.500    22756713.824    90467046.075          44.250  
E19  25651068.750   134797231.690          38.250    25651070.082   101973269.125          37.500  
E24  23673587.219   124405538.313          45.000    23673600.637    94112033.044          44.250  
E25  24670107.539   129642288.180          45.000    24670110.207    98073559.640          43.750  
J01  36897198.094   193896077.394          42.750    36897198.965   151087853.707          35.750    36897201.750   144792526.473          38.500  
C01  37054259.379   149202185.904          38.250    37054268.617   192951302.623          39.500  
C03  37848445.637   152399838.0081         26.500    37848454.516   197086869.578          36.000  
C04  37395497.613   150576004.0081         29.000    37395505.500   194728196.102          36.750  
C07  37338466.992   150346567.591          37.500    37338476.070   194431238.714          40.500  
C08  36728276.188   147889546.956          40.250    36728284.313   191253815.790          40.500  
C10  37110312.676   149427687.245          38.750    37110317.945   193243153.976          39.500  
C13  38349760.582   154418596.858          34.500    38349760.445   199697269.250          39.250  
C17  36938140.574   148734416.7321         26.250    36938146.883   192346632.181          38.750  
> 2018 08 30 02 03 08.0000000  0 30                     
G01  21154065.930   111165363.573          44.000    21154071.152    86622384.309          32.000  
G03  20392565.859   107163652.062          46.750    20392571.395    83504170.485          35.000  
G11  21427702.555   112603334.929          43.500    21427705.566    87742867.145          28.250  
G17  22493902.820   118206253.397          47.500    22493904.855    92108768.661          31.250  
G18  22638155.375   118964306.426          41.250    22638159.781    92699458.568          23.250  
G19  24350750.469   127964078.851          36.750    24350751.813    99712259.666          19.000  
G22  21133200.313   111055714.204          43.500    21133200.590    86536918.169          30.000  
G28  20752263.148   109053877.798          43.250    20752265.086    84977056.895          30.000  
R02  23107830.063   123307787.335          38.500    23107837.004    95906071.390          40.000  
R03  20420812.781   109314210.744          45.000    20420818.047    85022161.611          42.000  
R04  21331485.945   114229137.900          41.250    21331490.918    88844886.560          42.500  
R09  21556463.766   115110313.393          42.500    21556468.520    89530243.367          43.000  
R10  23479236.930   125157485.279          31.500    23479241.297    97344779.235          29.250  
R16  22620417.164   120834203.332          34.500    22620421.238    93982178.808          35.500  
R19  20668184.555   110560844.477          42.500    20668188.977    85991772.002          41.000  
E04  25955741.125   136398340.917          44.750    25955743.105   103184466.174          45.500  
E11  23032227.992   121035176.400          44.000    23032226.578    91562324.874          42.750  
E12  22756947.344   119588560.091          42.500    22756945.801    90467968.264          44.500  
E19  25651060.633   134797189.033          38.500    25651061.965   101973236.853          36.750  
E24  23674148.539   124408488.494          44.500    23674162.039    94114264.845          44.750  
E25  24670263.344   129643105.977          45.000    24670265.848    98074178.298          44.500  
J01  36897271.391   193896465.305          43.500    36897272.668   151088155.980          36.000    36897275.586   144792816.148          38.500  
C01  37054328.039   149202462.186          38.500    37054337.297   192951659.918          39.500  
C03  37848510.508   152400099.2161         28.000    37848519.281   197087207.953          36.000  
C04  37395561.617   150576261.7261         29.250    37395569.273   194728529.369          36.750  
C07  37338829.387   150348027.193          37.500    37338838.297   194433126.301          40.750  
C08  36728332.281   147889773.913          40.250    36728340.680   191254109.293          40.500  
C10  37110592.469   149428813.315          39.000    37110597.258   193244610.236          39.250  
C13  38349784.738   154418694.267          34.250    38349784.516   199697395.226          39.250  
C17  36938206.555   148734682.4101         27.000    36938213.125   192346976.151          39.000  
> 2018 08 30 02 03 09.0000000  0 30                     
G01  21154493.141   111167609.825          44.250    21154498.672    86624134.644          31.250  
G03  20392481.086   107163205.896          46.500    20392486.516    83503822.824          34.000  
G11  21428138.273   112605622.564          44.000    21428140.965    87744649.712          27.500  
G17  22493515.055   118204218.482          47.250    22493517.574    92107183.017          31.750  
G18  22638759.188   118967484.049          41.250    22638764.449    92701934.661          22.500  
G19  24350224.797   127961311.492          36.000    24350225.313    99710103.297          18.250  
G22  21133464.672   111057102.438          43.750    21133464.742    86537999.903          30.250  
G28  20752324.398   109054201.203          43.500    20752326.617    84977308.902          30.000  
R02  23108488.367   123311301.035          38.500    23108495.520    95908804.269          40.500  
R03  20420849.344   109314407.045          44.500    20420854.977    85022314.296          42.250  
R04  21330848.367   114225724.030          41.500    21330853.699    88842231.331          42.500  
R09  21556665.266   115111386.544          42.750    21556669.336    89531078.047          43.000  
R10  23478854.547   125155441.581          30.750    23478857.758    97343189.698          29.500  
R16  22621184.953   120838307.184          34.500    22621189.555    93985370.693          36.000  
R19  20668000.195   110559854.533          42.750    20668004.008    85991002.044          41.250  
E04  25955311.555   136396083.899          44.750    25955313.617   103182758.758          45.750  
E11  23032113.000   121034571.790          43.750    23032111.543    91561867.491          42.750  
E12  22757179.078   119589778.860          42.250    22757177.738    90468890.253          44.750  
E19  25651052.891   134797146.522          38.250    25651053.883   101973204.692          37.250  
E24  23674709.922   124411438.571          44.500    23674723.434    94116496.551          44.500  
E25  24670418.742   129643923.959          44.750    24670421.508    98074797.097          44.250  
J01  36897345.438   193896853.017          43.250    36897346.484   151088458.094          36.750    36897349.402   144793105.671          39.000  
C01  37054396.570   149202738.271          38.500    37054406.055   192952016.958          39.750  
C03  37848575.527   152400361.0211         26.500    37848584.242   197087546.045          36.000  
C04  37395625.340   150576518.3121         28.250    37395633.344   194728862.379          37.000  
C07  37339191.730   150349486.643          37.500    37339200.266   194435013.685          41.000  
C08  36728388.547   147890000.590          40.500    36728396.797   191254402.444          41.000  
C10  37110872.102   149429939.288          38.750    37110876.891   193246066.362          39.500  
C13  38349808.371   154418791.479          34.750    38349808.836   199697520.941          39.500  
C17  36938272.445   148734947.7221         25.500    36938279.297   192347319.810          39.000  
> 2018 08 30 02 03 10.0000000  0 30                     
G01  21154920.602   111169855.980          44.500    21154926.227    86625884.888          32.000  
G03  20392396.039   107162760.097          46.750    20392401.680    83503475.447          34.250  
G11  21428573.211   112607910.165          44.250    21428576.133    87746432.254          28.250  
G17  22493127.984   118202183.342          47.250    22493130.223    92105597.184          31.500  
G18  22639363.766   118970661.479          41.500    22639369.094    92704410.581          24.250  
G19  24349697.508   127958543.810          36.000    24349698.660    99707946.659          18.250  
G22  21133728.406   111058490.927          43.250    21133728.965    86539081.845          30.500  
G28  20752386.609   109054524.907          43.500    20752388.219    84977561.126          30.500  
R02  23109147.445   123314814.955          39.000    23109154.227    95911537.312          40.750  
R03  20420885.703   109314603.957          44.500    20420891.285    85022467.458          42.500  
R04  21330211.094   114222310.295          41.500    21330216.363    88839576.213          43.000  
R09  21556866.586   115112460.193          42.750    21556870.027    89531913.105          43.000  
R10  23478471.164   125153398.232          30.250    23478474.523    97341600.430          29.500  
R16  22621952.523   120842410.943          34.500    22621958.430    93988562.502          36.250  
R19  20667815.984   110558864.455          43.000    20667818.574    85990231.989          41.250  
E04  25954882.023   136393826.743          45.000    25954884.086   103181051.238          46.000  
E11  23031998.109   121033966.970          43.250    23031996.449    91561409.953          42.750  
E12  22757410.938   119590997.445          42.500    22757409.629    90469812.104          45.000  
E19  25651044.680   134797104.203          38.500    25651045.840   101973172.678          37.000  
E24  23675271.336   124414388.579          44.750    23675284.793    94118728.211          44.750  
E25  24670574.344   129644742.143          45.000    24670577.215    98075416.048          44.750  
J01  36897419.398   193897240.547          42.750    36897420.328   151088760.063          36.750    36897423.207   144793395.061          39.250  
C01  37054465.098   149203014.120          38.750    37054474.078   192952373.688          39.750  
C03  37848640.563   152400622.8941         27.500    37848649.078   197087883.850          35.500  
C04  37395689.180   150576775.3691         29.500    37395697.063   194729195.078          36.750  
C07  37339553.828   150350945.941          37.750    37339562.758   194436900.882          40.500  
C08  36728444.914   147890227.024          40.500    36728452.781   191254695.271          40.750  
C10  37111151.805   149431065.154          39.000    37111156.648   193247522.366          39.500  
C13  38349832.746   154418888.411          34.500    38349832.391   199697646.300          38.750  
C17  36938338.488   148735213.6501         28.000    36938345.234   192347663.191          38.750  
> 2018 08 30 02 03 11.0000000  0 30                     
G01  21155348.297   111172102.147          43.750    21155353.703    86627635.146          31.250  
G03  20392311.688   107162314.700          47.000    20392316.969    83503128.392          33.250  
G11  21429008.578   112610197.771          43.750    21429011.418    87748214.809          26.250  
G17  22492740.758   118200148.043          46.250    22492742.895    92104011.237          32.250  
G18  22639969.383   118973838.773          41.250    22639973.676    92706886.391          22.500  
G19  24349170.625   127955775.908          36.250    24349171.879    99705789.855          18.500  
G22  21133992.992   111059879.741          43.250    21133993.316    86540164.038          29.500  
G28  20752448.188   109054848.998          43.500    20752449.777    84977813.661          29.000  
R02  23109805.664   123318329.189          38.500    23109812.465    95914270.605          40.500  
R03  20420922.320   109314801.547          44.000    20420928.223    85022621.142          42.250  
R04  21329573.531   114218896.740          42.000    21329578.797    88836921.226          42.250  
R09  21557068.898   115113534.407          42.500    21557071.473    89532748.598          42.500  
R10  23478088.867   125151355.353          30.250    23478091.156    97340011.536          29.000  
R16  22622720.664   120846514.634          34.500    22622726.613    93991754.257          35.750  
R19  20667629.906   110557874.288          43.000    20667633.434    85989461.860          40.750  
E04  25954452.492   136391569.496          45.000    25954454.539   103179343.641          46.000  
E11  23031883.195   121033361.980          43.250    23031881.305    91560952.278          42.500  
E12  22757642.547   119592215.847          41.750    22757641.465    90470733.822          45.000  
E19  25651036.992   134797062.089          38.000    25651037.816   101973140.813          37.000  
E24  23675832.570   124417338.532          44.500    23675846.141    94120959.834          45.000  
E25  24670729.977   129645560.595          44.750    24670732.953    98076035.202          44.750  
J01  36897492.492   193897627.891          43.000    36897494.156   151089061.890          36.500    36897496.922   144793684.309          39.000  
C01  37054533.594   149203289.772          38.000    37054542.750   192952730.174          39.500  
C03  37848705.301   152400883.5671         27.250    37848714.117   197088221.432          35.750  
C04  37395753.125   150577032.8491         27.500    37395761.109   194729527.550          36.750  
C07  37339916.266   150352405.146          37.250    37339924.789   194438787.954          40.500  
C08  36728500.922   147890453.256          40.500    36728509.063   191254987.826          40.500  
C10  37111431.055   149432190.990          38.750    37111436.453   193248978.318          39.500  
C13  38349856.535   154418985.201          34.500    38349856.727   199697771.473          39.250  
C17  36938404.543   148735479.6261         26.500    36938411.164   192348006.343          39.000  
> 2018 08 30 02 03 12.0000000  0 29                     
G01  21155775.133   111174347.901          44.500    21155780.941    86629385.085          31.500  
G03  20392226.656   107161869.399          46.750    20392232.156    83502781.401          34.000  
G11  21429444.039   112612485.054          44.250    21429446.652    87749997.106          27.500  
G17  22492353.375   118198112.242          46.750    22492355.512    92102424.908          32.000  
G18  22640573.156   118977015.564          41.250    22640578.352    92709361.805          22.500  
G19  24348644.359   127953007.380          36.500    24348645.016    99703632.572          18.250  
G22  21134257.492   111061268.536          43.000    21134257.602    86541246.220          30.250  
G28  20752509.516   109055173.134          43.750    20752511.566    84978066.242          30.500  
R02  23110464.922   123321843.368          38.500    23110471.180    95917003.863          40.750  
R03  20420959.531   109314999.465          44.500    20420965.453    85022775.086          42.500  
R04  21328935.836   114215483.027          42.500    21328941.375    88834266.116          42.500  
R09  21557269.734   115114608.893          43.250    21557272.703    89533584.307          42.500  
R16  22623489.219   120850618.023          34.500    22623494.996    93994945.785          36.000  
R19  20667444.414   110556883.696          43.250    20667448.121    85988691.403          41.000  
E04  25954022.961   136389311.868          44.500    25954024.910   103177635.762          45.000  
E11  23031767.945   121032756.482          44.250    23031766.078    91560494.227          42.750  
E12  22757874.633   119593433.774          42.250    22757873.211    90471655.173          45.000  
E19  25651028.734   134797019.863          38.500    25651029.789   101973108.863          36.750  
E24  23676393.688   124420288.146          44.500    23676407.426    94123191.194          45.000  
E25  24670885.898   129646378.900          45.000    24670888.660    98076654.244          44.750  
J01  36897566.680   193898014.795          43.250    36897567.750   151089363.372          36.500    36897570.496   144793973.229          38.750  
C01  37054602.086   149203565.009          38.000    37054610.852   192953086.112          39.750  
C03  37848770.207   152401144.9171         25.250    37848778.680   197088558.459          35.500  
C04  37395816.809   150577289.2781         29.000    37395824.984   194729859.445          37.000  
C07  37340278.703   150353864.020          38.000    37340287.539   194440674.605          40.500  
C08  36728557.168   147890679.018          40.750    36728565.258   191255279.790          40.750  
C10  37111710.691   149433316.496          38.000    37111715.711   193250433.852          40.000  
C13  38349880.656   154419081.499          34.750    38349880.984   199697896.011          39.000  
C17  36938470.430   148735744.9261         27.750    36938476.797   192348348.918          38.750  
> 2018 08 30 02 03 13.0000000  0 29                     
G01  21156202.867   111176593.781          44.250    21156208.332    86631135.121          32.250  
G03  20392142.352   107161424.658          47.000    20392147.539    83502434.852          34.500  
G11  21429879.508   112614772.472          44.500    21429881.941    87751779.509          28.000  
G17  22491965.773   118196076.426          46.750    22491968.273    92100838.561          31.750  
G18  22641177.508   118980192.331          41.500    22641182.730    92711837.201          25.250  
G19  24348117.023   127950238.762          34.750    24348118.098    99701475.218          17.500  
G22  21134522.039   111062657.800          42.750    21134522.137    86542328.758          30.500  
G28  20752571.703   109055497.761          43.500    20752573.488    84978319.195          30.500  
R02  23111122.578   123325357.990          38.250    23111129.797    95919737.459          40.750  
R03  20420996.258   109315198.143          44.250    20421002.793    85022929.611          43.000  
R04  21328298.211   114212069.603          42.500    21328303.914    88831611.234          42.250  
R09  21557470.281   115115684.107          42.500    21557474.297    89534420.582          43.250  
R16  22624257.094   120854721.487          34.250    22624263.016    93998137.362          35.750  
R19  20667259.547   110555893.127          43.250    20667263.367    85987920.953          41.250  
E04  25953593.570   136387054.285          44.500    25953595.316   103175927.914          45.500  
E11  23031652.617   121032150.974          43.500    23031650.871    91560036.162          43.000  
E12  22758106.188   119594651.656          42.250    22758104.984    90472576.489          45.250  
E19  25651020.938   134796978.010          39.000    25651021.832   101973077.200          37.000  
E24  23676955.328   124423237.848          44.500    23676968.758    94125422.619          45.000  
E25  24671041.797   129647197.632          45.000    24671044.477    98077273.609          44.500  
J01  36897640.203   193898401.695          42.750    36897641.563   151089664.849          36.500    36897644.094   144794262.146          39.000  
C01  37054670.602   149203840.175          38.500    37054680.172   192953441.956          39.500  
C03  37848835.020   152401405.8921         28.000    37848843.695   197088895.368          35.750  
C04  37395880.324   150577545.0271         29.000    37395887.688   194730191.280          36.750  
C07  37340640.867   150355322.894          37.500    37340649.516   194442561.262          40.500  
C08  36728613.203   147890904.658          40.750    36728621.680   191255571.600          40.750  
C10  37111990.371   149434442.052          38.000    37111994.547   193251889.440          40.000  
C13  38349904.465   154419177.745          35.000    38349904.813   199698020.475          39.500  
C17  36938535.938   148736008.6991         26.000    36938542.898   192348691.423          38.750  
> 2018 08 30 02 03 14.0000000  0 29                     
G01  21156630.406   111178839.614          44.500    21156635.738    86632885.134          32.500  
G03  20392058.039   107160980.305          46.750    20392063.188    83502088.600          34.500  
G11  21430314.172   112617059.895          44.250    21430317.082    87753561.908          27.250  
G17  22491578.625   118194040.409          47.250    22491580.926    92099252.061          31.750  
G18  22641782.109   118983368.922          41.500    22641787.137    92714312.472          24.000  
G19  24347590.148   127947469.866          35.250    24347591.195    99699317.650          17.750  
G22  21134785.672   111064047.359          43.250    21134786.645    86543411.533          31.000  
G28  20752633.508   109055822.761          43.750    20752635.098    84978572.438          29.250  
R02  23111781.820   123328872.868          38.500    23111788.340    95922471.248          40.500  
R03  20421033.773   109315397.469          44.250    20421039.957    85023084.651          43.000  
R04  21327661.023   114208656.327          42.000    21327666.680    88828956.465          42.500  
R09  21557671.664   115116759.863          42.500    21557675.879    89535257.286          43.000  
R16  22625023.969   120858824.865          34.000    22625030.871    94001328.889          35.750  
R19  20667074.539   110554902.415          43.250    20667078.156    85987150.407          41.500  
E04  25953163.500   136384796.582          44.500    25953165.676   103174219.980          45.250  
E11  23031537.195   121031545.283          43.500    23031535.598    91559577.958          42.750  
E12  22758337.680   119595869.358          42.250    22758336.684    90473497.668          45.500  
E19  25651013.227   134796936.322          39.000    25651013.883   101973045.660          37.250  
E24  23677516.375   124426187.519          44.500    23677530.043    94127654.021          45.000  
E25  24671197.586   129648016.541          45.000    24671200.305    98077893.101          44.500  
J01  36897713.563   193898788.405          42.750    36897715.133   151089966.187          36.750    36897717.684   144794550.925          38.750  
C01  37054738.891   149204115.123          38.500    37054748.344   192953797.530          39.500  
C03  37848899.613   152401665.9811         26.250    37848908.352   197089232.041          36.250  
C04  37395943.859   150577800.8561         30.000    37395951.789   194730522.827          37.000  
C07  37341003.203   150356781.650          38.000    37341012.031   194444447.755          40.500  
C08  36728669.219   147891130.098          40.500    36728677.734   191255863.136          40.750  
C10  37112269.746   149435567.526          38.000    37112274.430   193253344.927          39.750  
C13  38349928.336   154419273.774          35.250    38349928.930   199698144.656          38.750  
C17  36938601.617   148736273.1611         28.000    36938608.430   192349033.652          38.750  
> 2018 08 30 02 03 15.0000000  0 29                     
G01  21157057.570   111181085.338          44.250    21157062.938    86634635.043          31.500  
G03  20391973.602   107160536.301          47.250    20391978.488    83501742.630          33.000  
G11  21430749.672   112619347.222          43.750    21430752.328    87755344.243          28.250  
G17  22491191.000   118192004.153          47.500    22491193.320    92097665.365          32.000  
G18  22642386.859   118986545.288          41.000    22642391.332    92716787.567          22.750  
G19  24347062.711   127944700.606          35.250    24347064.359    99697159.771          18.250  
G22  21135050.586   111065437.174          42.750    21135051.012    86544494.504          29.500  
G28  20752695.406   109056148.044          43.500    20752697.078    84978825.906          29.750  
R02  23112440.422   123332388.015          38.500    23112446.703    95925205.258          40.500  
R03  20421071.602   109315597.354          44.250    20421077.055    85023240.123          42.750  
R04  21327025.078   114205243.105          42.000    21327029.090    88826301.729          42.250  
R09  21557873.352   115117836.137          42.750    21557877.055    89536094.389          42.500  
R16  22625791.414   120862928.131          34.250    22625799.074    94004520.308          35.500  
R19  20666888.891   110553911.518          42.750    20666892.805    85986379.704          40.500  
E04  25952734.063   136382538.714          44.500    25952736.035   103172511.916          45.500  
E11  23031422.117   121030939.343          44.000    23031420.293    91559119.571          42.500  
E12  22758569.180   119597086.813          42.500    22758568.379    90474418.664          44.500  
E19  25651005.250   134796894.800          38.750    25651005.977   101973014.249          37.500  
E24  23678077.805   124429137.082          44.750    23678091.332    94129885.353          44.000  
E25  24671353.531   129648835.631          44.500    24671356.180    98078512.741          44.000  
J01  36897787.141   193899174.896          42.250    36897788.477   151090267.355          36.250    36897791.262   144794839.543          39.250  
C01  37054807.211   149204389.864          38.250    37054816.375   192954152.824          39.750  
C03  37848964.098   152401925.6351         27.250    37848973.734   197089568.397          36.500  
C04  37396007.742   150578058.0861         29.000    37396015.930   194730854.065          36.750  
C07  37341365.754   150358240.271          38.000    37341374.039   194446334.071          40.500  
C08  36728725.047   147891355.248          40.500    36728733.445   191256154.292          40.750  
C10  37112549.219   149436692.870          38.750    37112553.203   193254800.244          40.000  
C13  38349952.090   154419369.559          35.250    38349952.508   199698268.531          38.500  
C17  36938667.324   148736537.7361         25.250    36938673.773   192349375.568          39.000  
> 2018 08 30 02 03 16.0000000  0 29                     
G01  21157484.367   111183330.636          44.500    21157490.156    86636384.617          32.000  
G03  20391888.555   107160092.334          47.250    20391893.949    83501396.676          33.750  
G11  21431184.727   112621634.205          43.750    21431187.559    87757126.302          27.250  
G17  22490803.008   118189967.366          47.500    22490805.762    92096078.258          31.750  
G18  22642991.102   118989721.134          41.500    22642995.555    92719262.247          25.500  
G19  24346535.852   127941930.768          35.500    24346537.297    99695001.467          17.500  
G22  21135314.305   111066826.921          42.750    21135315.590    86545577.422          30.250  
G28  20752757.109   109056473.319          43.250    20752759.020    84979079.366          29.750  
R02  23113099.023   123335903.099          38.500    23113105.816    95927939.211          40.750  
R03  20421108.875   109315797.498          44.250    20421114.859    85023395.788          43.000  
R04  21326386.531   114201829.668          42.000    21326391.477    88823646.834          42.000  
R09  21558074.750   115118912.604          43.250    21558078.320    89536931.641          42.500  
R16  22626559.656   120867030.939          33.750    22626566.750    94007711.381          35.750  
R19  20666704.039   110552920.114          43.250    20666707.504    85985608.613          40.750  
E04  25952304.023   136380280.420          44.500    25952306.305   103170803.533          45.250  
E11  23031306.430   121030332.883          44.000    23031304.891    91558660.792          43.000  
E12  22758800.695   119598303.738          42.250    22758799.949    90475339.266          44.750  
E19  25650997.266   134796853.110          39.000    25650998.051   101972982.707          37.500  
E24  23678638.742   124432086.228          45.000    23678652.531    94132116.360          44.250  
E25  24671509.289   129649654.611          44.500    24671512.027    98079132.296          44.250  
J01  36897860.625   193899560.881          42.500    36897861.633   151090568.115          36.500    36897864.699   144795127.775          38.750  
C01  37054875.219   149204664.135          38.000    37054884.063   192954507.520          39.500  
C03  37849028.535   152402185.0961         27.250    37849037.727   197089904.138          36.250  
C04  37396071.441   150578314.5761         27.750    37396079.516   194731184.731          37.000  
C07  37341727.602   150359698.513          38.000    37341736.109   194448219.898          40.250  
C08  36728780.887   147891579.919          40.500    36728789.641   191256444.845          40.750  
C10  37112828.512   149437817.880          38.750    37112832.820   193256255.131          40.250  
C13  38349975.645   154419464.844          35.250    38349976.008   199698391.759          38.500  
C17  36938732.773   148736801.2721         26.500    36938740.016   192349716.903          38.750  
> 2018 08 30 02 03 17.0000000  0 29                     
G01  21157912.383   111185576.148          44.250    21157917.434    86638134.369          31.250  
G03  20391804.359   107159648.993          46.750    20391809.477    83501051.222          33.750  
G11  21431619.992   112623921.404          44.000    21431622.789    87758908.537          27.250  
G17  22490415.625   118187930.629          47.000    22490418.195    92094491.193          31.250  
G18  22643595.438   118992897.049          41.500    22643599.992    92721736.971          23.500  
G19  24346008.367   127939160.862          35.500    24346010.168    99692843.072          18.250  
G22  21135578.844   111068217.197          42.500    21135580.273    86546660.756          30.000  
G28  20752819.055   109056799.184          43.250    20752821.063    84979333.303          29.500  
R02  23113757.938   123339418.686          38.000    23113764.227    95930673.560          40.750  
R03  20421146.367   109315998.493          44.500    20421152.391    85023552.116          43.250  
R04  21325749.648   114198416.629          42.000    21325754.043    88820992.249          42.500  
R09  21558276.953   115119989.896          42.750    21558280.250    89537769.538          42.750  
R16  22627328.344   120871133.944          33.500    22627334.633    94010902.604          35.750  
R19  20666518.664   110551928.837          43.250    20666522.469    85984837.620          41.000  
E04  25951874.438   136378022.229          44.500    25951876.586   103169095.233          45.750  
E11  23031191.375   121029726.473          44.000    23031189.488    91558202.040          43.000  
E12  22759032.398   119599520.709          42.500    22759031.520    90476259.896          45.000  
E19  25650989.461   134796811.868          38.750    25650990.203   101972951.510          37.250  
E24  23679200.391   124435035.566          45.000    23679213.773    94134347.514          44.250  
E25  24671665.297   129650474.035          44.500    24671667.957    98079752.182          44.500  
J01  36897933.586   193899946.892          42.750    36897935.223   151090868.906          37.500    36897938.141   144795416.027          39.000  
C01  37054943.316   149204938.377          38.000    37054952.289   192954862.179          39.500  
C03  37849093.195   152402445.4551         27.250    37849101.492   197090239.871          36.500  
C04  37396134.984   150578570.4371         27.000    37396142.641   194731515.339          37.000  
C07  37342089.770   150361156.785          37.500    37342097.906   194450105.775          40.500  
C08  36728836.742   147891804.529          40.750    36728845.492   191256735.318          40.500  
C10  37113107.793   149438943.006          38.750    37113112.547   193257710.167          40.250  
C13  38349999.324   154419560.128          34.500    38349999.633   199698514.986          38.750  
C17  36938798.340   148737065.2831         26.500    36938805.375   192350058.199          39.000  
> 2018 08 30 02 03 18.0000000  0 29                     
G01  21158339.633   111187821.526          43.500    21158344.648    86639884.018          32.500  
G03  20391720.484   107159205.996          46.500    20391725.266    83500706.021          33.500  
G11  21432055.367   112626208.548          44.000    21432057.875    87760690.720          27.000  
G17  22490028.367   118185893.690          45.750    22490030.570    92092903.968          31.250  
G18  22644199.164   118996072.740          41.250    22644204.266    92724211.529          24.000  
G19  24345482.086   127936390.607          35.000    24345482.785    99690684.459          17.500  
G22  21135843.813   111069607.700          42.500    21135844.914    86547744.261          29.500  
G28  20752881.375   109057125.355          43.500    20752883.164    84979587.451          29.750  
R02  23114416.930   123342934.490          37.750    23114423.164    95933408.070          40.000  
R03  20421183.477   109316200.099          44.500    20421190.125    85023708.915          42.500  
R04  21325111.383   114195003.727          41.500    21325117.027    88818337.773          42.000  
R09  21558478.211   115121067.674          42.500    21558482.473    89538607.809          42.000  
R16  22628096.719   120875236.803          33.250    22628102.809    94014093.705          36.000  
R19  20666332.922   110550937.427          43.000    20666336.676    85984066.525          40.250  
E04  25951444.680   136375763.867          44.500    25951446.828   103167386.798          45.500  
E11  23031075.961   121029119.855          43.500    23031074.043    91557743.138          42.500  
E12  22759264.148   119600737.448          42.500    22759263.063    90477180.354          45.000  
E19  25650981.664   134796770.745          38.750    25650982.375   101972920.403          37.000  
E24  23679761.281   124437984.780          45.000    23679774.988    94136578.568          43.250  
E25  24671821.352   129651293.601          44.500    24671823.914    98080372.181          44.000  
