% program   : RTKLIB MATLAB
% sol start : 2023/07/11 06:04:30.0 GPST
% sol end   : 2023/07/11 06:25:00.0 GPST
% pos mode  : Single
% elev mask : 30.0 deg
% ionos opt : Broadcast
% tropo opt : Saastamoinen
% ephemeris : Broadcast
% navi sys  : GPS GLONASS Galileo QZSS BDS
%
% (lat/lon/height=WGS84/ellipsoidal,Q=1:fix,2:float,3:sbas,4:dgps,5:single,6:ppp,ns=# of satellites)
%  GPST                  latitude(deg) longitude(deg)  height(m)   Q  ns   sdn(m)   sde(m)   sdu(m)  sdne(m)  sdeu(m)  sdun(m) age(s)  ratio    vn(m/s)    ve(m/s)    vu(m/s)      sdvn     sdve     sdvu    sdvne    sdveu    sdvun
2023/07/11 06:04:30.000   35.165393934  136.881442407    39.6452   5  20   3.4239   3.9531   8.3145   1.5390   1.6229  -1.1829   0.00    0.0    0.01294    0.04308    0.02656   0.09822  0.10782  0.25014  0.05434  0.05004  0.05026
2023/07/11 06:04:30.200   35.165394162  136.881442234    39.5713   5  20   3.4239   3.9531   8.3146   1.5389   1.6232  -1.1828   0.00    0.0    0.01117    0.00743   -0.01932   0.09822  0.10782  0.25015  0.05434  0.05006  0.05026
2023/07/11 06:04:30.400   35.165393948  136.881442565    39.5294   5  20   3.4239   3.9532   8.3147   1.5388   1.6236  -1.1827   0.00    0.0    0.01247   -0.00858    0.07473   0.09822  0.10782  0.25015  0.05434  0.05007  0.05026
2023/07/11 06:04:30.600   35.165393758  136.881442682    39.5383   5  20   3.4239   3.9532   8.3148   1.5388   1.6239  -1.1826   0.00    0.0   -0.00466    0.02035   -0.00966   0.09822  0.10782  0.25015  0.05434  0.05008  0.05027
2023/07/11 06:04:30.800   35.165393692  136.881442727    39.5361   5  20   3.4238   3.9532   8.3149   1.5387   1.6243  -1.1826   0.00    0.0   -0.01577    0.00119    0.05075   0.09822  0.10782  0.25016  0.05434  0.05009  0.05027
2023/07/11 06:04:31.000   35.165393682  136.881442635    39.5607   5  20   3.4238   3.9532   8.3150   1.5387   1.6246  -1.1825   0.00    0.0    0.00027    0.01856   -0.00936   0.09822  0.10783  0.25016  0.05434  0.05010  0.05027
2023/07/11 06:04:31.200   35.165393571  136.881442811    39.5575   5  20   3.4238   3.9532   8.3151   1.5386   1.6250  -1.1824   0.00    0.0   -0.01167   -0.00191    0.01640   0.09822  0.10783  0.25017  0.05434  0.05012  0.05028
2023/07/11 06:04:31.400   35.165393759  136.881442703    39.5448   5  20   3.4238   3.9532   8.3152   1.5385   1.6253  -1.1823   0.00    0.0    0.01380   -0.00099   -0.00230   0.09822  0.10783  0.25017  0.05434  0.05013  0.05028
2023/07/11 06:04:31.600   35.165393986  136.881442769    39.5245   5  20   3.4238   3.9532   8.3153   1.5385   1.6257  -1.1822   0.00    0.0   -0.02117   -0.01066    0.02444   0.09822  0.10783  0.25017  0.05434  0.05014  0.05028
2023/07/11 06:04:31.800   35.165394242  136.881442789    39.4251   5  20   3.4238   3.9532   8.3154   1.5384   1.6260  -1.1821   0.00    0.0    0.00046    0.00365   -0.01090   0.09822  0.10783  0.25018  0.05434  0.05015  0.05029
2023/07/11 06:04:32.000   35.165394228  136.881442726    39.4483   5  20   3.4237   3.9532   8.3155   1.5383   1.6264  -1.1821   0.00    0.0    0.01946   -0.02313    0.01343   0.09822  0.10783  0.25018  0.05434  0.05016  0.05029
2023/07/11 06:04:32.200   35.165394033  136.881442456    39.4505   5  20   3.4237   3.9532   8.3156   1.5383   1.6267  -1.1820   0.00    0.0   -0.00582   -0.00610    0.01678   0.09822  0.10783  0.25018  0.05434  0.05018  0.05030
2023/07/11 06:04:32.400   35.165394337  136.881442676    39.3930   5  20   3.4237   3.9532   8.3157   1.5382   1.6271  -1.1819   0.00    0.0    0.00295    0.01409    0.00125   0.09822  0.10783  0.25019  0.05434  0.05019  0.05030
2023/07/11 06:04:32.600   35.165394378  136.881442901    39.3794   5  20   3.4237   3.9532   8.3158   1.5382   1.6274  -1.1818   0.00    0.0    0.00497   -0.00316   -0.00607   0.09822  0.10783  0.25019  0.05434  0.05020  0.05030
2023/07/11 06:04:32.800   35.165393850  136.881442836    39.3801   5  20   3.4237   3.9532   8.3159   1.5381   1.6278  -1.1817   0.00    0.0   -0.00637    0.00070    0.03588   0.09822  0.10783  0.25019  0.05434  0.05021  0.05031
2023/07/11 06:04:33.000   35.165393680  136.881442906    39.3624   5  20   3.4237   3.9532   8.3160   1.5380   1.6281  -1.1816   0.00    0.0    0.01080   -0.00406    0.03797   0.09822  0.10783  0.25020  0.05434  0.05022  0.05031
2023/07/11 06:04:33.200   35.165393765  136.881443190    39.3650   5  20   3.4237   3.9532   8.3161   1.5380   1.6285  -1.1816   0.00    0.0   -0.00113   -0.00170   -0.04210   0.09822  0.10783  0.25020  0.05434  0.05024  0.05031
2023/07/11 06:04:33.400   35.165393816  136.881443439    39.4193   5  20   3.4236   3.9532   8.3163   1.5379   1.6288  -1.1815   0.00    0.0    0.00494    0.00942   -0.01932   0.09822  0.10783  0.25020  0.05434  0.05025  0.05032
2023/07/11 06:04:33.600   35.165393706  136.881443618    39.4865   5  20   3.4236   3.9532   8.3164   1.5378   1.6292  -1.1814   0.00    0.0    0.00164    0.00390   -0.02731   0.09822  0.10783  0.25021  0.05434  0.05026  0.05032
2023/07/11 06:04:33.800   35.165393662  136.881443484    39.5013   5  20   3.4236   3.9532   8.3165   1.5378   1.6295  -1.1813   0.00    0.0    0.02318    0.00510   -0.00517   0.09822  0.10783  0.25021  0.05434  0.05027  0.05032
2023/07/11 06:04:34.000   35.165393771  136.881443343    39.4357   5  20   3.4236   3.9532   8.3166   1.5377   1.6298  -1.1812   0.00    0.0    0.02632   -0.00481   -0.01494   0.09823  0.10783  0.25021  0.05434  0.05028  0.05033
2023/07/11 06:04:34.200   35.165393779  136.881443435    39.4167   5  20   3.4236   3.9533   8.3167   1.5377   1.6302  -1.1811   0.00    0.0   -0.01354    0.02669   -0.04739   0.09823  0.10783  0.25022  0.05434  0.05030  0.05033
2023/07/11 06:04:34.400   35.165393850  136.881443396    39.3202   5  20   3.4236   3.9533   8.3168   1.5376   1.6305  -1.1810   0.00    0.0   -0.00184   -0.01595   -0.02231   0.09823  0.10783  0.25022  0.05434  0.05031  0.05033
2023/07/11 06:04:34.600   35.165393916  136.881442893    39.2765   5  20   3.4235   3.9533   8.3169   1.5375   1.6309  -1.1810   0.00    0.0    0.01067    0.00510    0.01366   0.09823  0.10783  0.25022  0.05434  0.05032  0.05034
2023/07/11 06:04:34.800   35.165393850  136.881442904    39.2659   5  20   3.4235   3.9533   8.3170   1.5375   1.6312  -1.1809   0.00    0.0    0.00624    0.00052   -0.07076   0.09823  0.10783  0.25023  0.05434  0.05033  0.05034
2023/07/11 06:04:35.000   35.165393773  136.881442727    39.2016   5  20   3.4235   3.9533   8.3171   1.5374   1.6316  -1.1808   0.00    0.0    0.01562    0.00944    0.01665   0.09823  0.10783  0.25023  0.05434  0.05034  0.05035
2023/07/11 06:04:35.200   35.165394159  136.881442820    39.1968   5  20   3.4235   3.9533   8.3172   1.5373   1.6319  -1.1807   0.00    0.0    0.03640    0.01194    0.01863   0.09823  0.10783  0.25023  0.05435  0.05036  0.05035
2023/07/11 06:04:35.400   35.165394208  136.881442959    39.1451   5  20   3.4235   3.9533   8.3173   1.5373   1.6323  -1.1806   0.00    0.0    0.00982   -0.00832   -0.00515   0.09823  0.10784  0.25024  0.05435  0.05037  0.05035
2023/07/11 06:04:35.600   35.165394187  136.881442841    39.1071   5  20   3.4235   3.9533   8.3174   1.5372   1.6326  -1.1805   0.00    0.0    0.01878    0.01790   -0.03180   0.09823  0.10784  0.25024  0.05435  0.05038  0.05036
2023/07/11 06:04:35.800   35.165394115  136.881443147    39.1191   5  20   3.4235   3.9533   8.3175   1.5372   1.6330  -1.1805   0.00    0.0   -0.00920    0.01380   -0.00897   0.09823  0.10784  0.25024  0.05435  0.05039  0.05036
2023/07/11 06:04:36.000   35.165393898  136.881443326    39.2295   5  20   3.4234   3.9533   8.3176   1.5371   1.6333  -1.1804   0.00    0.0   -0.01606    0.03013   -0.00190   0.09823  0.10784  0.25025  0.05435  0.05040  0.05036
2023/07/11 06:04:36.200   35.165393893  136.881443450    39.2387   5  20   3.4234   3.9533   8.3177   1.5370   1.6337  -1.1803   0.00    0.0    0.00396    0.01808   -0.00351   0.09823  0.10784  0.25025  0.05435  0.05042  0.05037
2023/07/11 06:04:36.400   35.165393521  136.881443432    39.2184   5  20   3.4234   3.9533   8.3178   1.5370   1.6340  -1.1802   0.00    0.0    0.03467    0.00934   -0.04569   0.09823  0.10784  0.25025  0.05435  0.05043  0.05037
2023/07/11 06:04:36.600   35.165393382  136.881443292    39.2082   5  20   3.4234   3.9533   8.3179   1.5369   1.6344  -1.1801   0.00    0.0    0.01215    0.02206    0.00991   0.09823  0.10784  0.25026  0.05435  0.05044  0.05037
2023/07/11 06:04:36.800   35.165393526  136.881443177    39.1764   5  20   3.4234   3.9533   8.3180   1.5368   1.6347  -1.1800   0.00    0.0   -0.01912   -0.01358    0.01239   0.09823  0.10784  0.25026  0.05435  0.05045  0.05038
2023/07/11 06:04:37.000   35.165393421  136.881443466    39.2678   5  20   3.4234   3.9533   8.3182   1.5368   1.6351  -1.1800   0.00    0.0   -0.00303   -0.00837   -0.01775   0.09823  0.10784  0.25026  0.05435  0.05046  0.05038
2023/07/11 06:04:37.200   35.165393474  136.881443843    39.2467   5  20   3.4233   3.9533   8.3183   1.5367   1.6354  -1.1799   0.00    0.0    0.01527    0.00526   -0.02698   0.09823  0.10784  0.25027  0.05435  0.05047  0.05039
2023/07/11 06:04:37.400   35.165393340  136.881443847    39.2171   5  20   3.4233   3.9533   8.3184   1.5367   1.6358  -1.1798   0.00    0.0    0.02289   -0.02943    0.06663   0.09823  0.10784  0.25027  0.05435  0.05049  0.05039
2023/07/11 06:04:37.600   35.165393172  136.881443904    39.2900   5  20   3.4233   3.9533   8.3185   1.5366   1.6361  -1.1797   0.00    0.0   -0.01420   -0.03300    0.09499   0.09823  0.10784  0.25027  0.05435  0.05050  0.05039
2023/07/11 06:04:37.800   35.165392869  136.881443959    39.3100   5  20   3.4233   3.9534   8.3186   1.5365   1.6364  -1.1796   0.00    0.0   -0.00098   -0.00455   -0.01835   0.09823  0.10784  0.25028  0.05435  0.05051  0.05040
2023/07/11 06:04:38.000   35.165392804  136.881443537    39.3533   5  20   3.4233   3.9534   8.3187   1.5365   1.6368  -1.1795   0.00    0.0    0.01142    0.00811    0.01811   0.09823  0.10784  0.25028  0.05435  0.05052  0.05040
2023/07/11 06:04:38.200   35.165392995  136.881443554    39.3667   5  20   3.4233   3.9534   8.3188   1.5364   1.6371  -1.1795   0.00    0.0    0.00058    0.01311    0.03042   0.09823  0.10784  0.25028  0.05435  0.05053  0.05040
2023/07/11 06:04:38.400   35.165392952  136.881443193    39.3909   5  20   3.4233   3.9534   8.3189   1.5363   1.6375  -1.1794   0.00    0.0    0.00893   -0.01212   -0.03607   0.09823  0.10784  0.25029  0.05435  0.05055  0.05041
2023/07/11 06:04:38.600   35.165392971  136.881443283    39.3493   5  20   3.4232   3.9534   8.3190   1.5363   1.6378  -1.1793   0.00    0.0    0.01533   -0.02589   -0.03779   0.09823  0.10784  0.25029  0.05435  0.05056  0.05041
2023/07/11 06:04:38.800   35.165392907  136.881443382    39.3764   5  20   3.4232   3.9534   8.3191   1.5362   1.6382  -1.1792   0.00    0.0    0.00090   -0.01212   -0.01372   0.09823  0.10784  0.25029  0.05435  0.05057  0.05041
2023/07/11 06:04:39.000   35.165392530  136.881443041    39.3566   5  20   3.4232   3.9534   8.3192   1.5362   1.6385  -1.1791   0.00    0.0    0.03034   -0.00937    0.02509   0.09823  0.10784  0.25030  0.05435  0.05058  0.05042
2023/07/11 06:04:39.200   35.165392380  136.881442930    39.3381   5  20   3.4232   3.9534   8.3193   1.5361   1.6389  -1.1790   0.00    0.0    0.00961    0.01111   -0.01848   0.09823  0.10784  0.25030  0.05435  0.05059  0.05042
2023/07/11 06:04:39.400   35.165392223  136.881442594    39.3057   5  20   3.4232   3.9534   8.3194   1.5360   1.6392  -1.1789   0.00    0.0   -0.03642   -0.01252    0.00424   0.09823  0.10784  0.25030  0.05435  0.05061  0.05042
2023/07/11 06:04:39.600   35.165392478  136.881442474    39.3196   5  20   3.4232   3.9534   8.3195   1.5360   1.6396  -1.1789   0.00    0.0    0.00747   -0.00879   -0.00864   0.09823  0.10784  0.25031  0.05435  0.05062  0.05043
2023/07/11 06:04:39.800   35.165392378  136.881442313    39.3476   5  20   3.4231   3.9534   8.3196   1.5359   1.6399  -1.1788   0.00    0.0    0.00280   -0.02729    0.04846   0.09823  0.10785  0.25031  0.05435  0.05063  0.05043
2023/07/11 06:04:40.000   35.165392452  136.881442460    39.4205   5  20   3.4231   3.9534   8.3197   1.5358   1.6403  -1.1787   0.00    0.0   -0.01433    0.00685   -0.03897   0.09823  0.10785  0.25032  0.05435  0.05064  0.05044
2023/07/11 06:04:40.200   35.165392031  136.881442462    39.4763   5  20   3.4231   3.9534   8.3198   1.5358   1.6406  -1.1786   0.00    0.0    0.00148   -0.00157    0.02324   0.09823  0.10785  0.25032  0.05435  0.05065  0.05044
2023/07/11 06:04:40.400   35.165392138  136.881442517    39.5452   5  20   3.4231   3.9534   8.3199   1.5357   1.6410  -1.1785   0.00    0.0    0.00560   -0.03670    0.06965   0.09823  0.10785  0.25032  0.05435  0.05067  0.05044
2023/07/11 06:04:40.600   35.165392233  136.881442737    39.5292   5  20   3.4231   3.9534   8.3201   1.5357   1.6413  -1.1784   0.00    0.0    0.00777    0.00532   -0.04703   0.09823  0.10785  0.25033  0.05435  0.05068  0.05045
2023/07/11 06:04:40.800   35.165392150  136.881442532    39.4959   5  20   3.4231   3.9534   8.3202   1.5356   1.6416  -1.1784   0.00    0.0    0.03030   -0.00976    0.01246   0.09823  0.10785  0.25033  0.05435  0.05069  0.05045
2023/07/11 06:04:41.000   35.165392053  136.881442441    39.5281   5  20   3.4231   3.9534   8.3203   1.5355   1.6420  -1.1783   0.00    0.0    0.00176   -0.00333   -0.00306   0.09823  0.10785  0.25033  0.05435  0.05070  0.05045
2023/07/11 06:04:41.200   35.165391851  136.881442502    39.5377   5  20   3.4230   3.9535   8.3204   1.5355   1.6423  -1.1782   0.00    0.0    0.00946   -0.01774   -0.01222   0.09823  0.10785  0.25034  0.05435  0.05071  0.05046
2023/07/11 06:04:41.400   35.165391527  136.881442328    39.5898   5  20   3.4230   3.9535   8.3205   1.5354   1.6427  -1.1781   0.00    0.0   -0.00253   -0.00955    0.01157   0.09823  0.10785  0.25034  0.05435  0.05072  0.05046
2023/07/11 06:04:41.600   35.165391432  136.881441873    39.5575   5  20   3.4230   3.9535   8.3206   1.5353   1.6430  -1.1780   0.00    0.0    0.00919    0.00645   -0.02014   0.09823  0.10785  0.25034  0.05435  0.05074  0.05046
2023/07/11 06:04:41.800   35.165391461  136.881442055    39.4966   5  20   3.4230   3.9535   8.3207   1.5353   1.6434  -1.1779   0.00    0.0    0.00591    0.05261   -0.02474   0.09823  0.10785  0.25035  0.05435  0.05075  0.05047
2023/07/11 06:04:42.000   35.165391467  136.881442381    39.5619   5  20   3.4230   3.9535   8.3208   1.5352   1.6437  -1.1779   0.00    0.0   -0.00906    0.02528   -0.03119   0.09823  0.10785  0.25035  0.05435  0.05076  0.05047
2023/07/11 06:04:42.200   35.165391519  136.881441992    39.5253   5  20   3.4230   3.9535   8.3209   1.5352   1.6441  -1.1778   0.00    0.0    0.01115    0.01550    0.03217   0.09823  0.10785  0.25035  0.05435  0.05077  0.05047
2023/07/11 06:04:42.400   35.165391273  136.881441721    39.4510   5  20   3.4229   3.9535   8.3210   1.5351   1.6444  -1.1777   0.00    0.0    0.01416   -0.00283   -0.01152   0.09823  0.10785  0.25036  0.05435  0.05078  0.05048
2023/07/11 06:04:42.600   35.165391690  136.881441648    39.4315   5  20   3.4229   3.9535   8.3211   1.5350   1.6448  -1.1776   0.00    0.0   -0.00071   -0.00505   -0.00018   0.09823  0.10785  0.25036  0.05435  0.05080  0.05048
2023/07/11 06:04:42.800   35.165391608  136.881441589    39.4947   5  20   3.4229   3.9535   8.3212   1.5350   1.6451  -1.1775   0.00    0.0    0.00376   -0.00992    0.01990   0.09823  0.10785  0.25036  0.05435  0.05081  0.05049
2023/07/11 06:04:43.000   35.165391827  136.881441458    39.4888   5  20   3.4229   3.9535   8.3213   1.5349   1.6454  -1.1774   0.00    0.0    0.00804   -0.01708    0.00185   0.09824  0.10785  0.25037  0.05435  0.05082  0.05049
2023/07/11 06:04:43.200   35.165391686  136.881441399    39.4707   5  20   3.4229   3.9535   8.3214   1.5348   1.6458  -1.1774   0.00    0.0   -0.00977   -0.00607   -0.00611   0.09824  0.10785  0.25037  0.05435  0.05083  0.05049
2023/07/11 06:04:43.400   35.165391581  136.881441099    39.4628   5  20   3.4229   3.9535   8.3215   1.5348   1.6461  -1.1773   0.00    0.0    0.00773   -0.00415    0.05131   0.09824  0.10785  0.25037  0.05435  0.05084  0.05050
2023/07/11 06:04:43.600   35.165391468  136.881440857    39.4599   5  20   3.4229   3.9535   8.3216   1.5347   1.6465  -1.1772   0.00    0.0    0.00574   -0.02682   -0.00221   0.09824  0.10785  0.25038  0.05435  0.05085  0.05050
2023/07/11 06:04:43.800   35.165391386  136.881441014    39.4395   5  20   3.4228   3.9535   8.3217   1.5346   1.6468  -1.1771   0.00    0.0    0.00732    0.01345   -0.01105   0.09824  0.10785  0.25038  0.05435  0.05087  0.05050
2023/07/11 06:04:44.000   35.165391681  136.881441200    39.4852   5  20   3.4228   3.9535   8.3219   1.5346   1.6472  -1.1770   0.00    0.0    0.00384    0.00423    0.01481   0.09824  0.10786  0.25038  0.05435  0.05088  0.05051
2023/07/11 06:04:44.200   35.165391784  136.881441204    39.5551   5  20   3.4228   3.9535   8.3220   1.5345   1.6475  -1.1769   0.00    0.0   -0.00204    0.00803    0.04697   0.09824  0.10786  0.25039  0.05435  0.05089  0.05051
2023/07/11 06:04:44.400   35.165391649  136.881441266    39.5694   5  20   3.4228   3.9535   8.3221   1.5345   1.6479  -1.1768   0.00    0.0   -0.00265   -0.01512   -0.01698   0.09824  0.10786  0.25039  0.05435  0.05090  0.05051
2023/07/11 06:04:44.600   35.165391705  136.881441276    39.5702   5  20   3.4228   3.9536   8.3222   1.5344   1.6482  -1.1768   0.00    0.0    0.01903    0.01777    0.02110   0.09824  0.10786  0.25039  0.05435  0.05091  0.05052
2023/07/11 06:04:44.800   35.165391727  136.881441341    39.5664   5  20   3.4228   3.9536   8.3223   1.5343   1.6486  -1.1767   0.00    0.0   -0.00024   -0.01566   -0.02695   0.09824  0.10786  0.25040  0.05435  0.05093  0.05052
2023/07/11 06:04:45.000   35.165391611  136.881441297    39.6056   5  20   3.4227   3.9536   8.3224   1.5343   1.6489  -1.1766   0.00    0.0   -0.01322    0.01752    0.06429   0.09824  0.10786  0.25040  0.05435  0.05094  0.05052
2023/07/11 06:04:45.200   35.165391642  136.881441303    39.6077   5  20   3.4227   3.9536   8.3225   1.5342   1.6492  -1.1765   0.00    0.0    0.00635    0.01214    0.04080   0.09824  0.10786  0.25040  0.05435  0.05095  0.05053
2023/07/11 06:04:45.400   35.165391559  136.881441680    39.6754   5  20   3.4227   3.9536   8.3226   1.5341   1.6496  -1.1764   0.00    0.0   -0.00383   -0.02680   -0.02557   0.09824  0.10786  0.25041  0.05435  0.05096  0.05053
2023/07/11 06:04:45.600   35.165391536  136.881441826    39.6951   5  20   3.4227   3.9536   8.3227   1.5341   1.6499  -1.1763   0.00    0.0   -0.00375    0.00466   -0.05074   0.09824  0.10786  0.25041  0.05435  0.05097  0.05053
2023/07/11 06:04:45.800   35.165391641  136.881442039    39.6746   5  20   3.4227   3.9536   8.3228   1.5340   1.6503  -1.1763   0.00    0.0    0.01187   -0.00235    0.05035   0.09824  0.10786  0.25041  0.05435  0.05098  0.05054
2023/07/11 06:04:46.000   35.165391656  136.881441585    39.6506   5  20   3.4227   3.9536   8.3229   1.5340   1.6506  -1.1762   0.00    0.0    0.00278    0.02757   -0.01865   0.09824  0.10786  0.25042  0.05435  0.05100  0.05054
2023/07/11 06:04:46.200   35.165391552  136.881441056    39.6102   5  20   3.4227   3.9536   8.3230   1.5339   1.6510  -1.1761   0.00    0.0   -0.02154    0.00816   -0.02391   0.09824  0.10786  0.25042  0.05435  0.05101  0.05055
2023/07/11 06:04:46.400   35.165391586  136.881441367    39.5493   5  20   3.4226   3.9536   8.3231   1.5338   1.6513  -1.1760   0.00    0.0    0.00192   -0.01073    0.04726   0.09824  0.10786  0.25042  0.05435  0.05102  0.05055
2023/07/11 06:04:46.600   35.165391547  136.881441495    39.5539   5  20   3.4226   3.9536   8.3232   1.5338   1.6517  -1.1759   0.00    0.0    0.02639   -0.00090   -0.01767   0.09824  0.10786  0.25043  0.05435  0.05103  0.05055
2023/07/11 06:04:46.800   35.165391549  136.881441399    39.5031   5  20   3.4226   3.9536   8.3233   1.5337   1.6520  -1.1758   0.00    0.0    0.00810    0.00921   -0.02201   0.09824  0.10786  0.25043  0.05435  0.05104  0.05056
2023/07/11 06:04:47.000   35.165391840  136.881441251    39.4946   5  20   3.4226   3.9536   8.3234   1.5336   1.6523  -1.1758   0.00    0.0    0.00967    0.01682   -0.01025   0.09824  0.10786  0.25043  0.05435  0.05106  0.05056
2023/07/11 06:04:47.200   35.165391991  136.881441275    39.4916   5  20   3.4226   3.9536   8.3235   1.5336   1.6527  -1.1757   0.00    0.0    0.00607   -0.00178    0.03270   0.09824  0.10786  0.25044  0.05435  0.05107  0.05056
2023/07/11 06:04:47.400   35.165392084  136.881440915    39.4177   5  20   3.4226   3.9536   8.3236   1.5335   1.6530  -1.1756   0.00    0.0    0.00520    0.01654    0.01628   0.09824  0.10786  0.25044  0.05435  0.05108  0.05057
2023/07/11 06:04:47.600   35.165392055  136.881440987    39.4009   5  20   3.4225   3.9536   8.3238   1.5335   1.6534  -1.1755   0.00    0.0   -0.00281   -0.00734    0.04470   0.09824  0.10786  0.25044  0.05435  0.05109  0.05057
2023/07/11 06:04:47.800   35.165391849  136.881441041    39.4403   5  20   3.4225   3.9536   8.3239   1.5334   1.6537  -1.1754   0.00    0.0    0.00719   -0.01036   -0.00068   0.09824  0.10786  0.25045  0.05435  0.05110  0.05057
2023/07/11 06:04:48.000   35.165391657  136.881441045    39.4432   5  20   3.4225   3.9537   8.3240   1.5333   1.6541  -1.1753   0.00    0.0   -0.00079   -0.02063   -0.04611   0.09824  0.10786  0.25045  0.05435  0.05111  0.05058
2023/07/11 06:04:48.200   35.165391649  136.881440633    39.3969   5  20   3.4225   3.9537   8.3241   1.5333   1.6544  -1.1753   0.00    0.0    0.00831   -0.02302   -0.04031   0.09824  0.10786  0.25045  0.05435  0.05113  0.05058
2023/07/11 06:04:48.400   35.165391762  136.881440848    39.3925   5  20   3.4225   3.9537   8.3242   1.5332   1.6548  -1.1752   0.00    0.0    0.01640    0.01240   -0.04576   0.09824  0.10787  0.25046  0.05435  0.05114  0.05058
2023/07/11 06:04:48.600   35.165391940  136.881440546    39.3848   5  20   3.4225   3.9537   8.3243   1.5331   1.6551  -1.1751   0.00    0.0    0.02335   -0.00708   -0.00786   0.09824  0.10787  0.25046  0.05435  0.05115  0.05059
2023/07/11 06:04:48.800   35.165391985  136.881440282    39.3816   5  20   3.4225   3.9537   8.3244   1.5331   1.6554  -1.1750   0.00    0.0    0.00021   -0.01093   -0.00625   0.09824  0.10787  0.25046  0.05435  0.05116  0.05059
2023/07/11 06:04:49.000   35.165392288  136.881440171    39.3343   5  20   3.4224   3.9537   8.3245   1.5330   1.6558  -1.1749   0.00    0.0   -0.00777   -0.00355    0.02799   0.09824  0.10787  0.25047  0.05435  0.05117  0.05059
2023/07/11 06:04:49.200   35.165392302  136.881440161    39.3731   5  20   3.4224   3.9537   8.3246   1.5330   1.6561  -1.1748   0.00    0.0    0.02039    0.00563    0.00383   0.09824  0.10787  0.25047  0.05435  0.05119  0.05060
2023/07/11 06:04:49.400   35.165392187  136.881440024    39.3804   5  20   3.4224   3.9537   8.3247   1.5329   1.6565  -1.1748   0.00    0.0   -0.01497    0.01909    0.02193   0.09824  0.10787  0.25047  0.05435  0.05120  0.05060
2023/07/11 06:04:49.600   35.165392036  136.881439801    39.3190   5  20   3.4224   3.9537   8.3248   1.5328   1.6568  -1.1747   0.00    0.0   -0.00241   -0.00906    0.03039   0.09824  0.10787  0.25048  0.05435  0.05121  0.05061
2023/07/11 06:04:49.800   35.165392448  136.881440139    39.3724   5  20   3.4224   3.9537   8.3249   1.5328   1.6572  -1.1746   0.00    0.0    0.00601    0.00651   -0.00042   0.09824  0.10787  0.25048  0.05435  0.05122  0.05061
2023/07/11 06:04:50.000   35.165392423  136.881440276    39.4113   5  20   3.4224   3.9537   8.3250   1.5327   1.6575  -1.1745   0.00    0.0    0.00744   -0.01517    0.01548   0.09824  0.10787  0.25048  0.05435  0.05123  0.05061
2023/07/11 06:04:50.200   35.165392852  136.881440155    39.2843   5  20   3.4223   3.9537   8.3251   1.5326   1.6578  -1.1744   0.00    0.0    0.00271   -0.00150   -0.01919   0.09824  0.10787  0.25049  0.05435  0.05124  0.05062
2023/07/11 06:04:50.400   35.165392823  136.881439723    39.2220   5  20   3.4223   3.9537   8.3252   1.5326   1.6582  -1.1743   0.00    0.0    0.01499   -0.01328   -0.00532   0.09824  0.10787  0.25049  0.05435  0.05126  0.05062
2023/07/11 06:04:50.600   35.165393003  136.881439252    39.1743   5  20   3.4223   3.9537   8.3253   1.5325   1.6585  -1.1743   0.00    0.0    0.00395   -0.00750    0.03077   0.09824  0.10787  0.25049  0.05435  0.05127  0.05062
2023/07/11 06:04:50.800   35.165392569  136.881439215    39.1876   5  20   3.4223   3.9537   8.3254   1.5324   1.6589  -1.1742   0.00    0.0   -0.00171    0.00911   -0.02615   0.09824  0.10787  0.25050  0.05435  0.05128  0.05063
2023/07/11 06:04:51.000   35.165392527  136.881439272    39.1507   5  20   3.4223   3.9537   8.3256   1.5324   1.6592  -1.1741   0.00    0.0   -0.00127    0.00001    0.05571   0.09824  0.10787  0.25050  0.05435  0.05129  0.05063
2023/07/11 06:04:51.200   35.165392323  136.881439179    39.1125   5  20   3.4223   3.9537   8.3257   1.5323   1.6596  -1.1740   0.00    0.0   -0.01282    0.00527    0.05444   0.09824  0.10787  0.25050  0.05435  0.05130  0.05063
2023/07/11 06:04:51.400   35.165392302  136.881438832    39.0858   5  20   3.4223   3.9538   8.3258   1.5323   1.6599  -1.1739   0.00    0.0    0.02568    0.00015    0.03229   0.09824  0.10787  0.25051  0.05435  0.05131  0.05064
2023/07/11 06:04:51.600   35.165392337  136.881438824    39.1237   5  20   3.4222   3.9538   8.3259   1.5322   1.6602  -1.1738   0.00    0.0   -0.00651    0.03064   -0.05314   0.09824  0.10787  0.25051  0.05435  0.05133  0.05064
2023/07/11 06:04:51.800   35.165392250  136.881438663    39.1865   5  20   3.4222   3.9538   8.3260   1.5321   1.6606  -1.1737   0.00    0.0   -0.00797   -0.00976    0.05307   0.09824  0.10787  0.25051  0.05435  0.05134  0.05064
2023/07/11 06:04:52.000   35.165392498  136.881438532    39.1758   5  20   3.4222   3.9538   8.3261   1.5321   1.6609  -1.1737   0.00    0.0    0.02165   -0.02870   -0.03584   0.09824  0.10787  0.25052  0.05435  0.05135  0.05065
2023/07/11 06:04:52.200   35.165392261  136.881438776    39.2019   5  20   3.4222   3.9538   8.3262   1.5320   1.6613  -1.1736   0.00    0.0   -0.01669   -0.00862   -0.00424   0.09824  0.10787  0.25052  0.05435  0.05136  0.05065
2023/07/11 06:04:52.400   35.165392002  136.881438761    39.2187   5  20   3.4222   3.9538   8.3263   1.5319   1.6616  -1.1735   0.00    0.0   -0.01170    0.00461    0.02272   0.09825  0.10787  0.25052  0.05435  0.05137  0.05065
2023/07/11 06:04:52.600   35.165392057  136.881438509    39.1176   5  20   3.4222   3.9538   8.3264   1.5319   1.6620  -1.1734   0.00    0.0   -0.00292   -0.00084   -0.03764   0.09825  0.10788  0.25053  0.05435  0.05139  0.05066
2023/07/11 06:04:52.800   35.165391920  136.881438120    39.0352   5  20   3.4221   3.9538   8.3265   1.5318   1.6623  -1.1733   0.00    0.0    0.00207    0.01284   -0.00005   0.09825  0.10788  0.25053  0.05435  0.05140  0.05066
2023/07/11 06:04:53.000   35.165391853  136.881437796    39.0200   5  20   3.4221   3.9538   8.3266   1.5318   1.6626  -1.1732   0.00    0.0   -0.01259   -0.00593   -0.00189   0.09825  0.10788  0.25053  0.05435  0.05141  0.05067
2023/07/11 06:04:53.200   35.165391670  136.881438089    39.0602   5  20   3.4221   3.9538   8.3267   1.5317   1.6630  -1.1732   0.00    0.0   -0.00619    0.00828    0.01536   0.09825  0.10788  0.25054  0.05435  0.05142  0.05067
2023/07/11 06:04:53.400   35.165391318  136.881437791    39.0675   5  20   3.4221   3.9538   8.3268   1.5316   1.6633  -1.1731   0.00    0.0    0.03860   -0.00839   -0.01672   0.09825  0.10788  0.25054  0.05435  0.05143  0.05067
2023/07/11 06:04:53.600   35.165391111  136.881437623    39.0822   5  20   3.4221   3.9538   8.3269   1.5316   1.6637  -1.1730   0.00    0.0   -0.01455   -0.00219    0.00890   0.09825  0.10788  0.25054  0.05435  0.05144  0.05068
2023/07/11 06:04:53.800   35.165391312  136.881437894    39.1201   5  20   3.4221   3.9538   8.3270   1.5315   1.6640  -1.1729   0.00    0.0    0.02389   -0.00205    0.00525   0.09825  0.10788  0.25055  0.05435  0.05146  0.05068
2023/07/11 06:04:54.000   35.165391270  136.881438291    39.2007   5  20   3.4221   3.9538   8.3271   1.5314   1.6644  -1.1728   0.00    0.0   -0.01419    0.02459    0.04805   0.09825  0.10788  0.25055  0.05435  0.05147  0.05068
2023/07/11 06:04:54.200   35.165391243  136.881438492    39.1937   5  20   3.4220   3.9538   8.3273   1.5314   1.6647  -1.1727   0.00    0.0    0.01031    0.00782   -0.01006   0.09825  0.10788  0.25055  0.05435  0.05148  0.05069
2023/07/11 06:04:54.400   35.165391356  136.881438094    39.1466   5  20   3.4220   3.9538   8.3274   1.5313   1.6650  -1.1727   0.00    0.0    0.00807   -0.00032   -0.09715   0.09825  0.10788  0.25056  0.05435  0.05149  0.05069
2023/07/11 06:04:54.600   35.165391241  136.881438350    39.2098   5  20   3.4220   3.9538   8.3275   1.5312   1.6654  -1.1726   0.00    0.0   -0.00177    0.00616    0.06683   0.09825  0.10788  0.25056  0.05435  0.05150  0.05069
2023/07/11 06:04:54.800   35.165391142  136.881438368    39.1845   5  20   3.4220   3.9539   8.3276   1.5312   1.6657  -1.1725   0.00    0.0   -0.01800    0.00155    0.02613   0.09825  0.10788  0.25056  0.05435  0.05151  0.05070
2023/07/11 06:04:55.000   35.165390861  136.881438349    39.2035   5  20   3.4220   3.9539   8.3277   1.5311   1.6661  -1.1724   0.00    0.0   -0.00756    0.01309   -0.00564   0.09825  0.10788  0.25057  0.05435  0.05153  0.05070
2023/07/11 06:04:55.200   35.165390828  136.881438281    39.2114   5  20   3.4220   3.9539   8.3278   1.5311   1.6664  -1.1723   0.00    0.0    0.02506    0.01335   -0.00282   0.09825  0.10788  0.25057  0.05435  0.05154  0.05070
2023/07/11 06:04:55.400   35.165390809  136.881438527    39.2908   5  20   3.4219   3.9539   8.3279   1.5310   1.6668  -1.1722   0.00    0.0    0.01696   -0.02417    0.06838   0.09825  0.10788  0.25057  0.05435  0.05155  0.05071
2023/07/11 06:04:55.600   35.165391019  136.881438571    39.3195   5  20   3.4219   3.9539   8.3280   1.5309   1.6671  -1.1722   0.00    0.0   -0.00906   -0.02656    0.07872   0.09825  0.10788  0.25058  0.05435  0.05156  0.05071
2023/07/11 06:04:55.800   35.165391038  136.881438734    39.3927   5  20   3.4219   3.9539   8.3281   1.5309   1.6674  -1.1721   0.00    0.0   -0.01189    0.03134   -0.03710   0.09825  0.10788  0.25058  0.05435  0.05157  0.05071
2023/07/11 06:04:56.000   35.165391240  136.881438739    39.4474   5  20   3.4219   3.9539   8.3282   1.5308   1.6678  -1.1720   0.00    0.0    0.02587    0.00603   -0.03740   0.09825  0.10788  0.25058  0.05435  0.05158  0.05072
2023/07/11 06:04:56.200   35.165391234  136.881438505    39.4345   5  20   3.4219   3.9539   8.3283   1.5307   1.6681  -1.1719   0.00    0.0    0.01308    0.00851   -0.03463   0.09825  0.10788  0.25059  0.05435  0.05160  0.05072
2023/07/11 06:04:56.400   35.165391098  136.881438298    39.4222   5  20   3.4219   3.9539   8.3284   1.5307   1.6685  -1.1718   0.00    0.0    0.01269    0.01220    0.01287   0.09825  0.10788  0.25059  0.05435  0.05161  0.05072
2023/07/11 06:04:56.600   35.165391068  136.881438082    39.3970   5  20   3.4219   3.9539   8.3285   1.5306   1.6688  -1.1717   0.00    0.0    0.01274    0.01614   -0.01442   0.09825  0.10788  0.25059  0.05435  0.05162  0.05073
2023/07/11 06:04:56.800   35.165390998  136.881438140    39.3727   5  20   3.4218   3.9539   8.3286   1.5306   1.6691  -1.1717   0.00    0.0   -0.02349   -0.01596    0.05250   0.09825  0.10789  0.25060  0.05435  0.05163  0.05073
2023/07/11 06:04:57.000   35.165390875  136.881438300    39.3639   5  20   3.4218   3.9539   8.3287   1.5305   1.6695  -1.1716   0.00    0.0   -0.01435   -0.02654    0.01494   0.09825  0.10789  0.25060  0.05435  0.05164  0.05074
2023/07/11 06:04:57.200   35.165390721  136.881438208    39.3490   5  20   3.4218   3.9539   8.3288   1.5304   1.6698  -1.1715   0.00    0.0   -0.00250   -0.00289   -0.08304   0.09825  0.10789  0.25060  0.05435  0.05165  0.05074
2023/07/11 06:04:57.400   35.165390792  136.881438032    39.2866   5  20   3.4218   3.9539   8.3289   1.5304   1.6702  -1.1714   0.00    0.0    0.00512   -0.00084   -0.00799   0.09825  0.10789  0.25061  0.05435  0.05167  0.05074
2023/07/11 06:04:57.600   35.165390718  136.881437796    39.2576   5  20   3.4218   3.9539   8.3291   1.5303   1.6705  -1.1713   0.00    0.0   -0.01031   -0.00648    0.02330   0.09825  0.10789  0.25061  0.05435  0.05168  0.05075
2023/07/11 06:04:57.800   35.165390413  136.881437650    39.2282   5  20   3.4218   3.9539   8.3292   1.5302   1.6709  -1.1712   0.00    0.0    0.01766   -0.00360   -0.04489   0.09825  0.10789  0.25061  0.05435  0.05169  0.05075
2023/07/11 06:04:58.000   35.165390344  136.881437490    39.2679   5  20   3.4217   3.9540   8.3293   1.5302   1.6712  -1.1712   0.00    0.0    0.01157   -0.00238    0.04314   0.09825  0.10789  0.25062  0.05435  0.05170  0.05075
2023/07/11 06:04:58.200   35.165390568  136.881437371    39.2209   5  20   3.4217   3.9540   8.3294   1.5301   1.6715  -1.1711   0.00    0.0   -0.00502    0.03136    0.01017   0.09825  0.10789  0.25062  0.05435  0.05171  0.05076
2023/07/11 06:04:58.400   35.165390674  136.881437284    39.1772   5  20   3.4217   3.9540   8.3295   1.5300   1.6719  -1.1710   0.00    0.0   -0.00177    0.01505   -0.01265   0.09825  0.10789  0.25062  0.05435  0.05172  0.05076
2023/07/11 06:04:58.600   35.165390688  136.881437274    39.1391   5  20   3.4217   3.9540   8.3296   1.5300   1.6722  -1.1709   0.00    0.0    0.00658   -0.01752   -0.06512   0.09825  0.10789  0.25063  0.05435  0.05174  0.05076
2023/07/11 06:04:58.800   35.165390763  136.881437299    39.1408   5  20   3.4217   3.9540   8.3297   1.5299   1.6726  -1.1708   0.00    0.0    0.00870    0.01643   -0.05951   0.09825  0.10789  0.25063  0.05435  0.05175  0.05077
2023/07/11 06:04:59.000   35.165391060  136.881437278    39.0989   5  20   3.4217   3.9540   8.3298   1.5299   1.6729  -1.1707   0.00    0.0   -0.00319    0.02597   -0.02972   0.09825  0.10789  0.25063  0.05435  0.05176  0.05077
2023/07/11 06:04:59.200   35.165390961  136.881437431    39.0367   5  20   3.4217   3.9540   8.3299   1.5298   1.6732  -1.1707   0.00    0.0    0.00432   -0.01783   -0.02050   0.09825  0.10789  0.25064  0.05435  0.05177  0.05077
2023/07/11 06:04:59.400   35.165391035  136.881437299    39.0553   5  20   3.4216   3.9540   8.3300   1.5297   1.6736  -1.1706   0.00    0.0   -0.01031   -0.01536    0.01348   0.09825  0.10789  0.25064  0.05435  0.05178  0.05078
2023/07/11 06:04:59.600   35.165391004  136.881437141    39.0303   5  20   3.4216   3.9540   8.3301   1.5297   1.6739  -1.1705   0.00    0.0   -0.00564    0.00838    0.01336   0.09825  0.10789  0.25064  0.05435  0.05179  0.05078
2023/07/11 06:04:59.800   35.165391043  136.881437225    39.0371   5  20   3.4216   3.9540   8.3302   1.5296   1.6743  -1.1704   0.00    0.0    0.01009    0.01418   -0.02091   0.09825  0.10789  0.25065  0.05435  0.05181  0.05078
2023/07/11 06:05:00.000   35.165390700  136.881437346    39.0572   5  20   3.4216   3.9540   8.3303   1.5295   1.6746  -1.1703   0.00    0.0    0.00749    0.00088   -0.04985   0.09825  0.10789  0.25065  0.05435  0.05182  0.05079
2023/07/11 06:05:00.200   35.165390776  136.881437171    39.0322   5  20   3.4216   3.9540   8.3304   1.5295   1.6749  -1.1702   0.00    0.0    0.01267   -0.01234    0.03772   0.09825  0.10789  0.25065  0.05435  0.05183  0.05079
2023/07/11 06:05:00.400   35.165390608  136.881437566    39.1201   5  20   3.4216   3.9540   8.3305   1.5294   1.6753  -1.1702   0.00    0.0    0.01992   -0.02084   -0.01598   0.09825  0.10789  0.25066  0.05435  0.05184  0.05079
2023/07/11 06:05:00.600   35.165390550  136.881437360    39.1193   5  20   3.4215   3.9540   8.3306   1.5294   1.6756  -1.1701   0.00    0.0   -0.00506    0.00354   -0.02681   0.09825  0.10789  0.25066  0.05435  0.05185  0.05080
2023/07/11 06:05:00.800   35.165390698  136.881437169    39.0583   5  20   3.4215   3.9540   8.3308   1.5293   1.6760  -1.1700   0.00    0.0    0.01375   -0.00564   -0.00751   0.09825  0.10789  0.25066  0.05435  0.05186  0.05080
2023/07/11 06:05:01.000   35.165390594  136.881437078    39.1958   5  20   3.4215   3.9540   8.3309   1.5292   1.6763  -1.1699   0.00    0.0    0.01293   -0.01344   -0.00826   0.09825  0.10790  0.25067  0.05435  0.05188  0.05081
2023/07/11 06:05:01.200   35.165390676  136.881436995    39.1487   5  20   3.4215   3.9541   8.3310   1.5292   1.6766  -1.1698   0.00    0.0    0.01147   -0.01366    0.02735   0.09825  0.10790  0.25067  0.05435  0.05189  0.05081
2023/07/11 06:05:01.400   35.165390497  136.881437143    39.2268   5  20   3.4215   3.9541   8.3311   1.5291   1.6770  -1.1697   0.00    0.0   -0.00478    0.00408    0.07583   0.09825  0.10790  0.25067  0.05435  0.05190  0.05081
2023/07/11 06:05:01.600   35.165390546  136.881436773    39.1985   5  20   3.4215   3.9541   8.3312   1.5290   1.6773  -1.1697   0.00    0.0    0.00686   -0.02842   -0.01542   0.09825  0.10790  0.25068  0.05435  0.05191  0.05082
2023/07/11 06:05:01.800   35.165390410  136.881436722    39.1851   5  20   3.4215   3.9541   8.3313   1.5290   1.6777  -1.1696   0.00    0.0    0.05318   -0.01823   -0.03959   0.09826  0.10790  0.25068  0.05435  0.05192  0.05082
2023/07/11 06:05:02.000   35.165390703  136.881436616    39.1696   5  20   3.4214   3.9541   8.3314   1.5289   1.6780  -1.1695   0.00    0.0    0.00908   -0.01312    0.05455   0.09826  0.10790  0.25068  0.05435  0.05193  0.05082
2023/07/11 06:05:02.200   35.165390534  136.881436904    39.2103   5  20   3.4214   3.9541   8.3315   1.5288   1.6784  -1.1694   0.00    0.0    0.01275   -0.01631    0.02028   0.09826  0.10790  0.25069  0.05435  0.05195  0.05083
2023/07/11 06:05:02.400   35.165390468  136.881436818    39.1770   5  20   3.4214   3.9541   8.3316   1.5288   1.6787  -1.1693   0.00    0.0   -0.00127    0.00956    0.00999   0.09826  0.10790  0.25069  0.05435  0.05196  0.05083
2023/07/11 06:05:02.600   35.165390670  136.881436578    39.1433   5  20   3.4214   3.9541   8.3317   1.5287   1.6790  -1.1692   0.00    0.0   -0.00161   -0.00273   -0.01709   0.09826  0.10790  0.25069  0.05435  0.05197  0.05083
2023/07/11 06:05:02.800   35.165390173  136.881436653    39.1385   5  20   3.4214   3.9541   8.3318   1.5287   1.6794  -1.1692   0.00    0.0    0.00653    0.00471   -0.01674   0.09826  0.10790  0.25070  0.05435  0.05198  0.05084
2023/07/11 06:05:03.000   35.165390109  136.881436673    39.1047   5  20   3.4214   3.9541   8.3319   1.5286   1.6797  -1.1691   0.00    0.0   -0.02180    0.03810    0.00384   0.09826  0.10790  0.25070  0.05435  0.05199  0.05084
2023/07/11 06:05:03.200   35.165389866  136.881436684    39.1034   5  20   3.4213   3.9541   8.3320   1.5285   1.6801  -1.1690   0.00    0.0   -0.00931    0.01466   -0.04637   0.09826  0.10790  0.25070  0.05435  0.05200  0.05084
2023/07/11 06:05:03.400   35.165389842  136.881436709    39.0672   5  20   3.4213   3.9541   8.3321   1.5285   1.6804  -1.1689   0.00    0.0    0.00842    0.00100   -0.00979   0.09826  0.10790  0.25071  0.05435  0.05202  0.05085
2023/07/11 06:05:03.600   35.165389884  136.881436735    39.1266   5  20   3.4213   3.9541   8.3322   1.5284   1.6807  -1.1688   0.00    0.0    0.00759   -0.01745    0.02527   0.09826  0.10790  0.25071  0.05435  0.05203  0.05085
2023/07/11 06:05:03.800   35.165389971  136.881436852    39.1282   5  20   3.4213   3.9541   8.3323   1.5283   1.6811  -1.1687   0.00    0.0   -0.00088   -0.00641    0.03691   0.09826  0.10790  0.25071  0.05435  0.05204  0.05085
2023/07/11 06:05:04.000   35.165390241  136.881437013    39.1199   5  20   3.4213   3.9541   8.3325   1.5283   1.6814  -1.1687   0.00    0.0    0.02211    0.01046    0.03584   0.09826  0.10790  0.25072  0.05435  0.05205  0.05086
2023/07/11 06:05:04.200   35.165390310  136.881436933    39.0469   5  20   3.4213   3.9542   8.3326   1.5282   1.6818  -1.1686   0.00    0.0   -0.00142   -0.00014   -0.04208   0.09826  0.10790  0.25072  0.05435  0.05206  0.05086
2023/07/11 06:05:04.400   35.165390239  136.881436796    39.1002   5  20   3.4213   3.9542   8.3327   1.5281   1.6821  -1.1685   0.00    0.0    0.01792   -0.10827    0.05231   0.09826  0.10790  0.25072  0.05435  0.05207  0.05086
2023/07/11 06:05:04.600   35.165390305  136.881436625    39.1294   5  20   3.4212   3.9542   8.3328   1.5281   1.6824  -1.1684   0.00    0.0   -0.00240   -0.14334   -0.01224   0.09826  0.10790  0.25073  0.05435  0.05209  0.05087
2023/07/11 06:05:04.800   35.165390784  136.881436264    39.1185   5  20   3.4212   3.9542   8.3329   1.5280   1.6828  -1.1683   0.00    0.0    0.01258   -0.19568   -0.04698   0.09826  0.10790  0.25073  0.05435  0.05210  0.05087
2023/07/11 06:05:05.000   35.165390737  136.881435886    39.1987   5  20   3.4212   3.9542   8.3330   1.5280   1.6831  -1.1682   0.00    0.0    0.03782   -0.26740    0.04272   0.09826  0.10790  0.25073  0.05435  0.05211  0.05087
2023/07/11 06:05:05.200   35.165390687  136.881435721    39.2803   5  20   3.4212   3.9542   8.3331   1.5279   1.6834  -1.1682   0.00    0.0   -0.00010   -0.36101   -0.04037   0.09826  0.10791  0.25074  0.05435  0.05212  0.05088
2023/07/11 06:05:05.400   35.165391223  136.881434945    39.2072   5  20   3.4212   3.9542   8.3332   1.5278   1.6838  -1.1681   0.00    0.0    0.04544   -0.31205    0.03100   0.09826  0.10791  0.25074  0.05435  0.05213  0.05088
2023/07/11 06:05:05.600   35.165391272  136.881434479    39.2521   5  20   3.4212   3.9542   8.3333   1.5278   1.6841  -1.1680   0.00    0.0   -0.03063   -0.36100    0.01642   0.09826  0.10791  0.25074  0.05435  0.05214  0.05088
2023/07/11 06:05:05.800   35.165391549  136.881433401    39.2579   5  20   3.4211   3.9542   8.3334   1.5277   1.6845  -1.1679   0.00    0.0   -0.00015   -0.41658   -0.13040   0.09826  0.10791  0.25075  0.05435  0.05215  0.05089
2023/07/11 06:05:06.000   35.165391262  136.881432554    39.2109   5  20   3.4211   3.9542   8.3335   1.5276   1.6848  -1.1678   0.00    0.0   -0.04488   -0.38273    0.00525   0.09826  0.10791  0.25075  0.05435  0.05217  0.05089
2023/07/11 06:05:06.200   35.165391443  136.881431224    39.1528   5  20   3.4211   3.9542   8.3336   1.5276   1.6851  -1.1677   0.00    0.0    0.01104   -0.38261    0.15941   0.09826  0.10791  0.25075  0.05435  0.05218  0.05090
2023/07/11 06:05:06.400   35.165391512  136.881430388    39.2258   5  20   3.4211   3.9542   8.3337   1.5275   1.6855  -1.1677   0.00    0.0   -0.05882   -0.46870    0.00599   0.09826  0.10791  0.25076  0.05435  0.05219  0.05090
2023/07/11 06:05:06.600   35.165391421  136.881429804    39.2675   5  20   3.4211   3.9542   8.3338   1.5275   1.6858  -1.1676   0.00    0.0   -0.07712   -0.44346   -0.03733   0.09826  0.10791  0.25076  0.05435  0.05220  0.05090
2023/07/11 06:05:06.800   35.165391473  136.881429228    39.3616   5  20   3.4211   3.9542   8.3339   1.5274   1.6862  -1.1675   0.00    0.0   -0.09352   -0.45479   -0.07508   0.09826  0.10791  0.25076  0.05435  0.05221  0.05091
2023/07/11 06:05:07.000   35.165391191  136.881428205    39.4622   5  20   3.4211   3.9542   8.3340   1.5273   1.6865  -1.1674   0.00    0.0   -0.05912   -0.46451    0.12643   0.09826  0.10791  0.25077  0.05435  0.05222  0.05091
2023/07/11 06:05:07.200   35.165390997  136.881427215    39.4827   5  20   3.4210   3.9542   8.3342   1.5273   1.6868  -1.1673   0.00    0.0   -0.08113   -0.58802   -0.06681   0.09826  0.10791  0.25077  0.05435  0.05224  0.05091
2023/07/11 06:05:07.400   35.165390926  136.881425918    39.5277   5  20   3.4210   3.9543   8.3343   1.5272   1.6872  -1.1672   0.00    0.0   -0.13770   -0.64136   -0.11670   0.09826  0.10791  0.25077  0.05435  0.05225  0.05092
2023/07/11 06:05:07.600   35.165390826  136.881424663    39.5990   5  20   3.4210   3.9543   8.3344   1.5271   1.6875  -1.1672   0.00    0.0   -0.15331   -0.60532    0.10481   0.09826  0.10791  0.25078  0.05436  0.05226  0.05092
2023/07/11 06:05:07.800   35.165389908  136.881423344    39.7500   5  20   3.4210   3.9543   8.3345   1.5271   1.6879  -1.1671   0.00    0.0   -0.19655   -0.64759    0.02304   0.09826  0.10791  0.25078  0.05436  0.05227  0.05092
2023/07/11 06:05:08.000   35.165389499  136.881421609    39.7586   5  20   3.4210   3.9543   8.3346   1.5270   1.6882  -1.1670   0.00    0.0   -0.26866   -0.66919   -0.12362   0.09826  0.10791  0.25078  0.05436  0.05228  0.05093
2023/07/11 06:05:08.200   35.165388969  136.881419941    39.7330   5  20   3.4210   3.9543   8.3347   1.5269   1.6885  -1.1669   0.00    0.0   -0.28427   -0.69830    0.08163   0.09826  0.10791  0.25079  0.05436  0.05229  0.05093
2023/07/11 06:05:08.400   35.165388159  136.881418686    39.7721   5  20   3.4209   3.9543   8.3348   1.5269   1.6889  -1.1668   0.00    0.0   -0.29577   -0.82511    0.01639   0.09826  0.10791  0.25079  0.05436  0.05231  0.05093
2023/07/11 06:05:08.600   35.165387436  136.881416893    39.7875   5  20   3.4209   3.9543   8.3349   1.5268   1.6892  -1.1667   0.00    0.0   -0.37009   -0.75140   -0.02036   0.09826  0.10791  0.25079  0.05436  0.05232  0.05094
2023/07/11 06:05:08.800   35.165386866  136.881414882    39.8046   5  20   3.4209   3.9543   8.3350   1.5268   1.6895  -1.1667   0.00    0.0   -0.44791   -0.84496    0.01007   0.09826  0.10791  0.25080  0.05436  0.05233  0.05094
2023/07/11 06:05:09.000   35.165385937  136.881412970    39.8234   5  20   3.4209   3.9543   8.3351   1.5267   1.6899  -1.1666   0.00    0.0   -0.44407   -0.79104    0.06467   0.09826  0.10791  0.25080  0.05436  0.05234  0.05094
2023/07/11 06:05:09.200   35.165385408  136.881410715    39.7101   5  20   3.4209   3.9543   8.3352   1.5266   1.6902  -1.1665   0.00    0.0   -0.47965   -0.86348    0.02942   0.09826  0.10792  0.25080  0.05436  0.05235  0.05095
2023/07/11 06:05:09.400   35.165384264  136.881408907    39.7300   5  20   3.4209   3.9543   8.3353   1.5266   1.6906  -1.1664   0.00    0.0   -0.64620   -0.77139    0.12801   0.09826  0.10792  0.25081  0.05436  0.05236  0.05095
2023/07/11 06:05:09.600   35.165382960  136.881406936    39.6592   5  20   3.4209   3.9543   8.3354   1.5265   1.6909  -1.1663   0.00    0.0   -0.69254   -0.75334    0.05044   0.09826  0.10792  0.25081  0.05436  0.05237  0.05095
2023/07/11 06:05:09.800   35.165381692  136.881405343    39.7560   5  20   3.4208   3.9543   8.3355   1.5264   1.6912  -1.1662   0.00    0.0   -0.72025   -0.77612   -0.00504   0.09826  0.10792  0.25081  0.05436  0.05239  0.05096
2023/07/11 06:05:10.000   35.165380121  136.881403598    39.8629   5  20   3.4208   3.9543   8.3356   1.5264   1.6916  -1.1662   0.00    0.0   -0.76263   -0.83406   -0.02563   0.09826  0.10792  0.25082  0.05436  0.05240  0.05096
2023/07/11 06:05:10.200   35.165378504  136.881401350    39.7894   5  20   3.4208   3.9543   8.3358   1.5263   1.6919  -1.1661   0.00    0.0   -0.86063   -0.79881   -0.06576   0.09826  0.10792  0.25082  0.05436  0.05241  0.05096
2023/07/11 06:05:10.400   35.165376941  136.881399190    39.7343   5  20   3.4208   3.9544   8.3359   1.5262   1.6923  -1.1660   0.00    0.0   -0.93128   -0.79744    0.18302   0.09826  0.10792  0.25082  0.05436  0.05242  0.05097
2023/07/11 06:05:10.600   35.165375437  136.881396750    39.6438   5  20   3.4208   3.9544   8.3360   1.5262   1.6926  -1.1659   0.00    0.0   -0.98586   -0.86913    0.03637   0.09826  0.10792  0.25083  0.05436  0.05243  0.05097
2023/07/11 06:05:10.800   35.165373661  136.881395054    39.5699   5  20   3.4208   3.9544   8.3361   1.5261   1.6929  -1.1658   0.00    0.0   -1.03329   -0.79302    0.06887   0.09826  0.10792  0.25083  0.05436  0.05244  0.05097
2023/07/11 06:05:11.000   35.165371755  136.881393131    39.4810   5  20   3.4207   3.9544   8.3362   1.5261   1.6933  -1.1657   0.00    0.0   -1.11119   -0.81938    0.00839   0.09826  0.10792  0.25083  0.05436  0.05246  0.05098
2023/07/11 06:05:11.200   35.165369354  136.881391383    39.5305   5  20   3.4207   3.9544   8.3363   1.5260   1.6936  -1.1657   0.00    0.0   -1.26933   -0.72269   -0.03308   0.09826  0.10792  0.25084  0.05436  0.05247  0.05098
2023/07/11 06:05:11.400   35.165366777  136.881389624    39.5577   5  20   3.4207   3.9544   8.3364   1.5259   1.6939  -1.1656   0.00    0.0   -1.39640   -0.76579    0.12569   0.09826  0.10792  0.25084  0.05436  0.05248  0.05098
2023/07/11 06:05:11.600   35.165364222  136.881388006    39.6214   5  20   3.4207   3.9544   8.3365   1.5259   1.6943  -1.1655   0.00    0.0   -1.43130   -0.82084    0.07579   0.09827  0.10792  0.25084  0.05436  0.05249  0.05099
2023/07/11 06:05:11.800   35.165361442  136.881386451    39.5897   5  20   3.4207   3.9544   8.3366   1.5258   1.6946  -1.1654   0.00    0.0   -1.48092   -0.77663   -0.02927   0.09827  0.10792  0.25085  0.05436  0.05250  0.05099
2023/07/11 06:05:12.000   35.165358276  136.881384404    39.5554   5  20   3.4207   3.9544   8.3367   1.5257   1.6950  -1.1653   0.00    0.0   -1.58322   -0.82145    0.04357   0.09827  0.10792  0.25085  0.05436  0.05251  0.05100
2023/07/11 06:05:12.200   35.165355105  136.881382283    39.6311   5  20   3.4207   3.9544   8.3368   1.5257   1.6953  -1.1652   0.00    0.0   -1.63772   -0.80362    0.01698   0.09827  0.10792  0.25085  0.05436  0.05252  0.05100
2023/07/11 06:05:12.400   35.165351807  136.881380478    39.7163   5  20   3.4206   3.9544   8.3369   1.5256   1.6956  -1.1652   0.00    0.0   -1.76301   -0.78647    0.01459   0.09827  0.10792  0.25086  0.05436  0.05254  0.05100
2023/07/11 06:05:12.600   35.165348912  136.881378580    39.7012   5  20   3.4206   3.9544   8.3370   1.5255   1.6960  -1.1651   0.00    0.0   -1.73445   -0.86396   -0.02068   0.09827  0.10792  0.25086  0.05436  0.05255  0.05101
2023/07/11 06:05:12.800   35.165345393  136.881376984    39.7570   5  20   3.4206   3.9544   8.3371   1.5255   1.6963  -1.1650   0.00    0.0   -1.77148   -0.93659   -0.03243   0.09827  0.10792  0.25086  0.05436  0.05256  0.05101
2023/07/11 06:05:13.000   35.165341864  136.881374725    39.8299   5  20   3.4206   3.9544   8.3372   1.5254   1.6966  -1.1649   0.00    0.0   -1.88411   -0.98267   -0.16790   0.09827  0.10792  0.25087  0.05436  0.05257  0.05101
2023/07/11 06:05:13.200   35.165338394  136.881372613    39.8277   5  20   3.4206   3.9544   8.3374   1.5254   1.6970  -1.1648   0.00    0.0   -1.79854   -1.02882   -0.11720   0.09827  0.10792  0.25087  0.05436  0.05258  0.05102
2023/07/11 06:05:13.400   35.165334963  136.881370187    39.8857   5  20   3.4206   3.9545   8.3375   1.5253   1.6973  -1.1647   0.00    0.0   -1.86805   -1.14375   -0.10904   0.09827  0.10793  0.25087  0.05436  0.05259  0.05102
2023/07/11 06:05:13.600   35.165331325  136.881367546    40.0020   5  20   3.4205   3.9545   8.3376   1.5252   1.6977  -1.1646   0.00    0.0   -1.82728   -1.20420    0.03571   0.09827  0.10793  0.25088  0.05436  0.05261  0.05102
2023/07/11 06:05:13.800   35.165327667  136.881364922    40.0409   5  20   3.4205   3.9545   8.3377   1.5252   1.6980  -1.1646   0.00    0.0   -1.85154   -1.27354    0.09736   0.09827  0.10793  0.25088  0.05436  0.05262  0.05103
2023/07/11 06:05:14.000   35.165324616  136.881361895    40.0599   5  20   3.4205   3.9545   8.3378   1.5251   1.6983  -1.1645   0.00    0.0   -1.77534   -1.38227   -0.02220   0.09827  0.10793  0.25088  0.05436  0.05263  0.05103
2023/07/11 06:05:14.200   35.165321463  136.881358759    40.0449   5  20   3.4205   3.9545   8.3379   1.5250   1.6987  -1.1644   0.00    0.0   -1.64706   -1.53223   -0.04831   0.09827  0.10793  0.25089  0.05436  0.05264  0.05103
2023/07/11 06:05:14.400   35.165318581  136.881354683    40.0089   5  20   3.4205   3.9545   8.3380   1.5250   1.6990  -1.1643   0.00    0.0   -1.59296   -1.74619    0.11368   0.09827  0.10793  0.25089  0.05436  0.05265  0.05104
2023/07/11 06:05:14.600   35.165315392  136.881350637    40.0228   5  20   3.4205   3.9545   8.3381   1.5249   1.6993  -1.1642   0.00    0.0   -1.57041   -1.83367   -0.11399   0.09827  0.10793  0.25089  0.05436  0.05266  0.05104
2023/07/11 06:05:14.800   35.165312627  136.881346490    40.0669   5  20   3.4205   3.9545   8.3382   1.5248   1.6997  -1.1641   0.00    0.0   -1.48077   -1.92219   -0.06989   0.09827  0.10793  0.25090  0.05436  0.05267  0.05104
2023/07/11 06:05:15.000   35.165310381  136.881342260    39.9952   5  20   3.4204   3.9545   8.3383   1.5248   1.7000  -1.1641   0.00    0.0   -1.32151   -2.10677   -0.06602   0.09827  0.10793  0.25090  0.05436  0.05269  0.05105
2023/07/11 06:05:15.200   35.165307982  136.881337335    39.9265   5  20   3.4204   3.9545   8.3384   1.5247   1.7004  -1.1640   0.00    0.0   -1.22927   -2.27243    0.00293   0.09827  0.10793  0.25090  0.05436  0.05270  0.05105
2023/07/11 06:05:15.400   35.165305811  136.881332029    39.8035   5  20   3.4204   3.9545   8.3385   1.5247   1.7007  -1.1639   0.00    0.0   -1.14704   -2.34620    0.00010   0.09827  0.10793  0.25091  0.05436  0.05271  0.05105
2023/07/11 06:05:15.600   35.165304080  136.881326676    39.7044   5  20   3.4204   3.9545   8.3386   1.5246   1.7010  -1.1638   0.00    0.0   -0.96449   -2.40232    0.01904   0.09827  0.10793  0.25091  0.05436  0.05272  0.05106
2023/07/11 06:05:15.800   35.165302626  136.881321439    39.6754   5  20   3.4204   3.9545   8.3387   1.5245   1.7014  -1.1637   0.00    0.0   -0.79186   -2.35236   -0.03403   0.09827  0.10793  0.25091  0.05436  0.05273  0.05106
2023/07/11 06:05:16.000   35.165301861  136.881316104    39.6342   5  20   3.4204   3.9545   8.3388   1.5245   1.7017  -1.1636   0.00    0.0   -0.64155   -2.38360   -0.03624   0.09827  0.10793  0.25092  0.05436  0.05274  0.05106
2023/07/11 06:05:16.200   35.165300958  136.881310978    39.5894   5  20   3.4203   3.9545   8.3390   1.5244   1.7020  -1.1636   0.00    0.0   -0.54324   -2.40903    0.01501   0.09827  0.10793  0.25092  0.05436  0.05276  0.05107
2023/07/11 06:05:16.400   35.165300234  136.881305306    39.5726   5  20   3.4203   3.9546   8.3391   1.5243   1.7024  -1.1635   0.00    0.0   -0.47474   -2.40214    0.09326   0.09827  0.10793  0.25092  0.05436  0.05277  0.05107
2023/07/11 06:05:16.600   35.165300042  136.881300061    39.4997   5  20   3.4203   3.9546   8.3392   1.5243   1.7027  -1.1634   0.00    0.0   -0.33257   -2.37807    0.07551   0.09827  0.10793  0.25093  0.05436  0.05278  0.05107
2023/07/11 06:05:16.800   35.165299442  136.881294857    39.5406   5  20   3.4203   3.9546   8.3393   1.5242   1.7031  -1.1633   0.00    0.0   -0.30731   -2.40441    0.09272   0.09827  0.10793  0.25093  0.05436  0.05279  0.05108
2023/07/11 06:05:17.000   35.165298835  136.881289202    39.5005   5  20   3.4203   3.9546   8.3394   1.5241   1.7034  -1.1632   0.00    0.0   -0.26178   -2.36960   -0.01850   0.09827  0.10793  0.25093  0.05436  0.05280  0.05108
2023/07/11 06:05:17.200   35.165298433  136.881284233    39.4939   5  20   3.4203   3.9546   8.3395   1.5241   1.7037  -1.1631   0.00    0.0   -0.14404   -2.30029   -0.02664   0.09827  0.10793  0.25093  0.05436  0.05281  0.05108
2023/07/11 06:05:17.400   35.165297812  136.881279066    39.4727   5  20   3.4203   3.9546   8.3396   1.5240   1.7041  -1.1631   0.00    0.0   -0.10530   -2.31788   -0.03160   0.09827  0.10794  0.25094  0.05436  0.05282  0.05109
2023/07/11 06:05:17.600   35.165297875  136.881273797    39.3986   5  20   3.4202   3.9546   8.3397   1.5240   1.7044  -1.1630   0.00    0.0   -0.15993   -2.24938   -0.07899   0.09827  0.10794  0.25094  0.05436  0.05284  0.05109
2023/07/11 06:05:17.800   35.165297921  136.881268518    39.3343   5  20   3.4202   3.9546   8.3398   1.5239   1.7047  -1.1629   0.00    0.0   -0.06350   -2.28058    0.04117   0.09827  0.10794  0.25094  0.05436  0.05285  0.05109
2023/07/11 06:05:18.000   35.165297940  136.881263464    39.3089   5  20   3.4202   3.9546   8.3399   1.5238   1.7051  -1.1628   0.00    0.0   -0.03863   -2.22934    0.08218   0.09827  0.10794  0.25095  0.05436  0.05286  0.05110
2023/07/11 06:05:18.200   35.165298153  136.881258807    39.2522   5  20   3.4202   3.9546   8.3400   1.5238   1.7054  -1.1627   0.00    0.0    0.00394   -2.20449   -0.05486   0.09827  0.10794  0.25095  0.05436  0.05287  0.05110
2023/07/11 06:05:18.400   35.165298399  136.881253841    39.2159   5  20   3.4202   3.9546   8.3401   1.5237   1.7058  -1.1626   0.00    0.0    0.08469   -2.27025   -0.02405   0.09827  0.10794  0.25095  0.05436  0.05288  0.05110
2023/07/11 06:05:18.600   35.165298498  136.881248884    39.2413   5  20   3.4202   3.9546   8.3402   1.5236   1.7061  -1.1626   0.00    0.0    0.06656   -2.34449    0.02724   0.09827  0.10794  0.25096  0.05436  0.05289  0.05111
2023/07/11 06:05:18.800   35.165298658  136.881243889    39.2603   5  20   3.4201   3.9546   8.3403   1.5236   1.7064  -1.1625   0.00    0.0    0.06847   -2.43983    0.00749   0.09827  0.10794  0.25096  0.05436  0.05290  0.05111
2023/07/11 06:05:19.000   35.165298562  136.881238597    39.3714   5  20   3.4201   3.9546   8.3404   1.5235   1.7068  -1.1624   0.00    0.0    0.19255   -2.40789    0.06729   0.09827  0.10794  0.25096  0.05436  0.05292  0.05112
2023/07/11 06:05:19.200   35.165298596  136.881233296    39.4106   5  20   3.4201   3.9546   8.3406   1.5234   1.7071  -1.1623   0.00    0.0    0.24281   -2.47747    0.03809   0.09827  0.10794  0.25097  0.05436  0.05293  0.05112
2023/07/11 06:05:19.400   35.165298617  136.881227580    39.4414   5  20   3.4201   3.9547   8.3407   1.5234   1.7074  -1.1622   0.00    0.0    0.26862   -2.54018   -0.06900   0.09827  0.10794  0.25097  0.05436  0.05294  0.05112
2023/07/11 06:05:19.600   35.165298723  136.881221911    39.5132   5  20   3.4201   3.9547   8.3408   1.5233   1.7078  -1.1622   0.00    0.0    0.27573   -2.42743    0.17287   0.09827  0.10794  0.25097  0.05436  0.05295  0.05113
2023/07/11 06:05:19.800   35.165299161  136.881216612    39.5759   5  20   3.4201   3.9547   8.3409   1.5232   1.7081  -1.1621   0.00    0.0    0.32403   -2.38920    0.05129   0.09827  0.10794  0.25098  0.05436  0.05296  0.05113
2023/07/11 06:05:20.000   35.165299639  136.881211115    39.5913   5  20   3.4201   3.9547   8.3410   1.5232   1.7084  -1.1620   0.00    0.0    0.35779   -2.40126    0.01923   0.09827  0.10794  0.25098  0.05436  0.05297  0.05113
2023/07/11 06:05:20.200   35.165290858  136.881192672    41.4140   5  19   3.7056   4.3120   8.7204   2.1843  -1.2051  -2.2312   0.00    0.0    0.44153   -2.27143   -0.03684   0.11267  0.12354  0.26748  0.07916 -0.05245 -0.04983
2023/07/11 06:05:20.400   35.165291580  136.881187262    41.4825   5  19   3.7055   4.3120   8.7205   2.1843  -1.2046  -2.2312   0.00    0.0    0.47415   -2.23292    0.18496   0.11268  0.12354  0.26749  0.07916 -0.05244 -0.04983
2023/07/11 06:05:20.600   35.165292557  136.881182236    41.4341   5  19   3.7055   4.3120   8.7206   2.1842  -1.2042  -2.2312   0.00    0.0    0.43181   -2.18745   -0.06515   0.11268  0.12354  0.26750  0.07916 -0.05243 -0.04983
2023/07/11 06:05:20.800   35.165293472  136.881177000    41.3428   5  19   3.7055   4.3120   8.7208   2.1841  -1.2037  -2.2312   0.00    0.0    0.40067   -2.29328   -0.06706   0.11268  0.12354  0.26750  0.07916 -0.05242 -0.04983
2023/07/11 06:05:21.000   35.165294247  136.881172096    41.3424   5  19   3.7054   4.3120   8.7209   2.1841  -1.2033  -2.2311   0.00    0.0    0.35789   -2.26092   -0.00630   0.11268  0.12354  0.26751  0.07916 -0.05242 -0.04983
2023/07/11 06:05:21.200   35.165294711  136.881167398    41.3721   5  19   3.7054   4.3120   8.7211   2.1840  -1.2029  -2.2311   0.00    0.0    0.35984   -2.17501    0.02828   0.11268  0.12354  0.26751  0.07916 -0.05241 -0.04984
2023/07/11 06:05:21.400   35.165295633  136.881162474    41.3267   5  19   3.7054   4.3119   8.7212   2.1839  -1.2024  -2.2311   0.00    0.0    0.37455   -2.14647   -0.04882   0.11268  0.12354  0.26752  0.07916 -0.05240 -0.04984
2023/07/11 06:05:21.600   35.165296046  136.881157865    41.3634   5  19   3.7054   4.3119   8.7213   2.1838  -1.2020  -2.2311   0.00    0.0    0.26759   -2.10629    0.11245   0.11268  0.12354  0.26752  0.07916 -0.05239 -0.04984
